[
    {
        "name": "一本栗地主神社",
        "prefectureName": "北海道",
        "cityName": "亀田郡七飯町",
        "streetName": "大川９丁目１番１９号",
        "latitude": 41.85989978,
        "longitude": 140.72687603,
        "id": "32535a4c-ac82-48f2-9ccb-7986c5a97d30"
    },
    {
        "name": "七重浜海津見神社",
        "prefectureName": "北海道",
        "cityName": "北斗市",
        "streetName": "七重浜７丁目５番１号",
        "latitude": 41.81796184,
        "longitude": 140.70199053,
        "id": "c4324353-a003-46e4-b742-bec258c8e0cc"
    },
    {
        "name": "三吉神社",
        "prefectureName": "北海道",
        "cityName": "札幌市中央区",
        "streetName": "南一条西８丁目１７番地",
        "latitude": 43.0584592,
        "longitude": 141.34518535,
        "id": "ddfc7c7c-e637-4741-9a1f-d17aeee4c5f8"
    },
    {
        "name": "三吉神社",
        "prefectureName": "北海道",
        "cityName": "根室市",
        "streetName": "花園町２丁目１７番地",
        "latitude": 43.32752283,
        "longitude": 145.57036278,
        "id": "8887265a-4f10-4af0-8071-eecff41c4650"
    },
    {
        "name": "三島神社",
        "prefectureName": "北海道",
        "cityName": "函館市",
        "streetName": "赤川町４５３番地",
        "latitude": 41.7686738,
        "longitude": 140.728924,
        "id": "4d142382-9311-48a3-a79a-e1492697152c"
    },
    {
        "name": "三嶋神社",
        "prefectureName": "北海道",
        "cityName": "亀田郡七飯町",
        "streetName": "本町６丁目２番３号",
        "latitude": 41.89550564,
        "longitude": 140.69327685,
        "id": "ad2fe428-2544-4a00-91c3-aee0427e19b3"
    },
    {
        "name": "三川神社",
        "prefectureName": "北海道",
        "cityName": "夕張郡由仁町",
        "streetName": "三川旭町１９９番地",
        "latitude": 42.94895837,
        "longitude": 141.80203851,
        "id": "ca2b0a17-ae8c-4726-b156-ca878b198b1e"
    },
    {
        "name": "三石神社",
        "prefectureName": "北海道",
        "cityName": "日高郡新ひだか町",
        "streetName": "三石本町３０２番地",
        "latitude": 42.25181263,
        "longitude": 142.55370714,
        "id": "fe41b0c9-3b5a-4a26-990b-acb2385cd89a"
    },
    {
        "name": "三社神社",
        "prefectureName": "北海道",
        "cityName": "松前郡松前町",
        "streetName": "字白神８７１番地",
        "latitude": 41.4300246,
        "longitude": 140.1100068,
        "id": "60b2b246-f5c5-483d-9128-ef68709a96f9"
    },
    {
        "name": "三笠神社",
        "prefectureName": "北海道",
        "cityName": "三笠市",
        "streetName": "萱野１９３番地",
        "latitude": 43.2454354,
        "longitude": 141.8753274,
        "id": "c17eae9e-0d29-4374-bfc1-c26d80c00281"
    },
    {
        "name": "三里塚神社",
        "prefectureName": "北海道",
        "cityName": "札幌市清田区",
        "streetName": "美しが丘一条９丁目２番１号",
        "latitude": 42.97796323,
        "longitude": 141.46551524,
        "id": "cefe5183-a647-49ac-a4cb-1d11f02b3572"
    },
    {
        "name": "上伏古別神社",
        "prefectureName": "北海道",
        "cityName": "河西郡芽室町",
        "streetName": "伏美１７線５０番地",
        "latitude": 42.911862,
        "longitude": 143.050865,
        "id": "fc58cba8-93d4-4e8a-875e-67821c3f73d8"
    },
    {
        "name": "上士別神社",
        "prefectureName": "北海道",
        "cityName": "士別市",
        "streetName": "上士別町十七線北４番地",
        "latitude": 44.1787335,
        "longitude": 142.4004029,
        "id": "79abe8b2-720a-41e5-98fe-a63422e101a4"
    },
    {
        "name": "上士幌神社",
        "prefectureName": "北海道",
        "cityName": "河東郡上士幌町",
        "streetName": "字上士幌東４線２４３番地の９",
        "latitude": 43.23695303,
        "longitude": 143.30235428,
        "id": "54956851-da72-4d96-9f6e-2f82f2aa761c"
    },
    {
        "name": "上富良野神社",
        "prefectureName": "北海道",
        "cityName": "空知郡上富良野町",
        "streetName": "宮町１丁目４番２６号",
        "latitude": 43.4572749,
        "longitude": 142.47418568,
        "id": "1893e8ef-9b04-43b9-b5d3-bed3b36103de"
    },
    {
        "name": "上川神社",
        "prefectureName": "北海道",
        "cityName": "旭川市",
        "streetName": "神楽岡公園２番地１",
        "latitude": 43.75278125,
        "longitude": 142.36418055,
        "id": "a0f14b1c-3062-418d-b802-4e074e7e4c2b"
    },
    {
        "name": "上帯広神社",
        "prefectureName": "北海道",
        "cityName": "帯広市",
        "streetName": "上帯広町西１線７８番地５",
        "latitude": 42.79874065,
        "longitude": 143.06477074,
        "id": "030a745d-820a-48ff-8ef5-6fedc5e8648e"
    },
    {
        "name": "上常呂神社",
        "prefectureName": "北海道",
        "cityName": "北見市",
        "streetName": "上ところ３０番地の１",
        "latitude": 43.75988482,
        "longitude": 143.84517293,
        "id": "526d2045-cd48-4fa4-8b80-44201409eb2d"
    },
    {
        "name": "上幌神社",
        "prefectureName": "北海道",
        "cityName": "岩見沢市",
        "streetName": "栗沢町上幌３５１番地",
        "latitude": 43.14674175,
        "longitude": 141.80350388,
        "id": "bf9937b6-83d1-40fe-8f37-99be8810dee9"
    },
    {
        "name": "上手稲神社",
        "prefectureName": "北海道",
        "cityName": "札幌市西区",
        "streetName": "西野２９０番地２５７",
        "latitude": 43.08343987,
        "longitude": 141.270101,
        "id": "1adbc7e1-935b-4538-ac45-800d692a5703"
    },
    {
        "name": "上支湧別神社",
        "prefectureName": "北海道",
        "cityName": "紋別郡遠軽町",
        "streetName": "白滝上支湧別５１９番地",
        "latitude": 44.0619526,
        "longitude": 143.5279464,
        "id": "5c4e1964-2d5a-44f1-bffe-04c4dcdf1a11"
    },
    {
        "name": "上更別神社",
        "prefectureName": "北海道",
        "cityName": "河西郡更別村",
        "streetName": "字上更別南十三線１０６番地３７",
        "latitude": 42.6503505,
        "longitude": 143.1878596,
        "id": "7735a91f-440e-4ae5-8486-73b971da5605"
    },
    {
        "name": "上湧別神社",
        "prefectureName": "北海道",
        "cityName": "紋別郡湧別町",
        "streetName": "上湧別屯田市街地１０番地",
        "latitude": 44.15856396,
        "longitude": 143.57435704,
        "id": "9a75a8f0-2a4d-485a-8538-aae88e10222c"
    },
    {
        "name": "上然別神社",
        "prefectureName": "北海道",
        "cityName": "河東郡音更町",
        "streetName": "字上然別西５線９５番地",
        "latitude": 43.04899403,
        "longitude": 143.09579764,
        "id": "8ffa1a09-f793-4d1a-91fc-61f3a560221a"
    },
    {
        "name": "上白滝神社",
        "prefectureName": "北海道",
        "cityName": "紋別郡遠軽町",
        "streetName": "上白滝４５番地",
        "latitude": 43.87803441,
        "longitude": 143.1526243,
        "id": "db688aa2-75b6-404b-b5e5-fce8a36bbee1"
    },
    {
        "name": "上白石神社",
        "prefectureName": "北海道",
        "cityName": "札幌市白石区",
        "streetName": "菊水元町三条１丁目４４番地",
        "latitude": 43.0454595,
        "longitude": 141.396365,
        "id": "aae082e7-98d5-4ae6-99d6-8b8e011e279e"
    },
    {
        "name": "上砂川神社",
        "prefectureName": "北海道",
        "cityName": "空知郡上砂川町",
        "streetName": "字上砂川町３０１番地",
        "latitude": 43.4827266,
        "longitude": 141.9843866,
        "id": "ae83648c-23ff-4fb9-b3e8-f3c10bc211a4"
    },
    {
        "name": "上美生神社",
        "prefectureName": "北海道",
        "cityName": "河西郡芽室町",
        "streetName": "上美生４線３８番地",
        "latitude": 42.80430656,
        "longitude": 142.95443488,
        "id": "a4b3b47d-78fe-460b-9f39-11cb8ff39d6c"
    },
    {
        "name": "上芦別神社",
        "prefectureName": "北海道",
        "cityName": "芦別市",
        "streetName": "上芦別町１７３番地",
        "latitude": 43.49248948,
        "longitude": 142.20556611,
        "id": "69378d5e-eac8-4797-bffc-f8d4c661bbb6"
    },
    {
        "name": "上野幌神社",
        "prefectureName": "北海道",
        "cityName": "札幌市厚別区",
        "streetName": "厚別町上野幌８２２番地",
        "latitude": 43.01607064,
        "longitude": 141.48127855,
        "id": "8f53f30a-cb82-403f-b4b6-48bd958d5e8f"
    },
    {
        "name": "下士幌神社",
        "prefectureName": "北海道",
        "cityName": "河東郡音更町",
        "streetName": "字下士幌北２線東４９番地",
        "latitude": 42.94693952,
        "longitude": 143.25716753,
        "id": "c3f4459d-f386-441f-a320-37a47e099d92"
    },
    {
        "name": "下多寄神社",
        "prefectureName": "北海道",
        "cityName": "名寄市",
        "streetName": "風連町字瑞生６３番地",
        "latitude": 44.29779788,
        "longitude": 142.41421781,
        "id": "1d1492cf-113d-4bcc-b281-f7b3a61d4832"
    },
    {
        "name": "下川神社",
        "prefectureName": "北海道",
        "cityName": "上川郡下川町",
        "streetName": "旭町６９番地",
        "latitude": 44.30288339,
        "longitude": 142.64284603,
        "id": "e92c9e31-309e-499b-b0d1-0dd6f4a7077d"
    },
    {
        "name": "下徳富神社",
        "prefectureName": "北海道",
        "cityName": "樺戸郡新十津川町",
        "streetName": "字花月２１３番地３",
        "latitude": 43.50456976,
        "longitude": 141.84327666,
        "id": "9236cfd7-67d5-4001-87dc-abb6cd86a6f2"
    },
    {
        "name": "下野幌八幡神社",
        "prefectureName": "北海道",
        "cityName": "札幌市厚別区",
        "streetName": "青葉町１２丁目８番１号",
        "latitude": 43.03149411,
        "longitude": 141.48350247,
        "id": "40926ccd-6911-4be1-97c9-b42a612a6ca9"
    },
    {
        "name": "丘珠神社",
        "prefectureName": "北海道",
        "cityName": "札幌市東区",
        "streetName": "丘珠町１８３番地４",
        "latitude": 43.10736811,
        "longitude": 141.3900226,
        "id": "83ed9dfa-edd1-4678-8e4f-7b606c5950b4"
    },
    {
        "name": "中の島神社",
        "prefectureName": "北海道",
        "cityName": "札幌市豊平区",
        "streetName": "中の島二条３丁目７番３５号",
        "latitude": 43.03425409,
        "longitude": 141.36059927,
        "id": "a1fcfefe-79c5-4f61-9a01-274f031a4b5d"
    },
    {
        "name": "中の沢布袋神社",
        "prefectureName": "北海道",
        "cityName": "札幌市南区",
        "streetName": "中ノ沢１９８５の１１２",
        "latitude": 42.99890896,
        "longitude": 141.29869507,
        "id": "5722d350-3894-43c6-86e3-a59b016a8eab"
    },
    {
        "name": "中ノ川神社",
        "prefectureName": "北海道",
        "cityName": "寿都郡黒松内町",
        "streetName": "字添別２０番地１",
        "latitude": 42.69741225,
        "longitude": 140.27890713,
        "id": "5b1c2737-ae26-4e3c-a849-94667f3aec86"
    },
    {
        "name": "中士別神社",
        "prefectureName": "北海道",
        "cityName": "士別市",
        "streetName": "中士別町２０２１番地",
        "latitude": 44.1787335,
        "longitude": 142.4004029,
        "id": "50a536ec-f3f1-4b87-865e-a19e84b0af4a"
    },
    {
        "name": "中士幌神社",
        "prefectureName": "北海道",
        "cityName": "河東郡音更町",
        "streetName": "字豊田東７線２５番地",
        "latitude": 43.08899246,
        "longitude": 143.29102174,
        "id": "c69fc8b8-02e4-4680-8ff6-a0c4b9503964"
    },
    {
        "name": "中士幌神社",
        "prefectureName": "北海道",
        "cityName": "河東郡士幌町",
        "streetName": "字中士幌西２線８４番地の４",
        "latitude": 43.1683603,
        "longitude": 143.2414187,
        "id": "a54cce8d-4cba-414f-9b12-1c327ce1f666"
    },
    {
        "name": "中富良野神社",
        "prefectureName": "北海道",
        "cityName": "空知郡中富良野町",
        "streetName": "宮町２番１３号",
        "latitude": 43.4136611,
        "longitude": 142.4223413,
        "id": "36a5720d-9eaf-4244-a528-fa305163a887"
    },
    {
        "name": "中小屋神社",
        "prefectureName": "北海道",
        "cityName": "石狩郡当別町",
        "streetName": "字中小屋４７８８番地",
        "latitude": 43.28781698,
        "longitude": 141.59713953,
        "id": "b131f31a-6570-4d78-875f-0e4e7b97d28e"
    },
    {
        "name": "中嶋神社",
        "prefectureName": "北海道",
        "cityName": "室蘭市",
        "streetName": "宮の森町１丁目１番６４号",
        "latitude": 42.35470465,
        "longitude": 141.0219686,
        "id": "a1cc23a9-f8c7-43ab-9274-1ae1db98eeb1"
    },
    {
        "name": "中川神社",
        "prefectureName": "北海道",
        "cityName": "中川郡中川町",
        "streetName": "字誉６７番地",
        "latitude": 44.81593629,
        "longitude": 142.05814673,
        "id": "4fd9d262-e59c-446a-945d-70b01bc76301"
    },
    {
        "name": "中札内神社",
        "prefectureName": "北海道",
        "cityName": "河西郡中札内村",
        "streetName": "西二条南２丁目４番地",
        "latitude": 42.6974048,
        "longitude": 143.1321176,
        "id": "601806b8-2fb7-4562-b552-b5ddf6490b6e"
    },
    {
        "name": "中標津神社",
        "prefectureName": "北海道",
        "cityName": "標津郡中標津町",
        "streetName": "西一条南４丁目１番地１",
        "latitude": 43.54475455,
        "longitude": 144.9755134,
        "id": "d2ba3acc-60ae-4613-84f0-3b1c44aba66c"
    },
    {
        "name": "中渋山金刀比羅神社",
        "prefectureName": "北海道",
        "cityName": "河西郡芽室町",
        "streetName": "渋山７線４８番地",
        "latitude": 42.911862,
        "longitude": 143.050865,
        "id": "3bb97419-f12c-4f95-afc8-d66f116d6380"
    },
    {
        "name": "中頓別神社",
        "prefectureName": "北海道",
        "cityName": "枝幸郡中頓別町",
        "streetName": "字中頓別３７７番地",
        "latitude": 44.9697768,
        "longitude": 142.2867434,
        "id": "a68d3ebb-f2b6-4514-8fa7-9b2a5b31ac80"
    },
    {
        "name": "丸山神社",
        "prefectureName": "北海道",
        "cityName": "北斗市",
        "streetName": "当別２丁目１番１号",
        "latitude": 41.7411399,
        "longitude": 140.58694061,
        "id": "a3453b38-4740-49be-9ab7-426ac498ed19"
    },
    {
        "name": "丸瀨布神社",
        "prefectureName": "北海道",
        "cityName": "紋別郡遠軽町",
        "streetName": "丸瀬布天神町１番地",
        "latitude": 44.00257896,
        "longitude": 143.3303726,
        "id": "b8af7c77-3d97-4cca-aab0-f416d7043846"
    },
    {
        "name": "乃木神社",
        "prefectureName": "北海道",
        "cityName": "函館市",
        "streetName": "乃木町５番２５号",
        "latitude": 41.78240965,
        "longitude": 140.76600464,
        "id": "8641e117-ca4a-4dab-b3c4-4a16842aa81d"
    },
    {
        "name": "久遠神社",
        "prefectureName": "北海道",
        "cityName": "久遠郡せたな町",
        "streetName": "大成区本陣７０番地１",
        "latitude": 42.22451024,
        "longitude": 139.82814698,
        "id": "93cae115-051a-43cb-88a7-2426fa60a87a"
    },
    {
        "name": "亀田龍神社",
        "prefectureName": "北海道",
        "cityName": "函館市",
        "streetName": "亀田町６番２２号",
        "latitude": 41.79361823,
        "longitude": 140.73205593,
        "id": "8effa9f3-ef20-4312-bb04-e671ed651882"
    },
    {
        "name": "事比羅神社",
        "prefectureName": "北海道",
        "cityName": "久遠郡せたな町",
        "streetName": "瀬棚区三本杉３４番地の１",
        "latitude": 42.45659234,
        "longitude": 139.84964804,
        "id": "67ef9ea9-8e3c-4cc1-baf6-e01be42473e2"
    },
    {
        "name": "京極八幡神社",
        "prefectureName": "北海道",
        "cityName": "虻田郡京極町",
        "streetName": "字京極６２１番地",
        "latitude": 42.85652446,
        "longitude": 140.8870958,
        "id": "b494a7e3-b7fa-4261-8c6c-b351eea55eea"
    },
    {
        "name": "人舞神社",
        "prefectureName": "北海道",
        "cityName": "上川郡清水町",
        "streetName": "字人舞２５番地",
        "latitude": 43.0111449,
        "longitude": 142.8844251,
        "id": "45d122ce-c058-4a48-b9cc-947390e3128f"
    },
    {
        "name": "仁木神社",
        "prefectureName": "北海道",
        "cityName": "余市郡仁木町",
        "streetName": "南町２丁目１４番地",
        "latitude": 43.14632002,
        "longitude": 140.77502595,
        "id": "60e4922c-d396-474a-a4a7-a25dfa0bdb91"
    },
    {
        "name": "仁頃神社",
        "prefectureName": "北海道",
        "cityName": "北見市",
        "streetName": "仁頃町１６５番地１",
        "latitude": 43.8040313,
        "longitude": 143.8958757,
        "id": "b3bd5de7-5d3d-4083-b42e-ca0d5bbb8304"
    },
    {
        "name": "仙法志神社",
        "prefectureName": "北海道",
        "cityName": "利尻郡利尻町",
        "streetName": "仙法志字本町９３番地",
        "latitude": 45.186929,
        "longitude": 141.1394881,
        "id": "4d8b44b6-395d-4378-95d9-ad6a00bffe3c"
    },
    {
        "name": "仙美里八幡神社",
        "prefectureName": "北海道",
        "cityName": "中川郡本別町",
        "streetName": "仙美里元町１６４番地２",
        "latitude": 43.1243977,
        "longitude": 143.6105722,
        "id": "5318d160-b7eb-4772-9905-2db04738eb31"
    },
    {
        "name": "伊達神社",
        "prefectureName": "北海道",
        "cityName": "伊達市",
        "streetName": "末永町２４番地の１",
        "latitude": 42.47938041,
        "longitude": 140.86422462,
        "id": "92e04e76-2a62-49ce-b45a-4982025732e5"
    },
    {
        "name": "伊都岐島神社",
        "prefectureName": "北海道",
        "cityName": "寿都郡寿都町",
        "streetName": "字磯谷町横澗１２１７番地",
        "latitude": 42.84388806,
        "longitude": 140.32666531,
        "id": "c9609fa4-ced5-40c2-afe6-bfecf4a0ac66"
    },
    {
        "name": "伏古神社",
        "prefectureName": "北海道",
        "cityName": "帯広市",
        "streetName": "西二十一条北１丁目１番１号",
        "latitude": 42.93218078,
        "longitude": 143.13790793,
        "id": "90b73221-3809-4e77-91cc-1b5057c8ad83"
    },
    {
        "name": "伏白稲荷神社",
        "prefectureName": "北海道",
        "cityName": "函館市",
        "streetName": "陣川２丁目８番地１４７",
        "latitude": 41.81766157,
        "longitude": 140.77188562,
        "id": "8ed35056-50c5-4abe-b20e-16b05cc40352"
    },
    {
        "name": "伏見稲荷神社",
        "prefectureName": "北海道",
        "cityName": "札幌市中央区",
        "streetName": "伏見２丁目２番１７号",
        "latitude": 43.03492507,
        "longitude": 141.32531907,
        "id": "18efc0f1-f6cd-4f3d-a84e-2291384b35a9"
    },
    {
        "name": "伏見稲荷神社",
        "prefectureName": "北海道",
        "cityName": "小樽市",
        "streetName": "長橋１丁目１６番１号",
        "latitude": 43.20370439,
        "longitude": 140.98250278,
        "id": "2225d764-f3ca-42c9-96c5-e23d1533eca6"
    },
    {
        "name": "住三吉神社",
        "prefectureName": "北海道",
        "cityName": "函館市",
        "streetName": "住吉町１番７号",
        "latitude": 41.74890944,
        "longitude": 140.71599312,
        "id": "df974627-01b1-48ee-a231-709a1be0f787"
    },
    {
        "name": "住吉神社",
        "prefectureName": "北海道",
        "cityName": "様似郡様似町",
        "streetName": "潮見台１０番地１",
        "latitude": 42.12944028,
        "longitude": 142.91846743,
        "id": "2c4c2b8c-282b-429b-af67-71a6bda6b571"
    },
    {
        "name": "住吉神社",
        "prefectureName": "北海道",
        "cityName": "幌泉郡えりも町",
        "streetName": "字本町２３７番地",
        "latitude": 42.01621334,
        "longitude": 143.15119813,
        "id": "a59eb682-500c-4abf-8bbf-222dbd67bc74"
    },
    {
        "name": "住吉神社",
        "prefectureName": "北海道",
        "cityName": "小樽市",
        "streetName": "住ノ江２丁目５番１号",
        "latitude": 43.18295365,
        "longitude": 141.00322828,
        "id": "74c1b01c-e5b9-422d-ae72-8bfc19f86174"
    },
    {
        "name": "佐呂間神社",
        "prefectureName": "北海道",
        "cityName": "常呂郡佐呂間町",
        "streetName": "字宮前町９６番地",
        "latitude": 44.01685849,
        "longitude": 143.77003588,
        "id": "bd6fe507-271c-4a32-b4ab-c3b293cd4d3f"
    },
    {
        "name": "佐女川神社",
        "prefectureName": "北海道",
        "cityName": "上磯郡木古内町",
        "streetName": "字木古内１５７番地の１",
        "latitude": 41.68189272,
        "longitude": 140.43152644,
        "id": "99742925-0569-432f-ba34-ef99caa78cdd"
    },
    {
        "name": "余市三吉神社",
        "prefectureName": "北海道",
        "cityName": "余市郡余市町",
        "streetName": "大川町５丁目８５番地",
        "latitude": 43.19136323,
        "longitude": 140.79671036,
        "id": "f25f476a-a325-4a51-8d6f-3343e18f28fd"
    },
    {
        "name": "余市神社",
        "prefectureName": "北海道",
        "cityName": "余市郡余市町",
        "streetName": "富沢町１４丁目４番地",
        "latitude": 43.21513735,
        "longitude": 140.77101927,
        "id": "a7c75bc5-d421-40ed-8093-5c4496eb7602"
    },
    {
        "name": "信濃神社",
        "prefectureName": "北海道",
        "cityName": "札幌市厚別区",
        "streetName": "厚別中央四条３丁目３番３号",
        "latitude": 43.04272275,
        "longitude": 141.46386192,
        "id": "6a9f18dd-76b0-40aa-a5e0-fda69986e713"
    },
    {
        "name": "倶知安神社",
        "prefectureName": "北海道",
        "cityName": "虻田郡倶知安町",
        "streetName": "字八幡４７６番地",
        "latitude": 42.90345834,
        "longitude": 140.79220396,
        "id": "0d14c169-0da7-4971-a4cd-c15e930269c9"
    },
    {
        "name": "八幡神社",
        "prefectureName": "北海道",
        "cityName": "函館市",
        "streetName": "小安町１０４番地",
        "latitude": 41.7686738,
        "longitude": 140.728924,
        "id": "f625f48e-16b4-4714-87cf-eeff6d66bc2a"
    },
    {
        "name": "八幡神社",
        "prefectureName": "北海道",
        "cityName": "松前郡福島町",
        "streetName": "字吉野４３７番地",
        "latitude": 41.4837661,
        "longitude": 140.2514674,
        "id": "1f288aba-8090-47bb-a617-3ae7c7ffc484"
    },
    {
        "name": "八幡神社",
        "prefectureName": "北海道",
        "cityName": "函館市",
        "streetName": "新八幡町３０番地",
        "latitude": 41.83058633,
        "longitude": 141.14612036,
        "id": "2f4480a1-c20c-4712-ac13-a6a041270558"
    },
    {
        "name": "八幡神社",
        "prefectureName": "北海道",
        "cityName": "北斗市",
        "streetName": "三好１９７番地",
        "latitude": 41.81718701,
        "longitude": 140.61776503,
        "id": "05c93085-f9a2-4995-a216-73d294565f48"
    },
    {
        "name": "八幡神社",
        "prefectureName": "北海道",
        "cityName": "松前郡松前町",
        "streetName": "字清部５１７番地",
        "latitude": 41.4300246,
        "longitude": 140.1100068,
        "id": "a0485eb0-821d-4612-bbf0-2072f3b0bd7e"
    },
    {
        "name": "八幡神社",
        "prefectureName": "北海道",
        "cityName": "爾志郡乙部町",
        "streetName": "字元町２５４番地",
        "latitude": 41.96692492,
        "longitude": 140.13186685,
        "id": "1f15a1d0-7cfc-4a6b-9c3a-ed25aff0ef55"
    },
    {
        "name": "八幡神社",
        "prefectureName": "北海道",
        "cityName": "函館市",
        "streetName": "字石崎４９０番地",
        "latitude": 41.7686738,
        "longitude": 140.728924,
        "id": "84fba531-6f81-443b-ae28-77aacb92dfa3"
    },
    {
        "name": "八幡神社",
        "prefectureName": "北海道",
        "cityName": "松前郡福島町",
        "streetName": "字吉岡７０番地",
        "latitude": 41.4837661,
        "longitude": 140.2514674,
        "id": "ab603e9d-ab97-4dad-b009-7d00598974f0"
    },
    {
        "name": "八幡神社",
        "prefectureName": "北海道",
        "cityName": "函館市",
        "streetName": "銭亀町２７３番地",
        "latitude": 41.76187064,
        "longitude": 140.83338904,
        "id": "a1df74d7-8355-4b8a-ac41-34c59c8c573a"
    },
    {
        "name": "八幡神社",
        "prefectureName": "北海道",
        "cityName": "松前郡福島町",
        "streetName": "字宮歌５７３番地",
        "latitude": 41.4837661,
        "longitude": 140.2514674,
        "id": "a27201d2-12c8-4e42-893f-8194bf529765"
    },
    {
        "name": "八幡神社",
        "prefectureName": "北海道",
        "cityName": "爾志郡乙部町",
        "streetName": "字栄浜３２６番地",
        "latitude": 42.00226766,
        "longitude": 140.12328792,
        "id": "da52c0f9-ea71-47ff-a52b-e55d76054afc"
    },
    {
        "name": "八幡神社",
        "prefectureName": "北海道",
        "cityName": "石狩市",
        "streetName": "厚田区古潭５０番地",
        "latitude": 43.3580037,
        "longitude": 141.42839698,
        "id": "dda0edbe-3878-47ad-ad99-a65e2dd20c18"
    },
    {
        "name": "八幡神社",
        "prefectureName": "北海道",
        "cityName": "磯谷郡蘭越町",
        "streetName": "目名町５２７番地",
        "latitude": 42.76228964,
        "longitude": 140.45787226,
        "id": "93056ccd-576f-456e-b174-801b880e40ac"
    },
    {
        "name": "八幡神社",
        "prefectureName": "北海道",
        "cityName": "函館市",
        "streetName": "志海苔町２３９番地",
        "latitude": 41.7660362,
        "longitude": 140.81904871,
        "id": "964694ef-a487-4ca0-9e12-5d0b806597ab"
    },
    {
        "name": "八幡神社",
        "prefectureName": "北海道",
        "cityName": "松前郡松前町",
        "streetName": "字原口２０５番地",
        "latitude": 41.4300246,
        "longitude": 140.1100068,
        "id": "1cc9cc42-4aa1-4827-9ee4-b20ae3b34fbc"
    },
    {
        "name": "八幡神社",
        "prefectureName": "北海道",
        "cityName": "爾志郡乙部町",
        "streetName": "字三ツ谷２６５番地",
        "latitude": 42.03272216,
        "longitude": 140.09666377,
        "id": "88632788-30de-4343-8557-1d6d0f47ceeb"
    },
    {
        "name": "八幡神社",
        "prefectureName": "北海道",
        "cityName": "紋別市",
        "streetName": "上渚滑町更生５番地の２",
        "latitude": 44.24191795,
        "longitude": 143.25465118,
        "id": "694a7825-40b2-49dd-a67c-67a156854de5"
    },
    {
        "name": "八幡神社",
        "prefectureName": "北海道",
        "cityName": "爾志郡乙部町",
        "streetName": "字元和１１７番地",
        "latitude": 42.00951638,
        "longitude": 140.10539455,
        "id": "cca6d220-c7b8-43f4-90fc-1e99729742c4"
    },
    {
        "name": "八幡神社",
        "prefectureName": "北海道",
        "cityName": "石狩市",
        "streetName": "弁天町１番地",
        "latitude": 43.25033272,
        "longitude": 141.35644784,
        "id": "6d3fb391-6189-4b41-80f8-aec1d5ebe606"
    },
    {
        "name": "八幡神社",
        "prefectureName": "北海道",
        "cityName": "岩内郡共和町",
        "streetName": "老古美３１番地６",
        "latitude": 42.9804335,
        "longitude": 140.6113087,
        "id": "284ff8fe-59fb-42dd-ae7e-61fcb30d87f4"
    },
    {
        "name": "八幡神社",
        "prefectureName": "北海道",
        "cityName": "北斗市",
        "streetName": "富川町９０番地",
        "latitude": 41.8241791,
        "longitude": 140.6530498,
        "id": "bb7512e4-cd8d-4160-9a6d-cda71497a83c"
    },
    {
        "name": "八幡神社",
        "prefectureName": "北海道",
        "cityName": "松前郡松前町",
        "streetName": "字江良７５１番地",
        "latitude": 41.54712487,
        "longitude": 139.99606437,
        "id": "c028e396-f2cb-47bc-bfe4-4a64b67bf69f"
    },
    {
        "name": "八幡神社",
        "prefectureName": "北海道",
        "cityName": "二海郡八雲町",
        "streetName": "熊石館平町１４５番地",
        "latitude": 42.2559956,
        "longitude": 140.2652756,
        "id": "511c6665-c5e8-4852-a3f4-f59461850408"
    },
    {
        "name": "八幡神社",
        "prefectureName": "北海道",
        "cityName": "瀬棚郡今金町",
        "streetName": "字今金６０３番地",
        "latitude": 42.43061039,
        "longitude": 140.01136044,
        "id": "f8aa58d9-a926-483c-990e-277efcc2dc9b"
    },
    {
        "name": "八幡神社",
        "prefectureName": "北海道",
        "cityName": "石狩市",
        "streetName": "浜益区川下村３５番地",
        "latitude": 43.60182989,
        "longitude": 141.38356582,
        "id": "ad1ccab2-c4ee-44ad-b626-2a5072d6dc69"
    },
    {
        "name": "八幡神社",
        "prefectureName": "北海道",
        "cityName": "檜山郡上ノ国町",
        "streetName": "字石崎２０４番地",
        "latitude": 41.8011112,
        "longitude": 140.1213193,
        "id": "bf7af4ae-eab7-46db-9f16-36d7089d2c0c"
    },
    {
        "name": "八雲神社",
        "prefectureName": "北海道",
        "cityName": "二海郡八雲町",
        "streetName": "宮園町５６番地",
        "latitude": 42.25232926,
        "longitude": 140.26277866,
        "id": "2be464ce-c9d1-421e-8778-2dc740c06619"
    },
    {
        "name": "八雲神社",
        "prefectureName": "北海道",
        "cityName": "檜山郡厚沢部町",
        "streetName": "字旭丘６４番地",
        "latitude": 41.93512212,
        "longitude": 140.36520303,
        "id": "3702cb8a-407d-463a-bd35-0853bf421b18"
    },
    {
        "name": "共成神社",
        "prefectureName": "北海道",
        "cityName": "雨竜郡沼田町",
        "streetName": "字共成３９８番地",
        "latitude": 43.8067464,
        "longitude": 141.9337459,
        "id": "fe26a5df-699f-44cf-b180-53cc252f63a1"
    },
    {
        "name": "共栄稲荷神社",
        "prefectureName": "北海道",
        "cityName": "釧路市",
        "streetName": "若松町１８番８号",
        "latitude": 42.99565283,
        "longitude": 144.3825654,
        "id": "e641fcb7-65e5-41d0-bb75-d9ab48cf249d"
    },
    {
        "name": "内浦神社",
        "prefectureName": "北海道",
        "cityName": "茅部郡森町",
        "streetName": "字砂原４丁目２７１番地",
        "latitude": 42.1049778,
        "longitude": 140.5764202,
        "id": "1cca3fd5-eba6-41cb-a6b6-fbc0d81a34f1"
    },
    {
        "name": "円山西町神社",
        "prefectureName": "北海道",
        "cityName": "札幌市中央区",
        "streetName": "円山西町６丁目５１８番地６",
        "latitude": 43.03952119,
        "longitude": 141.3061369,
        "id": "c29490c4-35ac-47f6-88a0-b3d2d2ce7a45"
    },
    {
        "name": "出雲神社",
        "prefectureName": "北海道",
        "cityName": "赤平市",
        "streetName": "茂尻元町北１丁目２１番地",
        "latitude": 43.54007734,
        "longitude": 142.08250708,
        "id": "06ee5f18-6555-46c7-8523-806b2d64fe14"
    },
    {
        "name": "函館護国神社",
        "prefectureName": "北海道",
        "cityName": "函館市",
        "streetName": "青柳町９番２３号",
        "latitude": 41.75958549,
        "longitude": 140.71363139,
        "id": "18123a91-007e-432a-a614-c33b36798aa7"
    },
    {
        "name": "刈田神社",
        "prefectureName": "北海道",
        "cityName": "登別市",
        "streetName": "中央町６丁目２４番地１",
        "latitude": 42.41524256,
        "longitude": 141.1092114,
        "id": "f58889b1-bf7f-42d6-8d6f-e47b05d5eb6f"
    },
    {
        "name": "別保神社",
        "prefectureName": "北海道",
        "cityName": "釧路郡釧路町",
        "streetName": "別保３丁目２９番地",
        "latitude": 42.9960448,
        "longitude": 144.4659817,
        "id": "16ef8c20-68ee-448a-909a-2ccbfba886cb"
    },
    {
        "name": "別海神社",
        "prefectureName": "北海道",
        "cityName": "野付郡別海町",
        "streetName": "別海宮舞町３６番地",
        "latitude": 43.393881,
        "longitude": 145.1172709,
        "id": "967cb0d2-810b-4331-88b5-481eb1594d74"
    },
    {
        "name": "利尻山神社",
        "prefectureName": "北海道",
        "cityName": "利尻郡利尻富士町",
        "streetName": "鴛泊字本町１５３番地",
        "latitude": 45.24047369,
        "longitude": 141.21986518,
        "id": "6c99626e-2c03-4a62-a703-50d4871dd284"
    },
    {
        "name": "利尻廣獄神社",
        "prefectureName": "北海道",
        "cityName": "利尻郡利尻町",
        "streetName": "沓形字新湊２９６番地",
        "latitude": 45.186929,
        "longitude": 141.1394881,
        "id": "7fcdd75a-01ba-49b2-bafd-dae8d1e82b09"
    },
    {
        "name": "前田神社",
        "prefectureName": "北海道",
        "cityName": "岩内郡共和町",
        "streetName": "前田ロ３００番地",
        "latitude": 42.9804335,
        "longitude": 140.6113087,
        "id": "d697de2d-785f-48e7-af9c-3f4c6f25c668"
    },
    {
        "name": "剣山神社",
        "prefectureName": "北海道",
        "cityName": "上川郡清水町",
        "streetName": "字旭山２８番地",
        "latitude": 42.88640601,
        "longitude": 142.89501785,
        "id": "556a9ba5-6bdf-47b9-b5f5-5bd22590be7b"
    },
    {
        "name": "剣淵神社",
        "prefectureName": "北海道",
        "cityName": "上川郡剣淵町",
        "streetName": "旭町５９３番地",
        "latitude": 44.11131386,
        "longitude": 142.35782227,
        "id": "016e6699-6a0c-4d60-9a32-6ed2f6fe9de3"
    },
    {
        "name": "勇足神社",
        "prefectureName": "北海道",
        "cityName": "中川郡本別町",
        "streetName": "勇足元町８番地１",
        "latitude": 43.08970101,
        "longitude": 143.52370105,
        "id": "1c4e8f81-d890-4ef1-ab99-5f6a19ec51f1"
    },
    {
        "name": "勝山神社",
        "prefectureName": "北海道",
        "cityName": "常呂郡置戸町",
        "streetName": "字勝山１５７番地",
        "latitude": 43.63578173,
        "longitude": 143.50547444,
        "id": "04c21010-84d6-4469-8b6a-d592535be9d5"
    },
    {
        "name": "北山神社",
        "prefectureName": "北海道",
        "cityName": "二海郡八雲町",
        "streetName": "熊石泊川町５０７番地",
        "latitude": 42.2559956,
        "longitude": 140.2652756,
        "id": "9f812541-87fa-46bc-b5ff-b78ca6112aee"
    },
    {
        "name": "北支湧別神社",
        "prefectureName": "北海道",
        "cityName": "紋別郡遠軽町",
        "streetName": "白滝北支湧別１６５番地",
        "latitude": 44.0619526,
        "longitude": 143.5279464,
        "id": "d5b88b41-f90a-4f80-b458-91906206a236"
    },
    {
        "name": "北村神社",
        "prefectureName": "北海道",
        "cityName": "岩見沢市",
        "streetName": "北村中央１５８番地１４",
        "latitude": 43.25671528,
        "longitude": 141.68701658,
        "id": "d6d73838-b38e-41a3-aa74-b0c597d32b55"
    },
    {
        "name": "北海道岩木山神社",
        "prefectureName": "北海道",
        "cityName": "室蘭市",
        "streetName": "東町５丁目２８４番地９",
        "latitude": 42.33665313,
        "longitude": 141.01878898,
        "id": "d5afa0d5-ece3-414a-a0f5-23795d5cd6ad"
    },
    {
        "name": "北海道護国神社",
        "prefectureName": "北海道",
        "cityName": "旭川市",
        "streetName": "花咲町１丁目２２８２番地２",
        "latitude": 43.78750241,
        "longitude": 142.36481481,
        "id": "df72befb-8d35-4f81-b46a-f6a3d4d22f96"
    },
    {
        "name": "北見冨士神社",
        "prefectureName": "北海道",
        "cityName": "利尻郡利尻町",
        "streetName": "沓形字緑町２３番地",
        "latitude": 45.186929,
        "longitude": 141.1394881,
        "id": "ed8bad4e-dfe0-4fb9-bb64-001987454cf8"
    },
    {
        "name": "北見神社",
        "prefectureName": "北海道",
        "cityName": "北見市",
        "streetName": "北二条東６丁目１１番地",
        "latitude": 43.80607544,
        "longitude": 143.89236748,
        "id": "65dc7d4c-d1af-4d6b-8466-2ad8f36ead8f"
    },
    {
        "name": "北見神社",
        "prefectureName": "北海道",
        "cityName": "利尻郡利尻富士町",
        "streetName": "鬼脇字鬼脇１９５番地",
        "latitude": 45.13438727,
        "longitude": 141.30443276,
        "id": "d5c40286-679d-4f29-b71d-81baf534437b"
    },
    {
        "name": "北見稲荷神社",
        "prefectureName": "北海道",
        "cityName": "北見市",
        "streetName": "幸町５丁目５番２号",
        "latitude": 43.80582541,
        "longitude": 143.89031488,
        "id": "19769a21-ac57-4e0c-985e-679bdc253eae"
    },
    {
        "name": "北野神社",
        "prefectureName": "北海道",
        "cityName": "上川郡鷹栖町",
        "streetName": "１３線四号３番地",
        "latitude": 43.83836456,
        "longitude": 142.32058211,
        "id": "d0f9fda1-0bbe-4164-9760-7a0232dd12cd"
    },
    {
        "name": "北鎮総社妙見本宮出雲神社",
        "prefectureName": "北海道",
        "cityName": "札幌市中央区",
        "streetName": "南十条西６丁目６番１３号",
        "latitude": 43.0470829,
        "longitude": 141.35068279,
        "id": "a3f3ab18-3d12-475a-aa2a-44f764413efa"
    },
    {
        "name": "北門神社",
        "prefectureName": "北海道",
        "cityName": "稚内市",
        "streetName": "中央１丁目１番２１号",
        "latitude": 45.41998543,
        "longitude": 141.67130662,
        "id": "c1966a14-a2f0-4c3d-b182-6f8f9da9a281"
    },
    {
        "name": "北鹿追神社",
        "prefectureName": "北海道",
        "cityName": "河東郡鹿追町",
        "streetName": "北鹿追北９線５番地１７",
        "latitude": 43.12622788,
        "longitude": 143.02581356,
        "id": "f1e7b882-57c2-474b-b40c-b2423f5fa6ff"
    },
    {
        "name": "北龍神社",
        "prefectureName": "北海道",
        "cityName": "雨竜郡沼田町",
        "streetName": "字沼田８０番地",
        "latitude": 43.8067464,
        "longitude": 141.9337459,
        "id": "58517511-4ad1-48b6-82cf-8dc9ee7408b1"
    },
    {
        "name": "十勝神社",
        "prefectureName": "北海道",
        "cityName": "広尾郡広尾町",
        "streetName": "字茂寄１番地の１３",
        "latitude": 42.290973,
        "longitude": 143.31045586,
        "id": "02aa49fc-285b-41ed-b6d9-b51660c23a8b"
    },
    {
        "name": "十勝護国神社",
        "prefectureName": "北海道",
        "cityName": "帯広市",
        "streetName": "東四条南２丁目１番地",
        "latitude": 42.93114299,
        "longitude": 143.21031743,
        "id": "6e223eff-99f8-4429-9a36-06224777f0b2"
    },
    {
        "name": "千栄神社",
        "prefectureName": "北海道",
        "cityName": "沙流郡日高町",
        "streetName": "字千栄１２２番地２",
        "latitude": 42.4803074,
        "longitude": 142.0743778,
        "id": "9188a61c-2ecc-434c-a00a-ef8a72b4681c"
    },
    {
        "name": "千歳神社",
        "prefectureName": "北海道",
        "cityName": "千歳市",
        "streetName": "真町１番地",
        "latitude": 42.81813762,
        "longitude": 141.64209569,
        "id": "bc17c914-4323-4dac-8187-7c1420a2856c"
    },
    {
        "name": "南富良野神社",
        "prefectureName": "北海道",
        "cityName": "空知郡南富良野町",
        "streetName": "字幾寅１２１０番地",
        "latitude": 43.15926582,
        "longitude": 142.57102074,
        "id": "f83336ee-fb76-4c8c-aa6e-ec123b91ff26"
    },
    {
        "name": "南幌神社",
        "prefectureName": "北海道",
        "cityName": "空知郡南幌町",
        "streetName": "緑町５丁目６番１号",
        "latitude": 43.06560993,
        "longitude": 141.65800931,
        "id": "9db491b6-f757-405d-8445-ba7638285da0"
    },
    {
        "name": "南線神社",
        "prefectureName": "北海道",
        "cityName": "石狩市",
        "streetName": "花川南三条１丁目２４番地",
        "latitude": 43.1532464,
        "longitude": 141.29222004,
        "id": "e9ae33c7-bd8f-4cee-a86d-ebe5d90bd1d2"
    },
    {
        "name": "南茶志内神社",
        "prefectureName": "北海道",
        "cityName": "美唄市",
        "streetName": "字茶志内１０１６番地の６６",
        "latitude": 43.3328809,
        "longitude": 141.8537839,
        "id": "59e7f259-8e62-4dcd-9d39-790226f84d70"
    },
    {
        "name": "占冠神社",
        "prefectureName": "北海道",
        "cityName": "勇払郡占冠村",
        "streetName": "字占冠原野５７番地",
        "latitude": 42.9797782,
        "longitude": 142.3983595,
        "id": "0ff834e9-c9a9-497f-9176-d6d35505da32"
    },
    {
        "name": "厚別神社",
        "prefectureName": "北海道",
        "cityName": "札幌市清田区",
        "streetName": "平岡二条１丁目３番１号",
        "latitude": 43.00122684,
        "longitude": 141.4445715,
        "id": "db964e5e-9f47-49b8-8326-49fbba00f077"
    },
    {
        "name": "厚岸真龍神社",
        "prefectureName": "北海道",
        "cityName": "厚岸郡厚岸町",
        "streetName": "宮園２丁目７番地",
        "latitude": 43.0574665,
        "longitude": 144.83754077,
        "id": "ee1efd5b-a896-4e68-a39f-f32e64c303d3"
    },
    {
        "name": "厚岸神社",
        "prefectureName": "北海道",
        "cityName": "厚岸郡厚岸町",
        "streetName": "湾月１丁目３番地",
        "latitude": 43.03180009,
        "longitude": 144.83904505,
        "id": "69e6551a-017e-47df-9d47-f5e70b684d25"
    },
    {
        "name": "厚田神社",
        "prefectureName": "北海道",
        "cityName": "石狩市",
        "streetName": "厚田区厚田１番地",
        "latitude": 43.39835294,
        "longitude": 141.43417462,
        "id": "bbe0b389-77de-4254-951f-6a75ec0c4793"
    },
    {
        "name": "厚真神社",
        "prefectureName": "北海道",
        "cityName": "勇払郡厚真町",
        "streetName": "新町７５番地１",
        "latitude": 42.7237402,
        "longitude": 141.8865335,
        "id": "7f65fe35-e92e-4a26-97bb-09c049633499"
    },
    {
        "name": "厳島神社",
        "prefectureName": "北海道",
        "cityName": "留萌市",
        "streetName": "礼受町９３番地",
        "latitude": 43.9410775,
        "longitude": 141.6372116,
        "id": "6dc9b521-d293-4282-b2b3-3e754ec23059"
    },
    {
        "name": "厳島神社",
        "prefectureName": "北海道",
        "cityName": "苫前郡羽幌町",
        "streetName": "大字焼尻字緑岡４番地",
        "latitude": 44.3608426,
        "longitude": 141.6972108,
        "id": "ba4e0908-fc05-4ffd-839d-52d7356036a0"
    },
    {
        "name": "厳島神社",
        "prefectureName": "北海道",
        "cityName": "古宇郡神恵内村",
        "streetName": "大字神恵内村８１番地",
        "latitude": 43.1424548,
        "longitude": 140.43238972,
        "id": "a61d8f7e-f44d-448d-8688-116c8230cc4d"
    },
    {
        "name": "厳島神社",
        "prefectureName": "北海道",
        "cityName": "函館市",
        "streetName": "弁天町９番９号",
        "latitude": 41.77255601,
        "longitude": 140.70430644,
        "id": "40b44f48-8713-4872-833b-01236a32cae9"
    },
    {
        "name": "厳島神社",
        "prefectureName": "北海道",
        "cityName": "島牧郡島牧村",
        "streetName": "字泊４番地",
        "latitude": 42.7007616,
        "longitude": 140.0613846,
        "id": "e12d5d1e-f422-4a08-8032-9030431025d8"
    },
    {
        "name": "厳島神社",
        "prefectureName": "北海道",
        "cityName": "留萌郡小平町",
        "streetName": "字鬼鹿港町３００番地",
        "latitude": 44.15254468,
        "longitude": 141.65854531,
        "id": "a9a4d2d3-5420-4f66-8bb3-171138502904"
    },
    {
        "name": "厳島神社",
        "prefectureName": "北海道",
        "cityName": "苫前郡羽幌町",
        "streetName": "大字天売字弁天５３番地",
        "latitude": 44.4320139,
        "longitude": 141.33210657,
        "id": "41e49385-ecc9-404a-9c8f-99f0222fdd1c"
    },
    {
        "name": "受持神社",
        "prefectureName": "北海道",
        "cityName": "奥尻郡奥尻町",
        "streetName": "字赤石１６２番地",
        "latitude": 42.1722805,
        "longitude": 139.5140072,
        "id": "f8fbd5dd-a1f6-44cb-b88e-fb63dcf12fdd"
    },
    {
        "name": "古丹別神社",
        "prefectureName": "北海道",
        "cityName": "苫前郡苫前町",
        "streetName": "字古丹別２４１番地",
        "latitude": 44.26210247,
        "longitude": 141.71640773,
        "id": "49ce9519-64ee-4f77-991f-aea660dfa819"
    },
    {
        "name": "古峯神社",
        "prefectureName": "北海道",
        "cityName": "釧路市",
        "streetName": "浪花町１２丁目１８番地",
        "latitude": 42.9848928,
        "longitude": 144.3817049,
        "id": "a64dff60-9c87-42fb-b966-10a62ff9affd"
    },
    {
        "name": "古泉神社",
        "prefectureName": "北海道",
        "cityName": "上磯郡木古内町",
        "streetName": "字泉沢１２２番地",
        "latitude": 41.6782656,
        "longitude": 140.4375678,
        "id": "4d84193a-6ee1-4b88-a0e2-1016d7bf523c"
    },
    {
        "name": "名寄神社",
        "prefectureName": "北海道",
        "cityName": "名寄市",
        "streetName": "字緑丘１番地",
        "latitude": 44.34625009,
        "longitude": 142.47052237,
        "id": "1eabff99-89c4-4db9-9fb6-799f943969d2"
    },
    {
        "name": "和寒神社",
        "prefectureName": "北海道",
        "cityName": "上川郡和寒町",
        "streetName": "字西町３２６番地",
        "latitude": 44.02275133,
        "longitude": 142.41075602,
        "id": "eaf37456-5672-405a-81fb-56afef9f2d70"
    },
    {
        "name": "和田神社",
        "prefectureName": "北海道",
        "cityName": "根室市",
        "streetName": "東和田９７７番地",
        "latitude": 43.28093002,
        "longitude": 145.54391615,
        "id": "8227f8ea-9ba1-4917-8615-4070dc2055b7"
    },
    {
        "name": "喜茂別神社",
        "prefectureName": "北海道",
        "cityName": "虻田郡喜茂別町",
        "streetName": "字喜茂別３２３番地",
        "latitude": 42.79220263,
        "longitude": 140.93603564,
        "id": "9949f49a-1323-450e-95d8-4321a8486d8b"
    },
    {
        "name": "嚴島神社",
        "prefectureName": "北海道",
        "cityName": "根室市",
        "streetName": "温根沼２１３番地",
        "latitude": 43.27757381,
        "longitude": 145.50750792,
        "id": "e0ed6392-911f-4674-acd9-6bf229611a38"
    },
    {
        "name": "嚴島神社",
        "prefectureName": "北海道",
        "cityName": "函館市",
        "streetName": "恵山町１２９番地",
        "latitude": 41.78542195,
        "longitude": 141.14957852,
        "id": "ebbe2ef0-c746-4b78-8d1f-80b4e1de4e5c"
    },
    {
        "name": "嚴島神社",
        "prefectureName": "北海道",
        "cityName": "寿都郡寿都町",
        "streetName": "字歌棄町有戸１５１番地",
        "latitude": 42.7907863,
        "longitude": 140.2288352,
        "id": "d3e16b09-64bc-41ab-8917-75f84bd8e38f"
    },
    {
        "name": "嚴島神社",
        "prefectureName": "北海道",
        "cityName": "枝幸郡枝幸町",
        "streetName": "新栄町５３６番地１",
        "latitude": 44.94106287,
        "longitude": 142.57746021,
        "id": "513e1e1e-b136-47fc-8be8-b06692ae2ca5"
    },
    {
        "name": "嚴島神社",
        "prefectureName": "北海道",
        "cityName": "稚内市",
        "streetName": "大字宗谷村字宗谷９９番地２",
        "latitude": 45.4156804,
        "longitude": 141.6730956,
        "id": "aedb2ef0-64ae-4291-8f0f-ac23071c53b4"
    },
    {
        "name": "嚴島神社",
        "prefectureName": "北海道",
        "cityName": "白糠郡白糠町",
        "streetName": "岬１丁目１番地１",
        "latitude": 42.95424419,
        "longitude": 144.08452304,
        "id": "f7e09415-f09d-4e9a-8fac-09e458fe8ce4"
    },
    {
        "name": "嚴島神社",
        "prefectureName": "北海道",
        "cityName": "函館市",
        "streetName": "臼尻町１５１番地",
        "latitude": 41.93450905,
        "longitude": 140.9489105,
        "id": "290ea047-91dd-4661-8145-21cd74f43946"
    },
    {
        "name": "嚴島神社",
        "prefectureName": "北海道",
        "cityName": "天塩郡天塩町",
        "streetName": "字川口基線１２２６番地",
        "latitude": 44.8883406,
        "longitude": 141.7453994,
        "id": "18a70397-8613-4425-aad1-51626b6dc20c"
    },
    {
        "name": "嚴島神社",
        "prefectureName": "北海道",
        "cityName": "紋別市",
        "streetName": "花園町１丁目６番４号",
        "latitude": 44.35486154,
        "longitude": 143.35141431,
        "id": "5b0c2ad2-179a-4536-8ed0-6d32da1925f4"
    },
    {
        "name": "嚴島神社",
        "prefectureName": "北海道",
        "cityName": "釧路市",
        "streetName": "米町１丁目３番１８号",
        "latitude": 42.97213308,
        "longitude": 144.37322875,
        "id": "412c5111-4d66-4630-ae6a-cfc7c640cdbf"
    },
    {
        "name": "嚴島神社",
        "prefectureName": "北海道",
        "cityName": "増毛郡増毛町",
        "streetName": "稲葉町３丁目３８番地",
        "latitude": 43.85617372,
        "longitude": 141.52433887,
        "id": "7fe3d616-c3cc-4ca0-91b3-d72f6b38edd0"
    },
    {
        "name": "嚴島神社",
        "prefectureName": "北海道",
        "cityName": "礼文郡礼文町",
        "streetName": "大字香深村字トンナイ３５０番地",
        "latitude": 45.30323821,
        "longitude": 141.04522204,
        "id": "1dcb3a48-fb49-4b3f-ab83-aad7e545f549"
    },
    {
        "name": "國縫神社",
        "prefectureName": "北海道",
        "cityName": "山越郡長万部町",
        "streetName": "字国縫１７１番地の４０",
        "latitude": 42.43717966,
        "longitude": 140.32045194,
        "id": "e67f8bb2-2037-413c-a5de-3fc791ef6a28"
    },
    {
        "name": "坂上神社",
        "prefectureName": "北海道",
        "cityName": "河西郡芽室町",
        "streetName": "坂の上１０線３５番地",
        "latitude": 42.83952424,
        "longitude": 143.02669616,
        "id": "63892583-8fd7-4c7d-9069-11f6bf396b0b"
    },
    {
        "name": "報徳二宮神社",
        "prefectureName": "北海道",
        "cityName": "中川郡豊頃町",
        "streetName": "二宮９６９番地",
        "latitude": 42.8010512,
        "longitude": 143.5059181,
        "id": "e91a2536-13c2-4103-8923-29fa57847f35"
    },
    {
        "name": "塩竃神社",
        "prefectureName": "北海道",
        "cityName": "函館市",
        "streetName": "新川町７番８号",
        "latitude": 41.77557027,
        "longitude": 140.73403148,
        "id": "f927b2d4-584b-4370-bf06-025cd82d3374"
    },
    {
        "name": "塩谷神社",
        "prefectureName": "北海道",
        "cityName": "小樽市",
        "streetName": "塩谷２丁目２０番２０号",
        "latitude": 43.20686067,
        "longitude": 140.92378165,
        "id": "82f51abb-84c0-4962-b0d2-bf86d69eea23"
    },
    {
        "name": "塩釜神社",
        "prefectureName": "北海道",
        "cityName": "上磯郡木古内町",
        "streetName": "字御宮野１２番地",
        "latitude": 41.6782656,
        "longitude": 140.4375678,
        "id": "a7fcae41-418e-47ee-8a05-76ab1018e045"
    },
    {
        "name": "士別神社",
        "prefectureName": "北海道",
        "cityName": "士別市",
        "streetName": "東八条北１丁目４３６番地",
        "latitude": 44.18277194,
        "longitude": 142.40169983,
        "id": "801eb491-25d5-463a-a3c1-663e57164ee9"
    },
    {
        "name": "士幌五社大明神社",
        "prefectureName": "北海道",
        "cityName": "河東郡士幌町",
        "streetName": "字士幌西２線１４８番地６",
        "latitude": 43.15623696,
        "longitude": 143.24232683,
        "id": "bf2c32e1-4907-4f96-81d9-3fd2cb829277"
    },
    {
        "name": "士幌神社",
        "prefectureName": "北海道",
        "cityName": "河東郡士幌町",
        "streetName": "字士幌東四条２丁目１番地",
        "latitude": 43.16821907,
        "longitude": 143.25014264,
        "id": "cfcd4206-d2d0-49be-b7d4-6ac51e9e2bc8"
    },
    {
        "name": "壯瞥神社",
        "prefectureName": "北海道",
        "cityName": "有珠郡壮瞥町",
        "streetName": "字滝之町２４５番地の２",
        "latitude": 42.55784373,
        "longitude": 140.88570805,
        "id": "c25096f6-d4f7-4591-a88b-8510ae3b9858"
    },
    {
        "name": "壽都神社",
        "prefectureName": "北海道",
        "cityName": "寿都郡寿都町",
        "streetName": "字渡島町１２７番地の２",
        "latitude": 42.79069748,
        "longitude": 140.2309211,
        "id": "6af3de53-3c50-43ac-9dbd-6f3a373beac2"
    },
    {
        "name": "夕張神社",
        "prefectureName": "北海道",
        "cityName": "夕張市",
        "streetName": "住初６番地",
        "latitude": 43.06463633,
        "longitude": 141.98165023,
        "id": "45b94175-debe-47c6-9e64-ab2c2e99b9de"
    },
    {
        "name": "多寄神社",
        "prefectureName": "北海道",
        "cityName": "士別市",
        "streetName": "多寄町三十四線西３番地",
        "latitude": 44.27065194,
        "longitude": 142.35572436,
        "id": "af2cc797-74b4-4aaa-9a1c-11d06a5a9482"
    },
    {
        "name": "多度志神社",
        "prefectureName": "北海道",
        "cityName": "深川市",
        "streetName": "多度志町字タドシ１６４番地",
        "latitude": 43.7232598,
        "longitude": 142.0535373,
        "id": "1ff7f158-a7d0-41ed-8d28-d2a4350bcf5f"
    },
    {
        "name": "大上川神社",
        "prefectureName": "北海道",
        "cityName": "上川郡上川町",
        "streetName": "北町２５番地",
        "latitude": 43.85225417,
        "longitude": 142.77187479,
        "id": "a822fd7e-fbb0-400c-9ea3-a8ff1fa0888a"
    },
    {
        "name": "大中山神社",
        "prefectureName": "北海道",
        "cityName": "亀田郡七飯町",
        "streetName": "大中山２丁目５番５号",
        "latitude": 41.86843978,
        "longitude": 140.71437622,
        "id": "03a4d1aa-cf5c-4653-b4da-682b606feed3"
    },
    {
        "name": "大勝神社",
        "prefectureName": "北海道",
        "cityName": "上川郡清水町",
        "streetName": "字熊牛６３番地",
        "latitude": 43.00780568,
        "longitude": 142.94709745,
        "id": "feb33c40-24ac-451d-abed-55fba718de80"
    },
    {
        "name": "大国神社",
        "prefectureName": "北海道",
        "cityName": "深川市",
        "streetName": "一已町字一已２４００番地",
        "latitude": 43.73922169,
        "longitude": 142.04754517,
        "id": "82a924e4-a57f-48f7-94f6-fc588108795e"
    },
    {
        "name": "大國神社",
        "prefectureName": "北海道",
        "cityName": "河西郡中札内村",
        "streetName": "元更別東１線２０番地",
        "latitude": 42.6974048,
        "longitude": 143.1321176,
        "id": "2f9b6fa1-db13-4563-b707-3bcae223aa33"
    },
    {
        "name": "大富神社",
        "prefectureName": "北海道",
        "cityName": "美唄市",
        "streetName": "字大富５８９０番地",
        "latitude": 43.3328809,
        "longitude": 141.8537839,
        "id": "f6f4e7f3-a4f6-4b65-9502-e1d6a83232cc"
    },
    {
        "name": "大山祇神社",
        "prefectureName": "北海道",
        "cityName": "函館市",
        "streetName": "庵原町７９番地",
        "latitude": 41.79723933,
        "longitude": 140.86441667,
        "id": "4ab13784-b5a3-4b3b-89d4-ecd5c4658e2b"
    },
    {
        "name": "大山神社",
        "prefectureName": "北海道",
        "cityName": "爾志郡乙部町",
        "streetName": "字旭岱３５１番地",
        "latitude": 41.96525764,
        "longitude": 140.19304465,
        "id": "45aea0e8-d115-44cd-8fbd-13541808eb6b"
    },
    {
        "name": "大崎稲荷神社",
        "prefectureName": "北海道",
        "cityName": "檜山郡上ノ国町",
        "streetName": "字大崎１８８番地",
        "latitude": 41.8011112,
        "longitude": 140.1213193,
        "id": "db59496a-b24f-4551-ad23-9c43ab8be396"
    },
    {
        "name": "大曲神社",
        "prefectureName": "北海道",
        "cityName": "北広島市",
        "streetName": "大曲柏葉１丁目２番地２",
        "latitude": 42.97040618,
        "longitude": 141.48127594,
        "id": "4315beb2-e9fa-4d9b-9410-6aa5f4ddbb3f"
    },
    {
        "name": "大森稲荷神社",
        "prefectureName": "北海道",
        "cityName": "函館市",
        "streetName": "大森町２２番６号",
        "latitude": 41.76868509,
        "longitude": 140.7373344,
        "id": "7c5362a0-6d4c-4a7d-b4bd-7cb5eeadf4c1"
    },
    {
        "name": "大樂毛神社",
        "prefectureName": "北海道",
        "cityName": "釧路市",
        "streetName": "大楽毛４丁目１１番地１０",
        "latitude": 43.01224964,
        "longitude": 144.27551518,
        "id": "356851e5-332c-46ef-a849-fc650ff1290f"
    },
    {
        "name": "大樹神社",
        "prefectureName": "北海道",
        "cityName": "広尾郡大樹町",
        "streetName": "東本通４７番地１",
        "latitude": 42.49892253,
        "longitude": 143.27781852,
        "id": "cd74d43c-35d3-4292-a117-ebfe2f0fd4aa"
    },
    {
        "name": "大正神社",
        "prefectureName": "北海道",
        "cityName": "帯広市",
        "streetName": "大正本町２６８番地",
        "latitude": 42.79350039,
        "longitude": 143.15845394,
        "id": "00067a84-0227-4c64-90c9-13d138cdfd17"
    },
    {
        "name": "大江神社",
        "prefectureName": "北海道",
        "cityName": "余市郡仁木町",
        "streetName": "大江２丁目４４５番地",
        "latitude": 43.09091878,
        "longitude": 140.72060054,
        "id": "9f8c4a7d-94f0-4f8a-bf56-50e4f2b3d3ff"
    },
    {
        "name": "大澤神社",
        "prefectureName": "北海道",
        "cityName": "松前郡松前町",
        "streetName": "字大沢２４３番地",
        "latitude": 41.4300246,
        "longitude": 140.1100068,
        "id": "4d27073c-e61b-45cb-b73b-58d3a036febc"
    },
    {
        "name": "大臼山神社",
        "prefectureName": "北海道",
        "cityName": "伊達市",
        "streetName": "有珠町３９番地",
        "latitude": 42.51593023,
        "longitude": 140.78903504,
        "id": "f19d4dd1-bea1-44c0-87e9-855cc1e32260"
    },
    {
        "name": "大谷地神社",
        "prefectureName": "北海道",
        "cityName": "札幌市厚別区",
        "streetName": "大谷地西２丁目２番１号",
        "latitude": 43.02645752,
        "longitude": 141.44749485,
        "id": "ec199580-b3b8-49df-92b9-853063d62b56"
    },
    {
        "name": "大豊神社",
        "prefectureName": "北海道",
        "cityName": "檜山郡厚沢部町",
        "streetName": "鶉町３６８番地",
        "latitude": 41.93590352,
        "longitude": 140.32350404,
        "id": "46bb4fd3-314a-44bf-89b5-dcc6903d58b4"
    },
    {
        "name": "大鳥神社",
        "prefectureName": "北海道",
        "cityName": "寿都郡黒松内町",
        "streetName": "字黒松内４６３番地",
        "latitude": 42.66220327,
        "longitude": 140.30608937,
        "id": "2a05b8e1-6300-4966-a954-15b1b1e64c5b"
    },
    {
        "name": "大麻神社",
        "prefectureName": "北海道",
        "cityName": "江別市",
        "streetName": "大麻宮町３番地２",
        "latitude": 43.07730078,
        "longitude": 141.49034112,
        "id": "628367b9-5b19-4f91-9b33-06a7d5fcfc14"
    },
    {
        "name": "天満神社",
        "prefectureName": "北海道",
        "cityName": "松前郡松前町",
        "streetName": "字朝日３５６番地",
        "latitude": 41.4300246,
        "longitude": 140.1100068,
        "id": "271da974-e246-4936-acd3-06ee5a72d054"
    },
    {
        "name": "太田神社",
        "prefectureName": "北海道",
        "cityName": "旭川市",
        "streetName": "東旭川町米原４７９番地",
        "latitude": 43.7707764,
        "longitude": 142.3647436,
        "id": "5b2f9995-8589-44aa-adf7-8d27474376b6"
    },
    {
        "name": "太田神社",
        "prefectureName": "北海道",
        "cityName": "久遠郡せたな町",
        "streetName": "大成区太田１７番地",
        "latitude": 42.4171749,
        "longitude": 139.8829762,
        "id": "4668f1f5-25bc-4685-8f67-3952a4abe39e"
    },
    {
        "name": "奈井江神社",
        "prefectureName": "北海道",
        "cityName": "空知郡奈井江町",
        "streetName": "字奈井江町１０３番地",
        "latitude": 43.42475349,
        "longitude": 141.8938486,
        "id": "5b7b11f9-5653-439d-bfc4-698e28057150"
    },
    {
        "name": "女代神社",
        "prefectureName": "北海道",
        "cityName": "余市郡仁木町",
        "streetName": "銀山１丁目４１１番地",
        "latitude": 43.04454891,
        "longitude": 140.7191979,
        "id": "3c480b22-dae0-46f4-bdb9-503f6e0a9bc1"
    },
    {
        "name": "女満別神社",
        "prefectureName": "北海道",
        "cityName": "網走郡大空町",
        "streetName": "女満別公園２丁目２番１号",
        "latitude": 43.91809074,
        "longitude": 144.18083273,
        "id": "4d503624-e525-4719-8529-f2272c390b5c"
    },
    {
        "name": "妹背牛神社",
        "prefectureName": "北海道",
        "cityName": "雨竜郡妹背牛町",
        "streetName": "字妹背牛畑４６６番地",
        "latitude": 43.7002425,
        "longitude": 141.961666,
        "id": "bc9d9c90-7f2c-4ed0-b24b-8b34203135cf"
    },
    {
        "name": "安平八幡神社",
        "prefectureName": "北海道",
        "cityName": "勇払郡安平町",
        "streetName": "安平４４２番地１",
        "latitude": 42.81490933,
        "longitude": 141.83367123,
        "id": "8b41ca0c-a01c-4a8a-97d3-13849a913e07"
    },
    {
        "name": "定山渓神社",
        "prefectureName": "北海道",
        "cityName": "札幌市南区",
        "streetName": "定山渓温泉東３丁目２１８番地",
        "latitude": 42.96484492,
        "longitude": 141.16718597,
        "id": "1e8558a0-5795-4c8f-83d8-90e7d5bc326c"
    },
    {
        "name": "宝来神社",
        "prefectureName": "北海道",
        "cityName": "河東郡音更町",
        "streetName": "宝来北一条３丁目１番地９",
        "latitude": 42.95458484,
        "longitude": 143.21604064,
        "id": "e515a2d8-ce52-4aaa-8867-173d021a100a"
    },
    {
        "name": "宮川神社",
        "prefectureName": "北海道",
        "cityName": "函館市",
        "streetName": "浜町６３０番地",
        "latitude": 41.72034603,
        "longitude": 141.00765457,
        "id": "6dfc25f1-0ce0-4af1-88d8-b4e78e5d46a6"
    },
    {
        "name": "宿野辺神社",
        "prefectureName": "北海道",
        "cityName": "茅部郡森町",
        "streetName": "字駒ケ岳２９１番地",
        "latitude": 42.1049778,
        "longitude": 140.5764202,
        "id": "9353a9d0-d01a-4e91-a70a-3d099c3bd235"
    },
    {
        "name": "富士神社",
        "prefectureName": "北海道",
        "cityName": "帯広市",
        "streetName": "富士町西４線５５番地",
        "latitude": 42.80478285,
        "longitude": 143.09968935,
        "id": "773e29a4-049c-4358-98f1-19fff4d6a302"
    },
    {
        "name": "富士見町稲荷神社",
        "prefectureName": "北海道",
        "cityName": "茅部郡森町",
        "streetName": "字富士見町１１０番地",
        "latitude": 42.1049778,
        "longitude": 140.5764202,
        "id": "cf92e04a-7f71-4103-b747-1ca2b4261c10"
    },
    {
        "name": "富良野神社",
        "prefectureName": "北海道",
        "cityName": "富良野市",
        "streetName": "若松町１７番６号",
        "latitude": 43.34356378,
        "longitude": 142.38208039,
        "id": "7713eb1d-7c01-4b2e-b0cd-60e5dcc4fb5c"
    },
    {
        "name": "対雁通相馬神社",
        "prefectureName": "北海道",
        "cityName": "石狩郡当別町",
        "streetName": "対雁３８番地",
        "latitude": 43.20698696,
        "longitude": 141.51926134,
        "id": "774af9ab-b836-4528-85f6-ad8895b99684"
    },
    {
        "name": "小平神社",
        "prefectureName": "北海道",
        "cityName": "留萌郡小平町",
        "streetName": "字小平町４０３番地",
        "latitude": 44.01432119,
        "longitude": 141.66470517,
        "id": "f7b7032e-8378-4820-b773-333af64963a7"
    },
    {
        "name": "小樽稲荷神社",
        "prefectureName": "北海道",
        "cityName": "小樽市",
        "streetName": "末広町３８番１号",
        "latitude": 43.21600608,
        "longitude": 140.99987589,
        "id": "f76ad8cd-8fa2-42c6-801e-19059cf4468c"
    },
    {
        "name": "小沢神社",
        "prefectureName": "北海道",
        "cityName": "岩内郡共和町",
        "streetName": "小沢１２００番地",
        "latitude": 42.96760059,
        "longitude": 140.67708764,
        "id": "877c188c-41be-4061-bd40-b99c5f2a2f20"
    },
    {
        "name": "小清水神社",
        "prefectureName": "北海道",
        "cityName": "斜里郡小清水町",
        "streetName": "元町１丁目５１番１号",
        "latitude": 43.86249792,
        "longitude": 144.46059444,
        "id": "7351b4d1-d0f7-4fbc-9368-62ec88f1e704"
    },
    {
        "name": "小谷石神社",
        "prefectureName": "北海道",
        "cityName": "上磯郡知内町",
        "streetName": "字小谷石２９１番地",
        "latitude": 41.5981533,
        "longitude": 140.4189455,
        "id": "e95c89c1-2819-4106-8f02-4edc5d798a54"
    },
    {
        "name": "少彦名神社",
        "prefectureName": "北海道",
        "cityName": "奥尻郡奥尻町",
        "streetName": "字松江１６９番地",
        "latitude": 42.07801818,
        "longitude": 139.48793968,
        "id": "76e3a075-dfbe-47a8-834b-69188babee0a"
    },
    {
        "name": "尻岸内八幡神社",
        "prefectureName": "北海道",
        "cityName": "函館市",
        "streetName": "大澗町１９４番地",
        "latitude": 41.74602032,
        "longitude": 141.07348147,
        "id": "7294c7d8-c6e7-411b-88e9-76d89934bec3"
    },
    {
        "name": "尾根内神社",
        "prefectureName": "北海道",
        "cityName": "余市郡仁木町",
        "streetName": "尾根内３７５番地",
        "latitude": 43.1519858,
        "longitude": 140.7660652,
        "id": "0840d205-66d0-40c2-a27a-9160b08fb803"
    },
    {
        "name": "尾白内稲荷神社",
        "prefectureName": "北海道",
        "cityName": "茅部郡森町",
        "streetName": "字尾白内町５０６番地",
        "latitude": 42.1049778,
        "longitude": 140.5764202,
        "id": "9760a425-adb1-4726-8cad-a1a03afd729d"
    },
    {
        "name": "屈足神社",
        "prefectureName": "北海道",
        "cityName": "上川郡新得町",
        "streetName": "屈足緑町４丁目３７番地",
        "latitude": 43.0797989,
        "longitude": 142.8387391,
        "id": "f40654e3-62fb-4b44-ad94-fe0ba56967d9"
    },
    {
        "name": "山口神社",
        "prefectureName": "北海道",
        "cityName": "札幌市手稲区",
        "streetName": "手稲山口５５７番地２",
        "latitude": 43.1219127,
        "longitude": 141.2458873,
        "id": "cb7834d8-760b-432d-b8e1-32270c6b8638"
    },
    {
        "name": "山神社",
        "prefectureName": "北海道",
        "cityName": "檜山郡上ノ国町",
        "streetName": "字大留２７９番地",
        "latitude": 41.8011112,
        "longitude": 140.1213193,
        "id": "6e770580-fe2b-40a4-968c-21114a955c3c"
    },
    {
        "name": "山神社",
        "prefectureName": "北海道",
        "cityName": "檜山郡上ノ国町",
        "streetName": "字小森２０８番地",
        "latitude": 41.8011112,
        "longitude": 140.1213193,
        "id": "1405fdbf-1fda-4dd9-a496-36df9dcf8735"
    },
    {
        "name": "山部神社",
        "prefectureName": "北海道",
        "cityName": "富良野市",
        "streetName": "山部東町９番２０号",
        "latitude": 43.24572562,
        "longitude": 142.38555711,
        "id": "04caa539-dc45-4913-a42e-1f13bf629dae"
    },
    {
        "name": "岩内神社",
        "prefectureName": "北海道",
        "cityName": "岩内郡岩内町",
        "streetName": "字宮園４１番地",
        "latitude": 42.97452971,
        "longitude": 140.51441956,
        "id": "c10c40ab-0931-4ce8-88f1-402fbc09ad5d"
    },
    {
        "name": "岩見沢神社",
        "prefectureName": "北海道",
        "cityName": "岩見沢市",
        "streetName": "十二条西１丁目３番地",
        "latitude": 43.19529391,
        "longitude": 141.77322996,
        "id": "5fb672c8-2857-4db3-9344-3f030864cb5b"
    },
    {
        "name": "岬神社",
        "prefectureName": "北海道",
        "cityName": "稚内市",
        "streetName": "ノシヤツプ二丁目３７５番地",
        "latitude": 45.4156804,
        "longitude": 141.6730956,
        "id": "e9840552-629b-49a0-a0b2-8c9972016dd2"
    },
    {
        "name": "峰延神社",
        "prefectureName": "北海道",
        "cityName": "美唄市",
        "streetName": "字光珠内１９２４番地の１",
        "latitude": 43.3328809,
        "longitude": 141.8537839,
        "id": "05fe6199-a4f5-4f39-b9a6-c5ab07994747"
    },
    {
        "name": "島松神社",
        "prefectureName": "北海道",
        "cityName": "恵庭市",
        "streetName": "島松本町４丁目３番１号",
        "latitude": 42.92789719,
        "longitude": 141.57623557,
        "id": "ff52c3a1-ccb5-4858-ad0d-6f12331d8546"
    },
    {
        "name": "崎守神社",
        "prefectureName": "北海道",
        "cityName": "室蘭市",
        "streetName": "崎守町１８７番地",
        "latitude": 42.3152302,
        "longitude": 140.973799,
        "id": "d4ebe7f1-f35e-43ad-b2ea-cbabb061d566"
    },
    {
        "name": "川上神社",
        "prefectureName": "北海道",
        "cityName": "川上郡標茶町",
        "streetName": "川上７丁目１番地",
        "latitude": 43.30100988,
        "longitude": 144.59882813,
        "id": "e47793dd-12ef-43f0-bb6d-89b135a388a8"
    },
    {
        "name": "川上神社",
        "prefectureName": "北海道",
        "cityName": "函館市",
        "streetName": "石川町２６１番地",
        "latitude": 41.84077786,
        "longitude": 140.74891417,
        "id": "94a3b70d-0788-49e7-966e-132f954b404b"
    },
    {
        "name": "川上神社",
        "prefectureName": "北海道",
        "cityName": "日高郡新ひだか町",
        "streetName": "三石川上１３２番地８",
        "latitude": 42.30093579,
        "longitude": 142.707379,
        "id": "db6efbef-cf28-4c36-8a68-c870bf62a2d6"
    },
    {
        "name": "川北神社",
        "prefectureName": "北海道",
        "cityName": "標津郡標津町",
        "streetName": "字川北９３番地の１８",
        "latitude": 43.66021089,
        "longitude": 145.02171499,
        "id": "e060f601-2c0d-4336-83ce-d06693e47cde"
    },
    {
        "name": "川湯神社",
        "prefectureName": "北海道",
        "cityName": "川上郡弟子屈町",
        "streetName": "川湯温泉３丁目２番４５号",
        "latitude": 43.63880061,
        "longitude": 144.43630566,
        "id": "85c7e57c-e054-49bc-9995-967bcfae63bd"
    },
    {
        "name": "川濯神社",
        "prefectureName": "北海道",
        "cityName": "函館市",
        "streetName": "字古川町２３７番地",
        "latitude": 41.7686738,
        "longitude": 140.728924,
        "id": "d2014ee4-d666-44e4-878e-91a5bb291f95"
    },
    {
        "name": "川濯神社",
        "prefectureName": "北海道",
        "cityName": "函館市",
        "streetName": "字根崎５５８番地",
        "latitude": 41.7686738,
        "longitude": 140.728924,
        "id": "0af04469-773c-4660-9110-a0a8b2ca4f26"
    },
    {
        "name": "川裾神社",
        "prefectureName": "北海道",
        "cityName": "檜山郡上ノ国町",
        "streetName": "字向浜４番地",
        "latitude": 41.8011112,
        "longitude": 140.1213193,
        "id": "329a9ef2-911e-4299-b76d-76576dd3aaa0"
    },
    {
        "name": "川西神社",
        "prefectureName": "北海道",
        "cityName": "帯広市",
        "streetName": "川西町西１線３０番地",
        "latitude": 42.86140267,
        "longitude": 143.18900397,
        "id": "2be48990-79b2-46f7-aa13-d21c2215a000"
    },
    {
        "name": "市来知神社",
        "prefectureName": "北海道",
        "cityName": "三笠市",
        "streetName": "宮本町４８８番地",
        "latitude": 43.2454354,
        "longitude": 141.8753274,
        "id": "ed51475c-c7b4-4e44-baff-933f65348730"
    },
    {
        "name": "市杵島神社",
        "prefectureName": "北海道",
        "cityName": "根室市",
        "streetName": "弁天島２番地",
        "latitude": 43.34136856,
        "longitude": 145.57616183,
        "id": "8c61268b-b6ef-441b-8e93-eaef59acd77e"
    },
    {
        "name": "帯広三吉神社",
        "prefectureName": "北海道",
        "cityName": "帯広市",
        "streetName": "西五条南２丁目６番地",
        "latitude": 42.92953703,
        "longitude": 143.1958883,
        "id": "9b8b69ba-0b08-40b2-9684-ed4c4ea1f12c"
    },
    {
        "name": "帯広神社",
        "prefectureName": "北海道",
        "cityName": "帯広市",
        "streetName": "東三条南２丁目１番地",
        "latitude": 42.93077355,
        "longitude": 143.20933976,
        "id": "7004187b-d1e8-456a-8466-368139bfdaad"
    },
    {
        "name": "常呂神社",
        "prefectureName": "北海道",
        "cityName": "北見市",
        "streetName": "常呂町字常呂６３番地",
        "latitude": 44.12111565,
        "longitude": 144.08048394,
        "id": "b226d68b-c9ea-4254-a653-bb0b84009263"
    },
    {
        "name": "常室神社",
        "prefectureName": "北海道",
        "cityName": "十勝郡浦幌町",
        "streetName": "字円山３番地",
        "latitude": 42.8090073,
        "longitude": 143.6586979,
        "id": "719f0eff-f253-4124-a74b-979bf28cdcc3"
    },
    {
        "name": "幌似神社",
        "prefectureName": "北海道",
        "cityName": "岩内郡共和町",
        "streetName": "南幌似１３２番地",
        "latitude": 42.97931948,
        "longitude": 140.60074573,
        "id": "ee64bbde-c4b2-46ee-b7a6-4d087e19e48c"
    },
    {
        "name": "幌内神社",
        "prefectureName": "北海道",
        "cityName": "三笠市",
        "streetName": "幌内本沢町３１４番地",
        "latitude": 43.22071426,
        "longitude": 141.90977325,
        "id": "e343f8d4-1681-4321-abcc-10ae1b7ef171"
    },
    {
        "name": "幌内神社",
        "prefectureName": "北海道",
        "cityName": "夕張郡長沼町",
        "streetName": "字ポロナイ１５１２番地",
        "latitude": 43.0101477,
        "longitude": 141.6951626,
        "id": "6d0e31c3-436d-48f2-85c3-069b0edfc993"
    },
    {
        "name": "幌加内神社",
        "prefectureName": "北海道",
        "cityName": "雨竜郡幌加内町",
        "streetName": "字幌加内４９８２番地",
        "latitude": 44.0099202,
        "longitude": 142.1539305,
        "id": "b215cfe7-8b98-4cec-9fd3-2d595e97e909"
    },
    {
        "name": "幌延神社",
        "prefectureName": "北海道",
        "cityName": "天塩郡幌延町",
        "streetName": "五条南１丁目１４番地",
        "latitude": 45.0177109,
        "longitude": 141.8493838,
        "id": "7f02f2be-7876-4852-ab08-b51f61700f94"
    },
    {
        "name": "幌稲荷神社",
        "prefectureName": "北海道",
        "cityName": "石狩市",
        "streetName": "浜益区幌１２００番地",
        "latitude": 43.65334313,
        "longitude": 141.35491541,
        "id": "7fd81c9f-7c15-42bf-878a-f317af031ce6"
    },
    {
        "name": "幌糠神社",
        "prefectureName": "北海道",
        "cityName": "留萌市",
        "streetName": "字幌糠３０５７番地",
        "latitude": 43.9410775,
        "longitude": 141.6372116,
        "id": "d2352b62-ec6f-4362-9d07-0e84626b9d14"
    },
    {
        "name": "幕別神社",
        "prefectureName": "北海道",
        "cityName": "中川郡幕別町",
        "streetName": "本町１４８番地",
        "latitude": 42.90817566,
        "longitude": 143.35476018,
        "id": "b4a6cb51-1911-47bb-9ccd-9a2afff9865a"
    },
    {
        "name": "幡守神社",
        "prefectureName": "北海道",
        "cityName": "室蘭市",
        "streetName": "石川町１４１番地",
        "latitude": 42.38507246,
        "longitude": 140.9293208,
        "id": "a7a38c10-70f3-4db2-bc7b-23c2de059d5c"
    },
    {
        "name": "幾春別神社",
        "prefectureName": "北海道",
        "cityName": "三笠市",
        "streetName": "幾春別町３丁目１１７番地",
        "latitude": 43.26204502,
        "longitude": 141.95492182,
        "id": "fcf3dcf2-875e-43f8-8bf3-e1e10b3780e2"
    },
    {
        "name": "廣島神社",
        "prefectureName": "北海道",
        "cityName": "北広島市",
        "streetName": "中央４丁目３番地１",
        "latitude": 42.98487652,
        "longitude": 141.56381984,
        "id": "e849d700-1fb5-435a-98c8-7511ce429153"
    },
    {
        "name": "延出神社",
        "prefectureName": "北海道",
        "cityName": "日高郡新ひだか町",
        "streetName": "三石豊岡２１１番地",
        "latitude": 42.28048363,
        "longitude": 142.60556012,
        "id": "e0371573-e706-494c-905d-70bdd8d360a9"
    },
    {
        "name": "弁華別神社",
        "prefectureName": "北海道",
        "cityName": "石狩郡当別町",
        "streetName": "字弁華別４３５番地２",
        "latitude": 43.25990385,
        "longitude": 141.52539986,
        "id": "7ea86f01-a17e-4b7b-853c-0728d48bc42b"
    },
    {
        "name": "弟子屈神社",
        "prefectureName": "北海道",
        "cityName": "川上郡弟子屈町",
        "streetName": "高栄２丁目３番４号",
        "latitude": 43.483681,
        "longitude": 144.45531277,
        "id": "0ae62ace-131a-4a79-ab27-3264f4e61eff"
    },
    {
        "name": "弥彦神社",
        "prefectureName": "北海道",
        "cityName": "札幌市中央区",
        "streetName": "中島公園１番８号",
        "latitude": 43.04175866,
        "longitude": 141.35565209,
        "id": "35d88365-80e7-4ff4-8651-7808081b93ab"
    },
    {
        "name": "当別神社",
        "prefectureName": "北海道",
        "cityName": "石狩郡当別町",
        "streetName": "元町５１番地１２",
        "latitude": 43.21843565,
        "longitude": 141.52047456,
        "id": "18bf979d-4e3e-435d-a62d-ba3a32fa9c49"
    },
    {
        "name": "御傘山神社",
        "prefectureName": "北海道",
        "cityName": "室蘭市",
        "streetName": "御前水町１丁目１２番３号",
        "latitude": 42.32346974,
        "longitude": 140.99899402,
        "id": "7d547e27-ad6d-4962-9621-c05f6fb2c690"
    },
    {
        "name": "御園神社",
        "prefectureName": "北海道",
        "cityName": "夕張郡栗山町",
        "streetName": "字御園２８番地",
        "latitude": 43.056245,
        "longitude": 141.7837576,
        "id": "4d1f555c-b86f-4046-949f-4b2a643e1b3a"
    },
    {
        "name": "御嶽神社",
        "prefectureName": "北海道",
        "cityName": "紋別郡遠軽町",
        "streetName": "白滝北支湧別２３５番地",
        "latitude": 44.0619526,
        "longitude": 143.5279464,
        "id": "5e0d55b5-7ee6-4fca-ac39-63611a349926"
    },
    {
        "name": "御影神社",
        "prefectureName": "北海道",
        "cityName": "上川郡清水町",
        "streetName": "御影西二条２丁目１１番地",
        "latitude": 42.94515391,
        "longitude": 142.93539961,
        "id": "22f48589-6c4c-4bd4-a6c3-49ac9a5f3ae0"
    },
    {
        "name": "御得稲荷神社",
        "prefectureName": "北海道",
        "cityName": "釧路市",
        "streetName": "寿１丁目１番３号",
        "latitude": 42.98940616,
        "longitude": 144.37629974,
        "id": "fcde2516-8f2a-4b32-a9b7-25511f404a28"
    },
    {
        "name": "忍路神社",
        "prefectureName": "北海道",
        "cityName": "小樽市",
        "streetName": "忍路１丁目４１６番地",
        "latitude": 43.20978611,
        "longitude": 140.86176872,
        "id": "f011291f-25f6-48f7-be95-a939bf768d3a"
    },
    {
        "name": "忠類神社",
        "prefectureName": "北海道",
        "cityName": "中川郡幕別町",
        "streetName": "忠類東宝８４番地６",
        "latitude": 42.56116467,
        "longitude": 143.30976511,
        "id": "5c5acbf0-b0ec-46f2-afb6-4cdc90b3fc98"
    },
    {
        "name": "恵庭神社",
        "prefectureName": "北海道",
        "cityName": "恵庭市",
        "streetName": "中央１０番地",
        "latitude": 42.8825614,
        "longitude": 141.5778178,
        "id": "2ed77b50-1afd-4066-9374-f11ff88b93f2"
    },
    {
        "name": "恵比須神社",
        "prefectureName": "北海道",
        "cityName": "古宇郡泊村",
        "streetName": "大字茅沼村１４０番地",
        "latitude": 43.0633544,
        "longitude": 140.498862,
        "id": "45046f75-7e59-492c-80ee-2a7274bd2a40"
    },
    {
        "name": "恵比須神社",
        "prefectureName": "北海道",
        "cityName": "苫小牧市",
        "streetName": "字勇払１３８番地の１",
        "latitude": 42.63503997,
        "longitude": 141.72643432,
        "id": "1fcc59fd-a46e-42a6-ba80-d4e0397cd713"
    },
    {
        "name": "恵比須神社",
        "prefectureName": "北海道",
        "cityName": "増毛郡増毛町",
        "streetName": "別苅",
        "latitude": 43.83485534,
        "longitude": 141.49424764,
        "id": "d7ce5959-230d-40e6-b54c-fd039844adb1"
    },
    {
        "name": "恵美須神社",
        "prefectureName": "北海道",
        "cityName": "小樽市",
        "streetName": "祝津３丁目１６１番地",
        "latitude": 43.23447944,
        "longitude": 141.01264038,
        "id": "701dcfd1-d8e0-4360-b9be-e9e4f7b9ac59"
    },
    {
        "name": "惠比須神社",
        "prefectureName": "北海道",
        "cityName": "古平郡古平町",
        "streetName": "大字浜町９８９番地",
        "latitude": 43.2649345,
        "longitude": 140.63913323,
        "id": "31ef0a45-b085-4e54-8574-53811abe06b1"
    },
    {
        "name": "意冨比神社",
        "prefectureName": "北海道",
        "cityName": "北斗市",
        "streetName": "本町２丁目８番１号",
        "latitude": 41.88459659,
        "longitude": 140.6414933,
        "id": "8fbca2f9-bf43-4c74-b482-abeb0e0adc4b"
    },
    {
        "name": "愛別神社",
        "prefectureName": "北海道",
        "cityName": "上川郡愛別町",
        "streetName": "字北町３４８番地",
        "latitude": 43.9068281,
        "longitude": 142.58053661,
        "id": "e843858d-6708-40bb-84eb-c0e415bd5a2f"
    },
    {
        "name": "愛国神社",
        "prefectureName": "北海道",
        "cityName": "帯広市",
        "streetName": "愛国町東１線２６番地の４",
        "latitude": 42.9238989,
        "longitude": 143.1961024,
        "id": "22ebc05e-b940-4e4a-b400-45020c2fb92c"
    },
    {
        "name": "愛宕神社",
        "prefectureName": "北海道",
        "cityName": "石狩郡新篠津村",
        "streetName": "第３６線北３０番地",
        "latitude": 43.23245315,
        "longitude": 141.57486327,
        "id": "f6e5a7c5-2deb-42e5-a1f7-8b6c0dfb579d"
    },
    {
        "name": "愛宕神社",
        "prefectureName": "北海道",
        "cityName": "檜山郡上ノ国町",
        "streetName": "字桂岡５５番地",
        "latitude": 41.8011112,
        "longitude": 140.1213193,
        "id": "65d470bf-1f6e-46e3-a226-fed82b42a3d6"
    },
    {
        "name": "愛宕神社",
        "prefectureName": "北海道",
        "cityName": "檜山郡上ノ国町",
        "streetName": "字扇石１２２番地",
        "latitude": 41.8011112,
        "longitude": 140.1213193,
        "id": "6350e585-9055-42ec-b188-8e381a89c3d1"
    },
    {
        "name": "手稲神社",
        "prefectureName": "北海道",
        "cityName": "札幌市手稲区",
        "streetName": "手稲本町二条３丁目４番２８号",
        "latitude": 43.11865454,
        "longitude": 141.24068237,
        "id": "01f72ae5-e829-4f9b-a1b7-427df6a67933"
    },
    {
        "name": "掛澗神社",
        "prefectureName": "北海道",
        "cityName": "茅部郡森町",
        "streetName": "字砂原西２丁目７７番地",
        "latitude": 42.12014276,
        "longitude": 140.63857712,
        "id": "df0b01fb-2fc3-4659-b4c6-4de7d49a00f9"
    },
    {
        "name": "支安平神社",
        "prefectureName": "北海道",
        "cityName": "勇払郡安平町",
        "streetName": "早来瑞穂１２１０番地",
        "latitude": 42.7628146,
        "longitude": 141.8180173,
        "id": "eee9dd0f-f3ab-4101-8059-3c51934b6cd8"
    },
    {
        "name": "斜里神社",
        "prefectureName": "北海道",
        "cityName": "斜里郡斜里町",
        "streetName": "本町４４番地２",
        "latitude": 43.9125283,
        "longitude": 144.66756036,
        "id": "4d1d2832-7885-4e2b-bee1-47491f51fac1"
    },
    {
        "name": "新十津川神社",
        "prefectureName": "北海道",
        "cityName": "樺戸郡新十津川町",
        "streetName": "字中央３７番地",
        "latitude": 43.57108877,
        "longitude": 141.86822532,
        "id": "1ccd5bbe-e2b1-4426-805b-be7d38119148"
    },
    {
        "name": "新川皇大神社",
        "prefectureName": "北海道",
        "cityName": "札幌市北区",
        "streetName": "新川三条１３丁目３番１２号",
        "latitude": 43.10887097,
        "longitude": 141.30114424,
        "id": "daf193a4-b483-4c7e-9a78-fecb1116f20d"
    },
    {
        "name": "新得神社",
        "prefectureName": "北海道",
        "cityName": "上川郡新得町",
        "streetName": "西一条北３丁目１１番地",
        "latitude": 43.08477305,
        "longitude": 142.82732567,
        "id": "a13262ea-c96f-4ef6-8dc6-914b8fc4cbcf"
    },
    {
        "name": "新琴似神社",
        "prefectureName": "北海道",
        "cityName": "札幌市北区",
        "streetName": "新琴似八条３丁目１番６号",
        "latitude": 43.11372406,
        "longitude": 141.33189682,
        "id": "b8325547-659f-454c-8824-da279b6326c5"
    },
    {
        "name": "新生神社",
        "prefectureName": "北海道",
        "cityName": "河西郡芽室町",
        "streetName": "新生南５線２６番地６",
        "latitude": 42.89609699,
        "longitude": 143.05715415,
        "id": "5638e3dc-3053-4d24-8b98-bebaaad5927c"
    },
    {
        "name": "新篠津神社",
        "prefectureName": "北海道",
        "cityName": "石狩郡新篠津村",
        "streetName": "第４７線北１３番地",
        "latitude": 43.22558444,
        "longitude": 141.64992414,
        "id": "b2cad863-4e39-4a31-abe8-4d8f22a6a36c"
    },
    {
        "name": "新美生八幡神社",
        "prefectureName": "北海道",
        "cityName": "河西郡芽室町",
        "streetName": "上美生８線２５番地",
        "latitude": 42.911862,
        "longitude": 143.050865,
        "id": "44083e8b-86e5-4e87-a95c-f69c39dc2c72"
    },
    {
        "name": "日光教本部日照神社",
        "prefectureName": "北海道",
        "cityName": "札幌市西区",
        "streetName": "西野十一条９丁目１８番３９号",
        "latitude": 43.06290835,
        "longitude": 141.25302314,
        "id": "5bbd69b4-0061-42bc-8f6b-b2268f5083b0"
    },
    {
        "name": "日高神社",
        "prefectureName": "北海道",
        "cityName": "沙流郡日高町",
        "streetName": "宮下町３丁目４３７番地１",
        "latitude": 42.4803074,
        "longitude": 142.0743778,
        "id": "064fcd91-44bc-4ad9-961d-280a4efb60be"
    },
    {
        "name": "早来神社",
        "prefectureName": "北海道",
        "cityName": "勇払郡安平町",
        "streetName": "早来大町１７３番地",
        "latitude": 42.76566159,
        "longitude": 141.81943365,
        "id": "e4df8d52-86a5-4db3-967d-e565a479d376"
    },
    {
        "name": "旭川神社",
        "prefectureName": "北海道",
        "cityName": "旭川市",
        "streetName": "東旭川南一条６丁目８番１４号",
        "latitude": 43.76908592,
        "longitude": 142.44251828,
        "id": "523da033-cbca-417c-ab81-ed374998c95c"
    },
    {
        "name": "昆布森神社",
        "prefectureName": "北海道",
        "cityName": "釧路郡釧路町",
        "streetName": "昆布森２丁目４番地",
        "latitude": 42.95377138,
        "longitude": 144.52537607,
        "id": "887a500b-681f-431e-ae0c-fb8d932edb02"
    },
    {
        "name": "明治神社",
        "prefectureName": "北海道",
        "cityName": "余市郡余市町",
        "streetName": "入舟町４２番地",
        "latitude": 43.19537082,
        "longitude": 140.78786633,
        "id": "557345e4-1222-4eeb-b6de-c512e1ea8a8d"
    },
    {
        "name": "星置神社",
        "prefectureName": "北海道",
        "cityName": "札幌市手稲区",
        "streetName": "星置南１丁目８番１号",
        "latitude": 43.13094044,
        "longitude": 141.19731505,
        "id": "8e180d35-8479-4b26-a7b1-e23e8c3f8c6a"
    },
    {
        "name": "星野稲荷神社",
        "prefectureName": "北海道",
        "cityName": "小樽市",
        "streetName": "星野町３１１番地",
        "latitude": 43.13061256,
        "longitude": 141.19366541,
        "id": "28de188b-4338-4669-bec9-f23f5ba49feb"
    },
    {
        "name": "晩生内神社",
        "prefectureName": "北海道",
        "cityName": "樺戸郡浦臼町",
        "streetName": "字晩生内３１番地",
        "latitude": 43.41204915,
        "longitude": 141.75780619,
        "id": "254d2365-c77b-45e5-838a-88e3871200fc"
    },
    {
        "name": "智恵文神社",
        "prefectureName": "北海道",
        "cityName": "名寄市",
        "streetName": "字智恵文十一線北３番地",
        "latitude": 44.3559376,
        "longitude": 142.4631669,
        "id": "eedd4adc-b102-495d-843a-2d59e47a6514"
    },
    {
        "name": "月寒神社",
        "prefectureName": "北海道",
        "cityName": "札幌市豊平区",
        "streetName": "月寒西三条４丁目１番５６号",
        "latitude": 43.03198846,
        "longitude": 141.38891076,
        "id": "b72c7540-c863-4970-a338-35066c6e7dc6"
    },
    {
        "name": "月山神社",
        "prefectureName": "北海道",
        "cityName": "伊達市",
        "streetName": "北黄金町７７番地",
        "latitude": 42.40554756,
        "longitude": 140.9082773,
        "id": "f03ea139-5a61-4860-9436-5b9ac569977e"
    },
    {
        "name": "月崎神社",
        "prefectureName": "北海道",
        "cityName": "松前郡福島町",
        "streetName": "字月崎２１１番地の２",
        "latitude": 41.4837661,
        "longitude": 140.2514674,
        "id": "2601052b-c224-450f-bec3-169ef9d8c4c6"
    },
    {
        "name": "朝里神社",
        "prefectureName": "北海道",
        "cityName": "小樽市",
        "streetName": "新光２丁目１３番５号",
        "latitude": 43.17290625,
        "longitude": 141.05702901,
        "id": "0e52fcaa-711d-44de-8367-e17e84ceb83c"
    },
    {
        "name": "本別神社",
        "prefectureName": "北海道",
        "cityName": "中川郡本別町",
        "streetName": "朝日町５番地１",
        "latitude": 43.12396462,
        "longitude": 143.61409965,
        "id": "235d4046-de38-46e1-b569-baee62d1b5b9"
    },
    {
        "name": "本別稲荷神社",
        "prefectureName": "北海道",
        "cityName": "茅部郡鹿部町",
        "streetName": "字本別２１０番地",
        "latitude": 42.05160506,
        "longitude": 140.80818605,
        "id": "40a3478c-5fd5-4999-b2c6-bd2c6c07cd6a"
    },
    {
        "name": "本桐神社",
        "prefectureName": "北海道",
        "cityName": "日高郡新ひだか町",
        "streetName": "三石本桐２９９番地",
        "latitude": 42.2594815,
        "longitude": 142.63890645,
        "id": "0d2c0f06-c9db-4595-be83-b0b4a3ae986c"
    },
    {
        "name": "本目神社",
        "prefectureName": "北海道",
        "cityName": "島牧郡島牧村",
        "streetName": "字本目１９２番地",
        "latitude": 42.7007616,
        "longitude": 140.0613846,
        "id": "94ca0ebc-a772-4901-a3cf-9046d7a69726"
    },
    {
        "name": "本茅部稲荷神社",
        "prefectureName": "北海道",
        "cityName": "茅部郡森町",
        "streetName": "字本茅部町１３５番地",
        "latitude": 42.1049778,
        "longitude": 140.5764202,
        "id": "d8f94a2b-1bf6-43a4-af9f-28479227f422"
    },
    {
        "name": "本輪西八幡神社",
        "prefectureName": "北海道",
        "cityName": "室蘭市",
        "streetName": "本輪西町３丁目２８番８号",
        "latitude": 42.36602497,
        "longitude": 140.98418717,
        "id": "95cc3fb8-5b0c-4e82-8a31-4cd8faf1d677"
    },
    {
        "name": "札内神社",
        "prefectureName": "北海道",
        "cityName": "中川郡幕別町",
        "streetName": "札内文京町２８番地",
        "latitude": 42.90943818,
        "longitude": 143.24235183,
        "id": "7ae7bc3a-8818-47c3-882a-291495b7901b"
    },
    {
        "name": "札幌南沢神社",
        "prefectureName": "北海道",
        "cityName": "札幌市南区",
        "streetName": "南沢三条４丁目７番１号",
        "latitude": 42.98348037,
        "longitude": 141.31326717,
        "id": "266f44aa-e704-479a-95a5-7a2e137a75c7"
    },
    {
        "name": "札幌村神社",
        "prefectureName": "北海道",
        "cityName": "札幌市東区",
        "streetName": "北十六条東１４丁目３番１号",
        "latitude": 43.0830656,
        "longitude": 141.37220379,
        "id": "91f023af-fa3b-48a3-8846-449f03812456"
    },
    {
        "name": "札幌祖霊神社",
        "prefectureName": "北海道",
        "cityName": "札幌市中央区",
        "streetName": "南五条西８丁目１番地２番地",
        "latitude": 43.0552816,
        "longitude": 141.3410776,
        "id": "32242be3-ada3-4c15-b0c9-537e1e92b51c"
    },
    {
        "name": "札幌藤野神社",
        "prefectureName": "北海道",
        "cityName": "札幌市南区",
        "streetName": "藤野二条１０丁目１２番２５号",
        "latitude": 42.96384257,
        "longitude": 141.28130046,
        "id": "71aafac2-6856-435d-9500-fba70a80f604"
    },
    {
        "name": "札幌護国神社",
        "prefectureName": "北海道",
        "cityName": "札幌市中央区",
        "streetName": "南十五条西５丁目１番地",
        "latitude": 43.04103923,
        "longitude": 141.35368287,
        "id": "f74e86ec-a392-4ace-bd5e-365fe4592c8f"
    },
    {
        "name": "札比内神社",
        "prefectureName": "北海道",
        "cityName": "樺戸郡月形町",
        "streetName": "字札比内９９９番地",
        "latitude": 43.3386468,
        "longitude": 141.6692537,
        "id": "ebdde5fd-e1cb-4008-b08f-ea21c135b9d8"
    },
    {
        "name": "材木沢神社",
        "prefectureName": "北海道",
        "cityName": "石狩郡当別町",
        "streetName": "字材木沢３２５２番地の４",
        "latitude": 43.2237265,
        "longitude": 141.5169803,
        "id": "e9b5ed29-d1f1-401c-9abb-2931266bf047"
    },
    {
        "name": "東前稲荷神社",
        "prefectureName": "北海道",
        "cityName": "北斗市",
        "streetName": "東浜２６番地の３",
        "latitude": 41.8241791,
        "longitude": 140.6530498,
        "id": "c472ac7c-2941-4742-adfb-903d68e55078"
    },
    {
        "name": "東士狩神社",
        "prefectureName": "北海道",
        "cityName": "河東郡音更町",
        "streetName": "字東士狩西７線６６番地",
        "latitude": 43.02711193,
        "longitude": 143.14560289,
        "id": "1751a9bd-a2ae-448c-9c93-683a6d6e5247"
    },
    {
        "name": "東小清水神社",
        "prefectureName": "北海道",
        "cityName": "斜里郡小清水町",
        "streetName": "字東野２５４番地",
        "latitude": 43.8568541,
        "longitude": 144.4620279,
        "id": "e43ac945-5c21-4590-8c78-4915d121ada7"
    },
    {
        "name": "東山神社",
        "prefectureName": "北海道",
        "cityName": "富良野市",
        "streetName": "字東山３号のホ",
        "latitude": 43.21580877,
        "longitude": 142.44244766,
        "id": "43f41b65-021a-4ecd-9642-76dc752cf0fe"
    },
    {
        "name": "東川神社",
        "prefectureName": "北海道",
        "cityName": "上川郡東川町",
        "streetName": "西町１丁目６番１号",
        "latitude": 43.6986878,
        "longitude": 142.50493636,
        "id": "1d1b9124-6b11-4588-bd5d-01c030d0d77a"
    },
    {
        "name": "東神楽神社",
        "prefectureName": "北海道",
        "cityName": "上川郡東神楽町",
        "streetName": "南一条東１丁目２番２号",
        "latitude": 43.69550099,
        "longitude": 142.45433658,
        "id": "3453d6c5-eb78-417a-bc80-eb7edcc0a64f"
    },
    {
        "name": "東神社",
        "prefectureName": "北海道",
        "cityName": "岩見沢市",
        "streetName": "東町二条５丁目１８４番地",
        "latitude": 43.22342178,
        "longitude": 141.7886245,
        "id": "3129a462-5315-4a44-bed4-af6d356fa35a"
    },
    {
        "name": "東米里八幡神社",
        "prefectureName": "北海道",
        "cityName": "札幌市白石区",
        "streetName": "東米里２０５９番地",
        "latitude": 43.08839296,
        "longitude": 141.45840719,
        "id": "2eb33afd-c36a-4d8c-97c6-966c45ec15ad"
    },
    {
        "name": "東藻琴神社",
        "prefectureName": "北海道",
        "cityName": "網走郡大空町",
        "streetName": "東藻琴２５番地",
        "latitude": 43.84210119,
        "longitude": 144.28357771,
        "id": "0e5079ca-543a-492a-9740-ca28a2b91a36"
    },
    {
        "name": "東開発稲荷神社",
        "prefectureName": "北海道",
        "cityName": "北斗市",
        "streetName": "開発３３９番地の１",
        "latitude": 41.8241791,
        "longitude": 140.6530498,
        "id": "17f725d8-a9a6-4820-b2d2-450f35f69c02"
    },
    {
        "name": "杵臼神社",
        "prefectureName": "北海道",
        "cityName": "浦河郡浦河町",
        "streetName": "字杵臼５２２番地",
        "latitude": 42.17962723,
        "longitude": 142.87321238,
        "id": "29957708-b614-4381-a32d-4d61b47f7e05"
    },
    {
        "name": "松前神社",
        "prefectureName": "北海道",
        "cityName": "松前郡松前町",
        "streetName": "字松城１４５番地",
        "latitude": 41.43087167,
        "longitude": 140.10757087,
        "id": "5ffd1219-929d-4ed8-b566-cac618917749"
    },
    {
        "name": "松前護国神社",
        "prefectureName": "北海道",
        "cityName": "松前郡松前町",
        "streetName": "字松城１４５番地",
        "latitude": 41.43087167,
        "longitude": 140.10757087,
        "id": "57791a36-376a-42b8-8fa0-be4e6b99eec9"
    },
    {
        "name": "柏木神社",
        "prefectureName": "北海道",
        "cityName": "恵庭市",
        "streetName": "柏木町３丁目２番１８号",
        "latitude": 42.89412745,
        "longitude": 141.56495989,
        "id": "8d51ba60-977f-4171-afa8-8199907d0af6"
    },
    {
        "name": "柏森神社",
        "prefectureName": "北海道",
        "cityName": "檜山郡江差町",
        "streetName": "字柏町２１６番地",
        "latitude": 41.8689113,
        "longitude": 140.1272576,
        "id": "99caad21-16fc-48df-971c-85f7829384a1"
    },
    {
        "name": "栗沢神社",
        "prefectureName": "北海道",
        "cityName": "岩見沢市",
        "streetName": "栗沢町幸穂１３番地",
        "latitude": 43.11883087,
        "longitude": 141.74063689,
        "id": "6f3ecd75-ddd6-4557-9bec-a0468c852593"
    },
    {
        "name": "根室出雲神社",
        "prefectureName": "北海道",
        "cityName": "根室市",
        "streetName": "定基町４丁目５番地",
        "latitude": 43.32932001,
        "longitude": 145.57449853,
        "id": "94a0752e-e3da-40f7-8201-542677c5fc6c"
    },
    {
        "name": "根崎神社",
        "prefectureName": "北海道",
        "cityName": "二海郡八雲町",
        "streetName": "熊石根崎町１１４番地",
        "latitude": 42.12889432,
        "longitude": 139.98240563,
        "id": "e8ea44f0-6b14-4dcc-be40-9ad9e474e53d"
    },
    {
        "name": "森三吉神社",
        "prefectureName": "北海道",
        "cityName": "茅部郡森町",
        "streetName": "字森川町７３番地４",
        "latitude": 42.10474747,
        "longitude": 140.58202797,
        "id": "ddde22cf-47d3-4c25-88fe-752746436a1c"
    },
    {
        "name": "森町稲荷神社",
        "prefectureName": "北海道",
        "cityName": "茅部郡森町",
        "streetName": "字御幸町１８２番地",
        "latitude": 42.1049778,
        "longitude": 140.5764202,
        "id": "9c4147a1-dddf-4204-85f2-83d98028e8f3"
    },
    {
        "name": "植苗神社",
        "prefectureName": "北海道",
        "cityName": "苫小牧市",
        "streetName": "字植苗１９０番地４",
        "latitude": 42.6340824,
        "longitude": 141.6055098,
        "id": "594353e9-92a4-40b8-be28-7239a8e6143b"
    },
    {
        "name": "標津神社",
        "prefectureName": "北海道",
        "cityName": "標津郡標津町",
        "streetName": "北一条西１丁目１番２号",
        "latitude": 43.66029512,
        "longitude": 145.13215731,
        "id": "63672c1b-a448-4680-83c3-dac59a2b2709"
    },
    {
        "name": "樺戸神社",
        "prefectureName": "北海道",
        "cityName": "樺戸郡月形町",
        "streetName": "１０３０番地",
        "latitude": 43.34161848,
        "longitude": 141.66508184,
        "id": "2e5db9b6-9d30-4d16-9911-48b56e1a472d"
    },
    {
        "name": "樽前山神社",
        "prefectureName": "北海道",
        "cityName": "苫小牧市",
        "streetName": "字高丘６番地４９",
        "latitude": 42.66099364,
        "longitude": 141.60443508,
        "id": "ab61ce6f-af0a-420c-ae8d-77c07f0128d5"
    },
    {
        "name": "樽川神社",
        "prefectureName": "北海道",
        "cityName": "石狩市",
        "streetName": "樽川３３２番地",
        "latitude": 43.1713839,
        "longitude": 141.3155224,
        "id": "774838c9-468b-44a9-a1a2-c7aee9ac4fe5"
    },
    {
        "name": "檜山護国神社",
        "prefectureName": "北海道",
        "cityName": "檜山郡江差町",
        "streetName": "字本町２１６番地",
        "latitude": 41.8689113,
        "longitude": 140.1272576,
        "id": "148848b3-6e6b-4b8a-a214-b7378b9ea7af"
    },
    {
        "name": "歌島神社",
        "prefectureName": "北海道",
        "cityName": "島牧郡島牧村",
        "streetName": "字歌島４８６番地",
        "latitude": 42.7007616,
        "longitude": 140.0613846,
        "id": "e7375858-e2be-444e-a398-a3c056b726e8"
    },
    {
        "name": "歌志内神社",
        "prefectureName": "北海道",
        "cityName": "歌志内市",
        "streetName": "字本町２１０番地",
        "latitude": 43.5233548,
        "longitude": 142.04273646,
        "id": "4df4f5f9-c2f7-4cb9-8607-bc1bb4c4ffee"
    },
    {
        "name": "歌登八幡神社",
        "prefectureName": "北海道",
        "cityName": "枝幸郡枝幸町",
        "streetName": "歌登東歌登６０９番地の４",
        "latitude": 44.83467169,
        "longitude": 142.48197047,
        "id": "49cdca47-9ad3-4161-9e10-18505a00c037"
    },
    {
        "name": "歌笛神社",
        "prefectureName": "北海道",
        "cityName": "日高郡新ひだか町",
        "streetName": "三石歌笛３３６番地の４",
        "latitude": 42.27302391,
        "longitude": 142.69077381,
        "id": "c215ce47-d9b7-464a-9981-0ebf9c26a673"
    },
    {
        "name": "正一位帯広秋葉神社",
        "prefectureName": "北海道",
        "cityName": "帯広市",
        "streetName": "川西町字八千代西二線１７５番地",
        "latitude": 42.84993042,
        "longitude": 143.16547337,
        "id": "e318c4e8-ce67-44a4-9ff4-ef29ca1de703"
    },
    {
        "name": "歯舞神社",
        "prefectureName": "北海道",
        "cityName": "根室市",
        "streetName": "歯舞３丁目８７番地",
        "latitude": 43.34036463,
        "longitude": 145.7514177,
        "id": "d9eb2f94-6033-4177-ada0-7712eb1597a8"
    },
    {
        "name": "母恋神社",
        "prefectureName": "北海道",
        "cityName": "室蘭市",
        "streetName": "母恋南町３丁目１番１号",
        "latitude": 42.31087886,
        "longitude": 140.99761441,
        "id": "3a85c788-f48a-4e48-9a50-fb8a38d56056"
    },
    {
        "name": "比布神社",
        "prefectureName": "北海道",
        "cityName": "上川郡比布町",
        "streetName": "新町４丁目２０番２号",
        "latitude": 43.87164838,
        "longitude": 142.48073429,
        "id": "5fa925f9-01cf-4087-bdbd-a54c27e9ff2f"
    },
    {
        "name": "比遅里神社",
        "prefectureName": "北海道",
        "cityName": "函館市",
        "streetName": "桔梗１丁目１番７号",
        "latitude": 41.82710629,
        "longitude": 140.73164641,
        "id": "2399f2ce-4d5e-4ccf-bacd-1b8f9587a737"
    },
    {
        "name": "氷川神社",
        "prefectureName": "北海道",
        "cityName": "新冠郡新冠町",
        "streetName": "字東町４番地１",
        "latitude": 42.3625747,
        "longitude": 142.3179235,
        "id": "e55a3008-fae5-4173-9d16-77f8fe294b9b"
    },
    {
        "name": "永山神社",
        "prefectureName": "北海道",
        "cityName": "旭川市",
        "streetName": "永山四条１８丁目２番１３号",
        "latitude": 43.80848663,
        "longitude": 142.43481479,
        "id": "a67038fd-073c-4d31-b52f-edfcaf5d6c39"
    },
    {
        "name": "汐首神社",
        "prefectureName": "北海道",
        "cityName": "函館市",
        "streetName": "汐首町３６２番地",
        "latitude": 41.7686738,
        "longitude": 140.728924,
        "id": "93f808e9-8915-47f3-8909-c058998135a2"
    },
    {
        "name": "江別神社",
        "prefectureName": "北海道",
        "cityName": "江別市",
        "streetName": "萩ケ岡１番地１",
        "latitude": 43.11082693,
        "longitude": 141.55424444,
        "id": "eed96f02-afab-4d5a-89cb-4d23bb590997"
    },
    {
        "name": "江南神社",
        "prefectureName": "北海道",
        "cityName": "札幌市北区",
        "streetName": "屯田七条６丁目２番２５号",
        "latitude": 43.13762647,
        "longitude": 141.33127585,
        "id": "4a67cf81-bd35-434b-a500-485b99ef6c6d"
    },
    {
        "name": "江部乙神社",
        "prefectureName": "北海道",
        "cityName": "滝川市",
        "streetName": "江部乙町東１２丁目１番２４号",
        "latitude": 43.62488375,
        "longitude": 141.94335214,
        "id": "e7f2959a-4e5e-43b1-ac7a-f07af588a286"
    },
    {
        "name": "池田神社",
        "prefectureName": "北海道",
        "cityName": "中川郡池田町",
        "streetName": "字旭町１丁目７番地の５",
        "latitude": 42.92700996,
        "longitude": 143.45441282,
        "id": "352c452c-fbf7-4d17-806e-70ff0b8707be"
    },
    {
        "name": "沙留神社",
        "prefectureName": "北海道",
        "cityName": "紋別郡興部町",
        "streetName": "字沙留３２７番地",
        "latitude": 44.43424459,
        "longitude": 143.22546619,
        "id": "5f4aa81f-f631-405a-be57-5a9287011626"
    },
    {
        "name": "沼田神社",
        "prefectureName": "北海道",
        "cityName": "雨竜郡沼田町",
        "streetName": "北一条５丁目１番７１号",
        "latitude": 43.81095691,
        "longitude": 141.9301682,
        "id": "2329d941-6c8c-429a-9679-08b1e0ba0114"
    },
    {
        "name": "沼貝神社",
        "prefectureName": "北海道",
        "cityName": "美唄市",
        "streetName": "字光珠内２２９３番地",
        "latitude": 43.3328809,
        "longitude": 141.8537839,
        "id": "7ca0b19d-bac9-482d-9ebb-ab411becb764"
    },
    {
        "name": "泊神社",
        "prefectureName": "北海道",
        "cityName": "檜山郡江差町",
        "streetName": "字田沢町３８１番地",
        "latitude": 41.8689113,
        "longitude": 140.1272576,
        "id": "a01ef30d-c5b3-4672-9fa2-6682aa3ec18b"
    },
    {
        "name": "泊稲荷神社",
        "prefectureName": "北海道",
        "cityName": "古宇郡泊村",
        "streetName": "大字泊村８２番地",
        "latitude": 43.0633544,
        "longitude": 140.498862,
        "id": "417b35c8-fc36-4bd3-ac5b-690a2a3de8bf"
    },
    {
        "name": "洞爺八幡神社",
        "prefectureName": "北海道",
        "cityName": "虻田郡洞爺湖町",
        "streetName": "洞爺町１番地",
        "latitude": 42.64526964,
        "longitude": 140.84627712,
        "id": "4e3d66ac-34a6-43f3-bf0c-e2893837cc79"
    },
    {
        "name": "津別神社",
        "prefectureName": "北海道",
        "cityName": "網走郡津別町",
        "streetName": "字西二条３０番地",
        "latitude": 43.7061421,
        "longitude": 144.02017955,
        "id": "d4703dc6-89f9-4804-a6de-1eb853855370"
    },
    {
        "name": "浅間神社",
        "prefectureName": "北海道",
        "cityName": "松前郡松前町",
        "streetName": "字静浦４１４番地",
        "latitude": 41.4300246,
        "longitude": 140.1100068,
        "id": "a7b05183-49b7-463b-9fbd-6128d8133d02"
    },
    {
        "name": "浜益神社",
        "prefectureName": "北海道",
        "cityName": "石狩市",
        "streetName": "浜益区浜益２２７番地",
        "latitude": 43.60182989,
        "longitude": 141.38356582,
        "id": "d0a82568-e980-4a1f-ab6e-16edd5e3a088"
    },
    {
        "name": "浜頓別神社",
        "prefectureName": "北海道",
        "cityName": "枝幸郡浜頓別町",
        "streetName": "北四条１丁目２０番地",
        "latitude": 45.13013121,
        "longitude": 142.35963053,
        "id": "a429d789-9fcb-4b01-ac9f-cbd61bf25bf1"
    },
    {
        "name": "浦幌神社",
        "prefectureName": "北海道",
        "cityName": "十勝郡浦幌町",
        "streetName": "字東山町１８番地１",
        "latitude": 42.80874349,
        "longitude": 143.66255596,
        "id": "f2273007-b222-4b26-8531-ac9f37bb14e2"
    },
    {
        "name": "浦河神社",
        "prefectureName": "北海道",
        "cityName": "浦河郡浦河町",
        "streetName": "大通２丁目２９番地",
        "latitude": 42.16327227,
        "longitude": 142.77517539,
        "id": "ea22d296-c505-425b-8997-264b30d6cbd9"
    },