[{"name":"七柱神社","prefectureName":"青森県","cityName":"平川市","streetName":"尾上栄松２６番地","latitude":40.61674046,"longitude":140.58205848,"id":"8a61e40a-7ac7-4637-baa4-10abf579dd54"},{"name":"三八城神社","prefectureName":"青森県","cityName":"八戸市","streetName":"内丸１丁目１番６９号","latitude":40.51396379,"longitude":141.48777055,"id":"d6e8d6d4-7f3d-4e8d-869b-5edbadda31ff"},{"name":"三島神社","prefectureName":"青森県","cityName":"八戸市","streetName":"大字白銀町字三島上１１番地１","latitude":40.52157497,"longitude":141.54292277,"id":"4bb77f66-0b16-4cfd-af34-0013ad5847fd"},{"name":"三島神社","prefectureName":"青森県","cityName":"むつ市","streetName":"川内町川代１０１番地","latitude":41.19275591,"longitude":141.06346453,"id":"a30f9b6a-6695-4e54-b175-cc84f7f1b99f"},{"name":"三嶋神社","prefectureName":"青森県","cityName":"黒石市","streetName":"大字三島字宮元１３２番地２","latitude":40.66890416,"longitude":140.62018394,"id":"cb726fa7-e140-4cd3-9586-d9ec4020771a"},{"name":"三嶽神社","prefectureName":"青森県","cityName":"三戸郡新郷村","streetName":"大字西越字林ノ前６２番地２号","latitude":40.43962709,"longitude":141.19778092,"id":"be4f1955-22de-4c93-8124-d3ced31278fb"},{"name":"三嶽神社","prefectureName":"青森県","cityName":"三戸郡三戸町","streetName":"大字豊川字下村中６９番１号","latitude":40.36710653,"longitude":141.22962311,"id":"6737cca9-0d0a-4d39-b9b7-ba1be9286d11"},{"name":"三嶽神社","prefectureName":"青森県","cityName":"三戸郡三戸町","streetName":"大字貝守字林ノ後６０番地","latitude":40.37965284,"longitude":141.1584306,"id":"3267c268-27db-46b8-9a29-10088aa4c7dd"},{"name":"三嶽神社","prefectureName":"青森県","cityName":"三戸郡新郷村","streetName":"大字戸来字三嶽下１５番地","latitude":40.46138975,"longitude":141.1607619,"id":"2b54f839-986a-4a0a-8023-57c8870d5f7a"},{"name":"三嶽神社","prefectureName":"青森県","cityName":"弘前市","streetName":"大字三岳町１２番地の１","latitude":40.57906551,"longitude":140.47812532,"id":"61e5f9b3-3c60-45b1-85ff-bf079aba6ae1"},{"name":"三新田神社","prefectureName":"青森県","cityName":"つがる市","streetName":"木造種取２番地","latitude":40.81068049,"longitude":140.38599164,"id":"f4b04b6e-7a52-46c4-8797-f6e2b89a707c"},{"name":"三日月神社","prefectureName":"青森県","cityName":"弘前市","streetName":"大字津賀野字宮崎１７４番地１号、１７４番地２号","latitude":40.64681317,"longitude":140.49118687,"id":"37723f82-3050-4384-904a-e1c66e5bb864"},{"name":"三柱神社","prefectureName":"青森県","cityName":"五所川原市","streetName":"金木町川倉林下９１番地","latitude":40.92696091,"longitude":140.44815376,"id":"5b104727-852e-4823-ad38-6f82ad976b60"},{"name":"三森神社","prefectureName":"青森県","cityName":"弘前市","streetName":"大字富榮字浅井名２５３番地","latitude":40.64557634,"longitude":140.428258,"id":"48291cc3-9aec-4dbb-aca7-d47afde960d0"},{"name":"三社神社","prefectureName":"青森県","cityName":"青森市","streetName":"大字前田字中野５番地","latitude":40.89746322,"longitude":140.66720389,"id":"91dedab8-bdeb-483a-8c97-85dc4e4928e4"},{"name":"三社神社","prefectureName":"青森県","cityName":"平川市","streetName":"日沼高田８９番地１号","latitude":40.61824908,"longitude":140.521058,"id":"eca45af3-70bb-4b3b-80a7-542694a46143"},{"name":"上北高山稲荷神社","prefectureName":"青森県","cityName":"上北郡東北町","streetName":"大字上野字山添１１６番地２号","latitude":40.72925359,"longitude":141.2641286,"id":"a9b07cb2-875d-46bf-bb1e-5f9b46940040"},{"name":"上小国小国神社","prefectureName":"青森県","cityName":"東津軽郡外ヶ浜町","streetName":"字蟹田小国谷田１９４番地２１","latitude":41.0431672,"longitude":140.6317871,"id":"0f4ce001-da89-46c7-9f37-c495f6dbdd60"},{"name":"下小国住吉神社","prefectureName":"青森県","cityName":"東津軽郡外ヶ浜町","streetName":"字蟹田小国山崎７９番地１","latitude":41.0431672,"longitude":140.6317871,"id":"1ae15e95-d0f7-43c8-b55d-0e4e9019e03e"},{"name":"中小国加茂神社","prefectureName":"青森県","cityName":"東津軽郡外ヶ浜町","streetName":"字蟹田小国岩井７５番地","latitude":41.05113471,"longitude":140.59009289,"id":"a4d6aa2f-d0e5-4d76-860e-e0434f3bce8d"},{"name":"中師稲荷神社","prefectureName":"青森県","cityName":"東津軽郡外ヶ浜町","streetName":"字蟹田中師宮本６１番地","latitude":41.04898077,"longitude":140.64303879,"id":"fe98adb3-847d-42f2-b6ce-a681208c58bb"},{"name":"中野神社","prefectureName":"青森県","cityName":"東津軽郡平内町","streetName":"大字中野字稗田沢９９番地２","latitude":40.9265918,"longitude":140.89066413,"id":"42670098-756b-440e-badc-bda1b161b7a0"},{"name":"中野神社","prefectureName":"青森県","cityName":"黒石市","streetName":"大字南中野字不動館２６番地","latitude":40.6426345,"longitude":140.5946479,"id":"22eacd05-1d59-4129-8232-64d7e21cc861"},{"name":"久斯神社","prefectureName":"青森県","cityName":"東津軽郡平内町","streetName":"大字薬師野字家岸３８番地３","latitude":40.91783074,"longitude":141.0133039,"id":"a6ada388-81fe-46bb-8033-5a6db5f78cb3"},{"name":"久須志神社","prefectureName":"青森県","cityName":"西津軽郡鰺ヶ沢町","streetName":"大字姥袋町字霜坂熊ケ沢６０番地","latitude":40.7797456,"longitude":140.2082837,"id":"5aac97bb-b9be-403e-b334-708100386bde"},{"name":"久須志神社","prefectureName":"青森県","cityName":"南津軽郡大鰐町","streetName":"大字早瀬野字扇沢６７番地","latitude":40.4791361,"longitude":140.55283839,"id":"f1331639-ff72-4f87-b824-70e0653800c5"},{"name":"久須志神社","prefectureName":"青森県","cityName":"南津軽郡大鰐町","streetName":"大字島田字ゾベコ沢５４番地","latitude":40.47315407,"longitude":140.57713657,"id":"56e2834d-c4b6-462d-93ef-573085a69108"},{"name":"久須志神社","prefectureName":"青森県","cityName":"青森市","streetName":"久須志２丁目２番２号","latitude":40.8198573,"longitude":140.73027963,"id":"743c20e9-db93-4a64-8cb9-4dc61a502df3"},{"name":"久須志神社","prefectureName":"青森県","cityName":"青森市","streetName":"大字沢山字平野１３０番地１１号","latitude":40.78672184,"longitude":140.82678377,"id":"554002f0-2a50-454b-8308-575aa2ded043"},{"name":"久須志神社","prefectureName":"青森県","cityName":"つがる市","streetName":"森田町森田月見野１２２番２","latitude":40.77857726,"longitude":140.34936498,"id":"dd73843d-8567-4073-acde-e8d3800333e4"},{"name":"久須志神社","prefectureName":"青森県","cityName":"西津軽郡鰺ヶ沢町","streetName":"大字一ッ森町字上禿７６番地１号","latitude":40.7797456,"longitude":140.2082837,"id":"cac7f567-ac09-4625-a4da-94d3868715cb"},{"name":"久須志神社","prefectureName":"青森県","cityName":"西津軽郡鰺ヶ沢町","streetName":"大字中村町字中山ノ井２４４番地","latitude":40.7797456,"longitude":140.2082837,"id":"4b1e29be-4ef1-4533-8ea8-e6c450b89314"},{"name":"乳井神社","prefectureName":"青森県","cityName":"弘前市","streetName":"大字乳井字外ノ沢６７番地の３","latitude":40.54834741,"longitude":140.5649181,"id":"db31e0cc-fa16-4b6f-9a4c-f4525ec354d0"},{"name":"事代主神社","prefectureName":"青森県","cityName":"青森市","streetName":"青柳１丁目１６番２２号","latitude":40.83047607,"longitude":140.75951357,"id":"f083e57e-ba78-4f41-a3e3-bda70d18a7f1"},{"name":"二子石稲荷神社","prefectureName":"青森県","cityName":"八戸市","streetName":"大字鮫町字二見町４番地１","latitude":40.52772713,"longitude":141.55396296,"id":"04022d5e-1963-4996-a650-5585e95c7648"},{"name":"二柱神社","prefectureName":"青森県","cityName":"つがる市","streetName":"稲垣町沼館友開２３番地","latitude":40.87661174,"longitude":140.3854501,"id":"1ac11d19-2036-4265-9cba-42d9f33c1090"},{"name":"五所神社","prefectureName":"青森県","cityName":"弘前市","streetName":"大字五所字野沢７９番地","latitude":40.58232939,"longitude":140.39647539,"id":"95c58bcb-f02e-471a-a492-adf0851ec44a"},{"name":"五林神社","prefectureName":"青森県","cityName":"北津軽郡中泊町","streetName":"大字中里字亀山７８１番地","latitude":40.96263663,"longitude":140.43363697,"id":"8588762d-e2d4-4e8d-857e-0f776d08daae"},{"name":"今熊神社","prefectureName":"青森県","cityName":"上北郡六戸町","streetName":"大字折茂字今熊２４１番地","latitude":40.61896827,"longitude":141.27513342,"id":"02440861-7daf-4cbe-94f8-f113746418f2"},{"name":"伏見神社","prefectureName":"青森県","cityName":"黒石市","streetName":"大字二双子字村元１０７番地","latitude":40.67792486,"longitude":140.60484032,"id":"a5cadb43-ddc6-47b3-b2f0-a845e6f4aad8"},{"name":"住吉神社","prefectureName":"青森県","cityName":"黒石市","streetName":"住吉町４４番地","latitude":40.65323024,"longitude":140.59576415,"id":"a59340ed-36ba-4369-a2ee-7e4faf923409"},{"name":"保食神社","prefectureName":"青森県","cityName":"南津軽郡藤崎町","streetName":"大字水沼字浅田８７番地","latitude":40.66697549,"longitude":140.50274905,"id":"8cb972ec-6755-4b1f-bcb2-8db160bcc6c0"},{"name":"保食神社","prefectureName":"青森県","cityName":"平川市","streetName":"大光寺四滝本６２番地","latitude":40.5942812,"longitude":140.55431737,"id":"9ca7d44b-a64c-4d97-acba-589b268e7ec1"},{"name":"保食神社","prefectureName":"青森県","cityName":"平川市","streetName":"李平上安原６９番地","latitude":40.61453546,"longitude":140.59462161,"id":"72466d36-92f9-4296-adbf-656e2c86bca7"},{"name":"保食神社","prefectureName":"青森県","cityName":"黒石市","streetName":"大字元町６４番地","latitude":40.64680581,"longitude":140.58352086,"id":"a2009d58-bc4e-42e4-8283-28c0371f2c8b"},{"name":"保食神社","prefectureName":"青森県","cityName":"五所川原市","streetName":"太田山の井２８９番地","latitude":41.05319582,"longitude":140.40177491,"id":"be2e6797-65f5-4e81-93a4-486a25977a66"},{"name":"保食神社","prefectureName":"青森県","cityName":"青森市","streetName":"大字鶴ケ坂字山本２番地","latitude":40.7848785,"longitude":140.62977567,"id":"a534de1e-9f6f-4d29-9037-ff0504c6155d"},{"name":"保食神社","prefectureName":"青森県","cityName":"南津軽郡藤崎町","streetName":"大字藤崎字銅屋森６２番地２","latitude":40.65557891,"longitude":140.48989204,"id":"715159be-9a28-445e-8706-50c1f804377b"},{"name":"保食神社","prefectureName":"青森県","cityName":"五所川原市","streetName":"金木町藤枝東田７８番地","latitude":40.90289446,"longitude":140.4570373,"id":"45aeffb6-a029-4807-ab07-0f2e854b8f9a"},{"name":"光主神社","prefectureName":"青森県","cityName":"むつ市","streetName":"大畑町正津川高待１０番地２号","latitude":41.38816378,"longitude":141.18695901,"id":"a9e18e85-994a-4ca2-a087-c51309f25a6a"},{"name":"兩皇神社","prefectureName":"青森県","cityName":"下北郡東通村","streetName":"大字白糠字家ノ上４５番地","latitude":41.16280108,"longitude":141.38252325,"id":"4b6ecc3c-2708-402d-80f8-0594dc2d78db"},{"name":"八代羽黒神社","prefectureName":"青森県","cityName":"弘前市","streetName":"大字八代町１０番地３１","latitude":40.63190907,"longitude":140.45399534,"id":"bed55b04-2db8-489a-aa77-0e9bc55ce364"},{"name":"八剣金毘羅神社","prefectureName":"青森県","cityName":"三戸郡三戸町","streetName":"大字梅内字舘８７番地","latitude":40.37277662,"longitude":141.28275314,"id":"ea0fdbab-164b-4510-9507-b7ca6bc1e94a"},{"name":"八坂神社","prefectureName":"青森県","cityName":"三戸郡田子町","streetName":"大字田子字田子上ノ平３番地１号","latitude":40.3399606,"longitude":141.1520527,"id":"b21d3d72-de54-4c9a-9b76-71df8ead0366"},{"name":"八坂神社","prefectureName":"青森県","cityName":"南津軽郡藤崎町","streetName":"大字福島字林元９６番地","latitude":40.67750427,"longitude":140.55850523,"id":"e0c47d53-ab5f-4dcd-8c98-6811a3a27d82"},{"name":"八坂神社","prefectureName":"青森県","cityName":"三戸郡南部町","streetName":"大字下名久井字鍛治長根２番地","latitude":40.4668228,"longitude":141.3818154,"id":"1406d533-fd1c-4ae9-9003-465b2b88bc3c"},{"name":"八坂神社","prefectureName":"青森県","cityName":"北津軽郡板柳町","streetName":"大字夕顔関字長田３４番地２号","latitude":40.6958961,"longitude":140.4573237,"id":"784acebd-7ccc-4841-a557-b08dde56fc37"},{"name":"八坂神社","prefectureName":"青森県","cityName":"弘前市","streetName":"大字銅屋町８０番地","latitude":40.59698286,"longitude":140.46827187,"id":"64fc22a6-685e-405d-953d-b52df8eedb8d"},{"name":"八坂神社","prefectureName":"青森県","cityName":"青森市","streetName":"大字三本木字川崎８４番地","latitude":40.83317276,"longitude":140.84146097,"id":"06836dee-5ca6-4a6a-9205-a8484fc2ff9d"},{"name":"八坂神社","prefectureName":"青森県","cityName":"平川市","streetName":"本町富岡６７番地","latitude":40.58669311,"longitude":140.5551955,"id":"cfb41787-f5e0-4281-90c3-8e24b2ab794d"},{"name":"八坂神社","prefectureName":"青森県","cityName":"八戸市","streetName":"大字湊町字舘鼻２０番地","latitude":40.52582968,"longitude":141.52317775,"id":"a754bde1-75cc-40c6-823b-7974a71c9a44"},{"name":"八幡神社","prefectureName":"青森県","cityName":"青森市","streetName":"大字原別字下海原１１７番地３号","latitude":40.83722666,"longitude":140.81321643,"id":"8090c797-dab3-464a-bf4b-c07adfa98d68"},{"name":"八幡神社","prefectureName":"青森県","cityName":"十和田市","streetName":"大字切田字下切田１０番地","latitude":40.58072019,"longitude":141.20651947,"id":"eb0d7c3c-4632-464d-b499-1d93b1e2c23c"},{"name":"八幡神社","prefectureName":"青森県","cityName":"上北郡横浜町","streetName":"字茅平１番地","latitude":41.1023813,"longitude":141.25055635,"id":"44184206-c14b-4a58-9aea-c75606487e3e"},{"name":"八幡神社","prefectureName":"青森県","cityName":"上北郡七戸町","streetName":"字和田下１番地","latitude":40.69133281,"longitude":141.14540184,"id":"869cbcab-b80b-4189-b633-0cbbf46f68b5"},{"name":"八甲田神社","prefectureName":"青森県","cityName":"青森市","streetName":"大字幸畑字阿部野１６３番７９","latitude":40.78155468,"longitude":140.79037331,"id":"f3c57f22-369b-47c0-823e-c72411a221ce"},{"name":"兵主神社","prefectureName":"青森県","cityName":"むつ市","streetName":"大湊上町２８番１号","latitude":41.27039159,"longitude":141.15462847,"id":"a5d8c98e-9608-49f1-8975-847daacd18e0"},{"name":"冨士神社","prefectureName":"青森県","cityName":"南津軽郡藤崎町","streetName":"大字藤崎字中村井３４番地１","latitude":40.652135,"longitude":140.49929437,"id":"7074543a-fd1b-4990-89c7-57220e98afdd"},{"name":"別雷神社","prefectureName":"青森県","cityName":"八戸市","streetName":"大字新井田字岩淵３４番地","latitude":40.51481716,"longitude":141.52314733,"id":"84c872e8-a12d-48ac-82ed-ff70866790e7"},{"name":"加茂神社","prefectureName":"青森県","cityName":"西津軽郡深浦町","streetName":"大字柳田字桜田８５番地","latitude":40.74955718,"longitude":140.14424251,"id":"b2b4b66b-a7b2-421c-b56a-8d97dcb9227b"},{"name":"加茂神社","prefectureName":"青森県","cityName":"弘前市","streetName":"大字原ケ平５丁目３番地１","latitude":40.56568642,"longitude":140.47178444,"id":"aa045a14-0046-42ea-aefc-7cddce517b8d"},{"name":"加茂神社","prefectureName":"青森県","cityName":"青森市","streetName":"浪岡大字杉沢字上福田５８番地","latitude":40.71108447,"longitude":140.58940712,"id":"5169a46d-53d0-4a73-8d25-3601eb5bc096"},{"name":"加茂神社","prefectureName":"青森県","cityName":"北津軽郡中泊町","streetName":"大字豊岡字緑川３番地","latitude":40.938869,"longitude":140.41697823,"id":"d41980a2-1bb3-4922-b40b-8a381c92e48e"},{"name":"加茂神社","prefectureName":"青森県","cityName":"青森市","streetName":"浪岡大字五本松字松本１６番地","latitude":40.72052852,"longitude":140.61127183,"id":"6fccb843-19df-488b-81f8-49cf78c122b3"},{"name":"加茂神社","prefectureName":"青森県","cityName":"弘前市","streetName":"大字小友字宇田野４５８番地","latitude":40.7106297,"longitude":140.40666036,"id":"2bfcf28f-ac72-46d1-a2bb-e09b217ccd42"},{"name":"加茂神社","prefectureName":"青森県","cityName":"青森市","streetName":"浪岡大字女鹿沢字平野１６０番地","latitude":40.70812312,"longitude":140.57408891,"id":"9bb65df6-f383-46b1-84bc-a57736113de1"},{"name":"加茂神社","prefectureName":"青森県","cityName":"弘前市","streetName":"大字高杉字山下１３１番地","latitude":40.66204625,"longitude":140.42317421,"id":"2ab15969-8d14-4151-931d-4770bf8a11fb"},{"name":"勝田稲荷神社","prefectureName":"青森県","cityName":"青森市","streetName":"勝田１丁目３番２１号","latitude":40.81491379,"longitude":140.75351185,"id":"88a26ce8-3d7d-4f16-b33a-a283bd5b79f5"},{"name":"十二神社","prefectureName":"青森県","cityName":"三戸郡南部町","streetName":"大字赤石字待場３７番地","latitude":40.41093336,"longitude":141.29475307,"id":"33e39c0e-d27a-4e8e-b013-0ae32896c32c"},{"name":"十和田神社","prefectureName":"青森県","cityName":"十和田市","streetName":"大字奥瀬字十和田１４番地","latitude":40.6127025,"longitude":141.2059076,"id":"647d360a-7afc-4870-8708-dd896f24f384"},{"name":"千曳神社","prefectureName":"青森県","cityName":"上北郡七戸町","streetName":"字菩提木５６番地","latitude":40.79582077,"longitude":141.14171623,"id":"173ac951-6ee8-4e87-bb46-da2c5a16125c"},{"name":"南神社","prefectureName":"青森県","cityName":"黒石市","streetName":"大字追子野木字川原田１０２番１号","latitude":40.6426345,"longitude":140.5946479,"id":"0bd246f5-183f-49c5-8691-25cfcd3094e0"},{"name":"和泉稲荷神社","prefectureName":"青森県","cityName":"南津軽郡田舎館村","streetName":"大字和泉字岡本３２番地４","latitude":40.64862239,"longitude":140.52408679,"id":"b08d56b6-178c-40ba-985e-e83cdd3ae7c7"},{"name":"善知鳥神社","prefectureName":"青森県","cityName":"青森市","streetName":"安方２丁目７番１８号","latitude":40.82640955,"longitude":140.74313981,"id":"7e206dac-a8c7-47db-842d-3603e97499c3"},{"name":"嚴嶋神社","prefectureName":"青森県","cityName":"八戸市","streetName":"大字鮫町字大作平４５番地","latitude":40.5122834,"longitude":141.4883983,"id":"42ad460e-8f58-4564-ae26-1e6d5f767fab"},{"name":"嚴嶋神社","prefectureName":"青森県","cityName":"三戸郡南部町","streetName":"大字福田字古舘３２番地","latitude":40.45575449,"longitude":141.36799455,"id":"ddab90e1-d6f8-46ff-b23a-8ca2efeb438d"},{"name":"四所神社","prefectureName":"青森県","cityName":"つがる市","streetName":"木造出来島雉子森石沢２番地","latitude":40.84826778,"longitude":140.28504946,"id":"b3fa5361-c60e-4b92-89e8-4a667c3a4273"},{"name":"塩越稲荷神社","prefectureName":"青森県","cityName":"東津軽郡外ヶ浜町","streetName":"字蟹田塩越２１０番地","latitude":41.06978111,"longitude":140.63633023,"id":"42ee1c3b-fa97-4343-bde2-484d8460e41e"},{"name":"塩釜神社","prefectureName":"青森県","cityName":"東津軽郡平内町","streetName":"大字茂浦字茂浦４３番地","latitude":40.94688596,"longitude":140.86881187,"id":"2071bae6-e7a3-411b-bd94-c9db0254b60f"},{"name":"塩釜神社","prefectureName":"青森県","cityName":"八戸市","streetName":"大字鮫町字塩釜３番地","latitude":40.5122834,"longitude":141.4883983,"id":"a24ef04c-44e3-45ff-a7a2-68d4494bdc17"},{"name":"塩釜神社","prefectureName":"青森県","cityName":"むつ市","streetName":"大畑町釣屋浜１５番地２","latitude":41.42119853,"longitude":141.15073491,"id":"91207db1-4b61-41a0-a43e-ded1b51536a5"},{"name":"外黒山稲荷神社","prefectureName":"青森県","cityName":"東津軽郡外ヶ浜町","streetName":"字蟹田外黒山８２番地","latitude":41.04102239,"longitude":140.60809741,"id":"3ff29fea-4169-47c6-8678-2bdd7db9250a"},{"name":"多賀神社","prefectureName":"青森県","cityName":"弘前市","streetName":"大字桜庭字外山９４８番地","latitude":40.59217648,"longitude":140.33454722,"id":"94c05177-1d1f-49fe-87c6-693dccd28d01"},{"name":"大寳神社","prefectureName":"青森県","cityName":"西津軽郡深浦町","streetName":"大字追良瀬字相野山１４８番地","latitude":40.68110835,"longitude":139.97453869,"id":"b0bfc2aa-b068-4a44-9b82-3b532127e63f"},{"name":"大山祇神社","prefectureName":"青森県","cityName":"平川市","streetName":"碇ヶ関２番地","latitude":40.47400812,"longitude":140.62650115,"id":"939ca24a-1e7b-4340-81ba-ecb580388597"},{"name":"大山祇神社","prefectureName":"青森県","cityName":"西津軽郡鰺ヶ沢町","streetName":"大字鬼袋町字大柳７２番地","latitude":40.69599874,"longitude":140.15879279,"id":"a6de37f1-596f-4b54-b659-1a9726224658"},{"name":"大山祇神社","prefectureName":"青森県","cityName":"つがる市","streetName":"木造吹原若草１６５番地","latitude":40.82669573,"longitude":140.30730098,"id":"514f34f5-7443-4db8-b83b-c41b69ac32c2"},{"name":"大山祇神社","prefectureName":"青森県","cityName":"青森市","streetName":"大字滝沢字住吉２１２番の２","latitude":40.82645231,"longitude":140.86868362,"id":"3cc11a16-b4a3-4aaa-833a-e733335f5dca"},{"name":"大山祇神社","prefectureName":"青森県","cityName":"青森市","streetName":"大字内真部字岸田７番１号","latitude":40.90835099,"longitude":140.67006142,"id":"f1ad8a6c-135c-45b6-8311-bc7e6b7705ec"},{"name":"大山祇神社","prefectureName":"青森県","cityName":"黒石市","streetName":"大字牡丹平字牡丹平１３番地","latitude":40.63233103,"longitude":140.62627113,"id":"d1321b39-a38e-4afd-961b-71f24e186437"},{"name":"大山祇神社","prefectureName":"青森県","cityName":"五所川原市","streetName":"大字松野木字中子３４番地","latitude":40.80053748,"longitude":140.51443431,"id":"505461f6-b496-463d-8efc-8609cd7fc5c2"},{"name":"大山祗神社","prefectureName":"青森県","cityName":"むつ市","streetName":"大畑町高橋川３１番地","latitude":41.396397,"longitude":141.13288243,"id":"d72f2fb1-6345-4ff4-bd22-192824e9f0d3"},{"name":"大山祗神社","prefectureName":"青森県","cityName":"平川市","streetName":"葛川砂子沢番地不詳","latitude":40.5841049,"longitude":140.5664835,"id":"8b90c6b8-1e31-49dc-89c3-7440e1e7d50d"},{"name":"大山祗神社","prefectureName":"青森県","cityName":"むつ市","streetName":"川内町家ノ辺３６番地９","latitude":41.19769791,"longitude":140.99459142,"id":"c279a14f-e8d6-48a1-a4b0-5314fe6fbb18"},{"name":"大山祗神社","prefectureName":"青森県","cityName":"平川市","streetName":"切明坂本８２番地","latitude":40.50995485,"longitude":140.7379833,"id":"c70135a4-e192-46a4-960b-8d33680c39b5"},{"name":"大山祗神社","prefectureName":"青森県","cityName":"つがる市","streetName":"車力町屏風山５３０番地２","latitude":40.94887148,"longitude":140.35963009,"id":"f9a7bd56-dda3-4c9f-9a6b-dd054d93b838"},{"name":"大山＿神社","prefectureName":"青森県","cityName":"むつ市","streetName":"脇野沢源藤城２５番地","latitude":41.18064768,"longitude":140.80074582,"id":"723df8d2-f7ff-466f-a4b9-6f3936a4eeea"},{"name":"大山＿神社","prefectureName":"青森県","cityName":"むつ市","streetName":"大畑町小目名村７番地","latitude":41.39131921,"longitude":141.12275323,"id":"ab42549d-4c2f-4c2e-a265-f9e7ea893d0f"},{"name":"大山＿神社","prefectureName":"青森県","cityName":"平川市","streetName":"碇ヶ関久吉蕷ヶ平１５６番地","latitude":40.44428129,"longitude":140.65351661,"id":"be3c5a96-360a-4436-8d40-062ff584724a"},{"name":"大山＿神社","prefectureName":"青森県","cityName":"弘前市","streetName":"大字水木在家字櫻井１８８番地","latitude":40.56954166,"longitude":140.38103861,"id":"0812d9da-63f0-4672-ab42-c7ab89d110f2"},{"name":"大已貴神社","prefectureName":"青森県","cityName":"むつ市","streetName":"大字関根字安畑４９番地１５","latitude":41.3819538,"longitude":141.1970641,"id":"26bbec2d-f1c5-4f28-a93f-9d038d2d8116"},{"name":"大日孁神社","prefectureName":"青森県","cityName":"つがる市","streetName":"稲垣町吉出高崎３３番地","latitude":40.86546571,"longitude":140.38513395,"id":"34960d6f-361c-431d-a26b-9accc9faba36"},{"name":"大星神社","prefectureName":"青森県","cityName":"青森市","streetName":"問屋町１丁目１８番２８号","latitude":40.79042766,"longitude":140.75464257,"id":"b0171ab5-c951-4bbb-8c2d-5aed4c234fbc"},{"name":"大池神社","prefectureName":"青森県","cityName":"十和田市","streetName":"大字相坂字相坂１１５番地１号","latitude":40.59273076,"longitude":141.24212917,"id":"2acac348-1c6c-4824-bb9a-6d5ecc371d0a"},{"name":"大石神社","prefectureName":"青森県","cityName":"下北郡風間浦村","streetName":"大字易国間字家ノ上１３番地","latitude":41.48696605,"longitude":140.99702908,"id":"a56bc8f0-1f90-46e3-8547-5da0ce5762ba"},{"name":"大石神社","prefectureName":"青森県","cityName":"弘前市","streetName":"大字大森字勝山２８９番地１","latitude":40.69524868,"longitude":140.33619673,"id":"9c2c79a9-a3df-4c6a-a0e3-b237524b5a6e"},{"name":"大石神社","prefectureName":"青森県","cityName":"青森市","streetName":"浪岡大字長沼字北藤巻５５番地","latitude":40.75044168,"longitude":140.59407504,"id":"0a5ed76c-67b5-432c-8aee-7178ba969e5a"},{"name":"大石神社","prefectureName":"青森県","cityName":"西津軽郡鰺ヶ沢町","streetName":"大字中村町字上清水崎１０７番地２７号","latitude":40.7797456,"longitude":140.2082837,"id":"b2dc5c86-44b9-486c-8c51-d55e041c38d7"},{"name":"大祐神社","prefectureName":"青森県","cityName":"八戸市","streetName":"大字鮫町字堀込２２番地","latitude":40.51707369,"longitude":141.59145122,"id":"f4112663-95c3-4891-9ace-e75deaaf5a8c"},{"name":"大谷稲荷神社","prefectureName":"青森県","cityName":"青森市","streetName":"大字大谷字山ノ内６番地４０４","latitude":40.74515319,"longitude":140.70120486,"id":"c3eb8826-9e34-4bc5-9e73-baebed2ad0e9"},{"name":"天狗山神社","prefectureName":"青森県","cityName":"八戸市","streetName":"大字是川字雲畑１１番地１７","latitude":40.46271124,"longitude":141.47165764,"id":"5e7fffb3-f599-4908-9881-f5b8691e44ff"},{"name":"天間舘神社","prefectureName":"青森県","cityName":"上北郡七戸町","streetName":"字小田平４１番地","latitude":40.73846426,"longitude":141.18826872,"id":"13567702-3e09-4308-9627-3382fa642c9e"},{"name":"奥富士出雲神社","prefectureName":"青森県","cityName":"弘前市","streetName":"大字百沢字寺沢１９０番地","latitude":40.61995413,"longitude":140.34205316,"id":"354007a8-f4aa-44df-9377-9419ccd21c33"},{"name":"妙見神社","prefectureName":"青森県","cityName":"むつ市","streetName":"大畑町関根橋６番地","latitude":41.3800544,"longitude":141.1461904,"id":"76d8730e-a3fe-4586-a9a3-887ce8c58240"},{"name":"妙見神社","prefectureName":"青森県","cityName":"むつ市","streetName":"大字田名部字斗南ヶ丘３０番地１","latitude":41.29197492,"longitude":141.24783519,"id":"12b28aa9-827d-4886-8106-e85058ae6a93"},{"name":"子守神社","prefectureName":"青森県","cityName":"東津軽郡平内町","streetName":"大字内童子字観音４３番地","latitude":40.88647623,"longitude":140.95943732,"id":"d20a311c-5706-4533-af83-d2b59b8bf087"},{"name":"宇賀神社","prefectureName":"青森県","cityName":"つがる市","streetName":"木造善積萩田１８番地","latitude":40.85522745,"longitude":140.36975253,"id":"ddb0258a-3862-4327-adc4-4489a1dfc870"},{"name":"宗像神社","prefectureName":"青森県","cityName":"つがる市","streetName":"下牛潟町靏舞岬７８番地","latitude":40.8086306,"longitude":140.3799589,"id":"27a908e9-8618-4636-b5da-644582796471"},{"name":"富岳神社","prefectureName":"青森県","cityName":"弘前市","streetName":"大字境関字富岳１０４番地","latitude":40.61792086,"longitude":140.51085631,"id":"4a790d09-0f05-4b8a-9f92-b63d11ad3207"},{"name":"小栗山神社","prefectureName":"青森県","cityName":"弘前市","streetName":"大字小栗山字沢部２１７番地","latitude":40.55699879,"longitude":140.47886474,"id":"4a3292bd-fa07-45a3-bfa4-720dbddd2eda"},{"name":"小金山神社","prefectureName":"青森県","cityName":"青森市","streetName":"大字入内字駒田１１６番４","latitude":40.7294384,"longitude":140.71520992,"id":"05e73804-7650-4a26-b9e5-090bc0e95df2"},{"name":"少名彦神社","prefectureName":"青森県","cityName":"黒石市","streetName":"大字板留字宮下１９番地","latitude":40.60588865,"longitude":140.68393451,"id":"dc5f2963-175f-4a02-8701-9a8cc41b47f8"},{"name":"少彦名神社","prefectureName":"青森県","cityName":"弘前市","streetName":"大字船水３丁目１１番地１","latitude":40.63245915,"longitude":140.46289746,"id":"48aaeabe-613d-4331-8660-31783aa7d56f"},{"name":"少彦名神社","prefectureName":"青森県","cityName":"むつ市","streetName":"川内町銀杏平３６番地","latitude":41.24139589,"longitude":140.99298938,"id":"ccdf6fe4-6505-4db1-b285-6c238b7d66ad"},{"name":"少彦名神社","prefectureName":"青森県","cityName":"三戸郡五戸町","streetName":"大字手倉橋字薬師沢５３番地","latitude":40.43581002,"longitude":141.27144075,"id":"29cf6810-d3bd-4136-bc57-909a302ec415"},{"name":"尾崎神社","prefectureName":"青森県","cityName":"北津軽郡中泊町","streetName":"大字小泊字尾崎道９３番地","latitude":40.9604396,"longitude":140.434301,"id":"c4bac28a-088c-480b-b148-a30eda10b34b"},{"name":"山崎神社","prefectureName":"青森県","cityName":"東津軽郡平内町","streetName":"大字山口字小沢１１２番地２","latitude":40.91482994,"longitude":140.91337115,"id":"bd5120b4-c15c-4a8b-b2b2-63979bdc512c"},{"name":"山本稲荷神社","prefectureName":"青森県","cityName":"東津軽郡外ヶ浜町","streetName":"字蟹田山本紅葉坂１８番地","latitude":41.06493255,"longitude":140.56431919,"id":"87abea07-d50d-4649-9486-a0a47b2fdeae"},{"name":"山祇神社","prefectureName":"青森県","cityName":"東津軽郡平内町","streetName":"大字東田沢字野内畑２２番地","latitude":40.98052291,"longitude":140.90694354,"id":"edda2ab8-6edb-4799-b8ee-d38df47c0eb4"},{"name":"山祇神社","prefectureName":"青森県","cityName":"黒石市","streetName":"大字花巻字花巻３９番地１","latitude":40.61937241,"longitude":140.65283645,"id":"9c82e343-84fa-41e1-ab49-6838888c03fa"},{"name":"山神社","prefectureName":"青森県","cityName":"つがる市","streetName":"木造筒木坂松本１１０番地","latitude":40.90147068,"longitude":140.33771505,"id":"ad91fe8a-f1b8-46a9-a0bb-a88a13648f8b"},{"name":"山神社","prefectureName":"青森県","cityName":"平川市","streetName":"金屋上早稲田１６７番地","latitude":40.60365134,"longitude":140.61686222,"id":"fd8af41c-92da-493b-8c37-565f2d386bf7"},{"name":"山神社","prefectureName":"青森県","cityName":"青森市","streetName":"浪岡大字樽沢字村元４５６番地","latitude":40.71108447,"longitude":140.58940712,"id":"fb921ebf-d18b-494e-ada5-4135b0fbc20e"},{"name":"岩木山神社","prefectureName":"青森県","cityName":"弘前市","streetName":"大字百沢字寺沢２７番地","latitude":40.62185668,"longitude":140.34062262,"id":"5b8d2ca3-048d-4332-a350-ab32046fa7a6"},{"name":"巌鬼山神社","prefectureName":"青森県","cityName":"弘前市","streetName":"大字十腰内字猿沢７８番地１７","latitude":40.73017576,"longitude":140.3339532,"id":"ebff71a3-c1cf-490e-8078-b7c6d9d975ad"},{"name":"川上神社","prefectureName":"青森県","cityName":"青森市","streetName":"富田２丁目３番３２号","latitude":40.82686477,"longitude":140.71627448,"id":"088e689a-111a-492f-8a87-857507571459"},{"name":"川上神社","prefectureName":"青森県","cityName":"青森市","streetName":"大字久栗坂字浜田６６９番地の１号","latitude":40.87027395,"longitude":140.83872927,"id":"10ef36f8-e8a5-40d1-9a6a-3553074e2e78"},{"name":"川上神社","prefectureName":"青森県","cityName":"五所川原市","streetName":"金木町喜良市千苅２８番地１","latitude":40.89655943,"longitude":140.48447997,"id":"58d46b4f-8c7d-403e-8557-ca7e70ca1e7d"},{"name":"川口神社","prefectureName":"青森県","cityName":"八戸市","streetName":"大字湊町字下條３０番地","latitude":40.52822099,"longitude":141.52004193,"id":"fbe8c7fd-f5f3-4d5a-a588-73e914cebd48"},{"name":"市杵島神社","prefectureName":"青森県","cityName":"むつ市","streetName":"脇野沢九艘泊４２番地","latitude":41.14417729,"longitude":140.82234528,"id":"88c787a9-b831-41bf-84f2-6277d5372938"},{"name":"市杵島神社","prefectureName":"青森県","cityName":"むつ市","streetName":"脇野沢黒岩２５９番地","latitude":41.13670863,"longitude":140.81689894,"id":"ce4f43bf-56e5-4ea3-b7ad-bc573c0eeae5"},{"name":"常盤神社","prefectureName":"青森県","cityName":"弘前市","streetName":"大字悪戸字村元５６番地２号","latitude":40.58753544,"longitude":140.43026127,"id":"a2c493e3-7e05-42c6-b68e-81e0deb35a1b"},{"name":"平神社","prefectureName":"青森県","cityName":"三戸郡南部町","streetName":"大字平字若宮前１番地","latitude":40.41740038,"longitude":141.33683139,"id":"9aae86c7-3efa-4ccb-8b3e-91be7e2c999e"},{"name":"平舘神社","prefectureName":"青森県","cityName":"東津軽郡外ヶ浜町","streetName":"字平舘門の沢９番地","latitude":41.16240748,"longitude":140.63845063,"id":"fbb3d222-554d-4388-9678-bf1c009d99ba"},{"name":"広峰神社","prefectureName":"青森県","cityName":"弘前市","streetName":"大字小金崎字桜ノ木７番地","latitude":40.53682589,"longitude":140.55181705,"id":"d82df598-ebc4-4890-b416-2cd0fd4d02e5"},{"name":"広瀬八幡宮神社","prefectureName":"青森県","cityName":"東津軽郡蓬田村","streetName":"大字広瀬字坂元１２８番地１・１２８番地２","latitude":40.9717165,"longitude":140.6559657,"id":"af0f64e4-7a24-4429-8534-d724148b3d09"},{"name":"広船神社","prefectureName":"青森県","cityName":"平川市","streetName":"広船広沢８９番地","latitude":40.56814714,"longitude":140.61487784,"id":"fcfc3cdb-1991-4776-9c47-258cacc786ec"},{"name":"広野神社","prefectureName":"青森県","cityName":"弘前市","streetName":"大字小沢字広野７１番地","latitude":40.56356078,"longitude":140.440359,"id":"62d7f0d8-7e8d-48c3-996f-4e1fff004f78"},{"name":"廣峯神社","prefectureName":"青森県","cityName":"五所川原市","streetName":"大字高野字北原２４９番地１","latitude":40.74331898,"longitude":140.52855465,"id":"5005c6a1-df5d-4b97-875e-c239192d3402"},{"name":"廣峰神社","prefectureName":"青森県","cityName":"青森市","streetName":"浪岡大字北中野字天王９３番地","latitude":40.71237666,"longitude":140.6099527,"id":"c6cfcca9-a4e9-407f-b47a-f3ab0774d7fc"},{"name":"廣田神社","prefectureName":"青森県","cityName":"青森市","streetName":"長島２丁目１３番５号","latitude":40.82245719,"longitude":140.74257612,"id":"6183d587-3e68-4ded-87c8-c2ef53339be1"},{"name":"後潟神社","prefectureName":"青森県","cityName":"青森市","streetName":"大字後潟字平野１１８番地","latitude":40.94438301,"longitude":140.65830248,"id":"2fb7d1f4-4f58-40b9-9a05-631f2ef1a7a7"},{"name":"後萢神社","prefectureName":"青森県","cityName":"青森市","streetName":"大字後萢字外山４７番地","latitude":40.82687518,"longitude":140.81714704,"id":"79cc6a53-32c0-436f-9b4d-d40790e145b8"},{"name":"御前神社","prefectureName":"青森県","cityName":"八戸市","streetName":"小中野８丁目１番１９号","latitude":40.52479357,"longitude":141.51697825,"id":"67836f99-db94-4b7c-be51-b5fc5c735b15"},{"name":"御嶽神社","prefectureName":"青森県","cityName":"三戸郡南部町","streetName":"大字苫米地字御嶽２４番地","latitude":40.47860185,"longitude":141.36382805,"id":"835ca8f8-6d95-49b0-9481-e3ca32a3c63b"},{"name":"愛宕神社","prefectureName":"青森県","cityName":"弘前市","streetName":"大字細越字竹原９７番地","latitude":40.63227732,"longitude":140.40683853,"id":"63b95c48-8280-4c6c-ab2f-ff0dae2c30b3"},{"name":"愛宕神社","prefectureName":"青森県","cityName":"五所川原市","streetName":"大字下岩崎字戸草元７１番地２号","latitude":40.8389295,"longitude":140.4840516,"id":"460fe12e-d175-40d8-b1c4-443c1c2dd1f1"},{"name":"愛宕神社","prefectureName":"青森県","cityName":"弘前市","streetName":"大字高屋字本宮５２４番地","latitude":40.6031238,"longitude":140.4639217,"id":"9eb71d9a-9f5a-43dc-b00b-1e1deb62a5c4"},{"name":"愛宕神社","prefectureName":"青森県","cityName":"弘前市","streetName":"大字駒越字村元３０番地","latitude":40.61037251,"longitude":140.44749724,"id":"424d84ef-88ef-405b-866e-b806223a84f2"},{"name":"愛宕神社","prefectureName":"青森県","cityName":"平川市","streetName":"高木原田２６番地","latitude":40.61913468,"longitude":140.58605808,"id":"41056304-2c95-4879-8c30-f503377e1a0f"},{"name":"愛宕神社","prefectureName":"青森県","cityName":"北津軽郡板柳町","streetName":"大字石野字宮本１番地","latitude":40.71554499,"longitude":140.46800861,"id":"17fc1cd6-72f8-4ebb-8a00-36f31ac10049"},{"name":"愛宕神社","prefectureName":"青森県","cityName":"上北郡野辺地町","streetName":"字寺ノ沢７５番地２","latitude":40.86205002,"longitude":141.13539603,"id":"d14516a4-3b34-43ba-bbb1-271258184fa6"},{"name":"愛宕神社","prefectureName":"青森県","cityName":"弘前市","streetName":"大字真土字苅田５９番地","latitude":40.6009063,"longitude":140.43216867,"id":"c66990bb-9b76-4cbd-8ef1-dfbe15bb22be"},{"name":"愛宕神社","prefectureName":"青森県","cityName":"南津軽郡田舎館村","streetName":"大字大根子字宮崎１０３番地","latitude":40.6312069,"longitude":140.5501159,"id":"6175aba1-af6d-4632-aff3-a281796b7858"},{"name":"戸健澤神社","prefectureName":"青森県","cityName":"青森市","streetName":"大字鶴ケ坂字早稲田２４０番地１号","latitude":40.8220601,"longitude":140.747312,"id":"37cbe649-d8f4-4c57-86a8-3b4dce30d05c"},{"name":"折戸神社","prefectureName":"青森県","cityName":"下北郡風間浦村","streetName":"大字蛇浦字赤平２４番地","latitude":41.50421278,"longitude":140.96658986,"id":"da886544-462d-4be7-9464-5a7d3b887db3"},{"name":"斗賀神社","prefectureName":"青森県","cityName":"三戸郡南部町","streetName":"大字斗賀字上斗賀７番地","latitude":40.4668228,"longitude":141.3818154,"id":"41981b03-20ba-438c-b8b5-f7862cc895d8"},{"name":"斧懸神社","prefectureName":"青森県","cityName":"青森市","streetName":"大字戸山字赤坂４８６","latitude":40.80730212,"longitude":140.80471843,"id":"f9f8347d-0f55-4f6e-adcd-56b700b2f744"},{"name":"新山神社","prefectureName":"青森県","cityName":"八戸市","streetName":"大字是川字舘前１１０番地","latitude":40.45406307,"longitude":141.49421111,"id":"7776d28b-8e5c-4503-9275-aeab56c008bf"},{"name":"新山神社","prefectureName":"青森県","cityName":"三戸郡五戸町","streetName":"大字倉石又重字前平７番地","latitude":40.47981987,"longitude":141.21143057,"id":"585b3af9-2661-4158-94fb-f405d36bc350"},{"name":"新山神社","prefectureName":"青森県","cityName":"十和田市","streetName":"大字赤沼字下平２８３番地１","latitude":40.59924242,"longitude":141.18202955,"id":"90fc28f5-d25a-4eb7-9922-6ad021fb473a"},{"name":"新山神社","prefectureName":"青森県","cityName":"上北郡七戸町","streetName":"字鍛治林４０番地","latitude":40.69907041,"longitude":141.12443366,"id":"6fe9928a-a476-4fc4-af17-1fb085f781ea"},{"name":"新羅神社","prefectureName":"青森県","cityName":"十和田市","streetName":"大字奥瀬字北向１０番地","latitude":40.5806019,"longitude":141.09204989,"id":"d1902ebb-dde4-4c84-9760-bbfc3d03f6f9"},{"name":"新羅神社","prefectureName":"青森県","cityName":"三戸郡南部町","streetName":"大字沖田面字早稲田９番地","latitude":40.40933016,"longitude":141.27190829,"id":"14b5edc1-6faa-457f-a907-72e80cfb5867"},{"name":"新舘神社","prefectureName":"青森県","cityName":"上北郡東北町","streetName":"大字新舘字籠１３７番地１","latitude":40.7280591,"longitude":141.2576321,"id":"bc57847a-7346-491a-b336-e3eecff6becc"},{"name":"日吉神社","prefectureName":"青森県","cityName":"三戸郡階上町","streetName":"大字晴山沢字中城２３番地","latitude":40.41378354,"longitude":141.53706647,"id":"6a036a6e-70f3-4ac0-bc30-b908c526d3a9"},{"name":"日吉神社","prefectureName":"青森県","cityName":"青森市","streetName":"大字野内字山王林６５番地の２号","latitude":40.85230905,"longitude":140.8358637,"id":"f621c656-c1a1-4490-8d20-2ca5054194a7"},{"name":"日吉神社","prefectureName":"青森県","cityName":"五所川原市","streetName":"相内岩井８４番地２４号","latitude":41.06716033,"longitude":140.36807422,"id":"2f76373c-7e12-4d83-844d-8464bd624a5e"},{"name":"日吉神社","prefectureName":"青森県","cityName":"弘前市","streetName":"大字三和字上池神５３番地","latitude":40.73191941,"longitude":140.40725111,"id":"fb564699-a63f-40cd-ba89-8134a92707fa"},{"name":"日吉神社","prefectureName":"青森県","cityName":"弘前市","streetName":"大字青女子字桜苅４０３番地","latitude":40.67871423,"longitude":140.45406577,"id":"5c07a270-2a1e-4fbf-9640-cb60618f568c"},{"name":"春日神社","prefectureName":"青森県","cityName":"東津軽郡外ヶ浜町","streetName":"字平舘石崎沢１番地１号","latitude":41.18274414,"longitude":140.6375357,"id":"81da807c-5916-463e-a389-8e70858e3317"},{"name":"春日神社","prefectureName":"青森県","cityName":"むつ市","streetName":"大畑町湊村１５８番地","latitude":41.40980254,"longitude":141.16594006,"id":"4b0241c3-7a2e-4972-ad8e-d0900f783ad4"},{"name":"春日神社","prefectureName":"青森県","cityName":"つがる市","streetName":"稲垣町豊川初瀬３３番地","latitude":40.91084476,"longitude":140.41307408,"id":"4dc48513-20fb-4ed6-84d8-df64c30c4459"},{"name":"春日神社","prefectureName":"青森県","cityName":"西津軽郡深浦町","streetName":"大字北金ケ沢字塩見形３５５番地","latitude":40.6478945,"longitude":139.9273776,"id":"bdfe0148-901a-4e63-8d14-054b501dac7f"},{"name":"春日神社","prefectureName":"青森県","cityName":"弘前市","streetName":"大字葛原字大柳１１９番地","latitude":40.62443327,"longitude":140.3891153,"id":"f2a58867-4cd7-453d-b199-d30bf22cfc99"},{"name":"春日神社","prefectureName":"青森県","cityName":"下北郡大間町","streetName":"大字奥戸字焼畑４１番地","latitude":41.5223956,"longitude":140.9048445,"id":"b4bce0d4-4fc2-43f2-b7b2-5042cb0167fb"},{"name":"春日神社","prefectureName":"青森県","cityName":"むつ市","streetName":"大字関根字高梨川目２２８番地１","latitude":41.35136738,"longitude":141.1781447,"id":"ff2ffeb2-364a-4260-8d4d-f729907811a2"},{"name":"春日神社","prefectureName":"青森県","cityName":"青森市","streetName":"大字田茂木野字田茂木沢１番の２","latitude":40.76121278,"longitude":140.79900669,"id":"3dc98834-5aec-48f9-88c9-3bb7fd5917c9"},{"name":"月夜見神社","prefectureName":"青森県","cityName":"つがる市","streetName":"木造蓮川清川６３番地","latitude":40.83124211,"longitude":140.39424566,"id":"51943b8c-952b-4e21-adee-e600dd103706"},{"name":"月夜見神社","prefectureName":"青森県","cityName":"西津軽郡深浦町","streetName":"大字舮作字清滝３６番地","latitude":40.60776119,"longitude":139.86845891,"id":"d103b275-4a8f-40aa-bcb4-a9b296cd0ef5"},{"name":"月夜見神社","prefectureName":"青森県","cityName":"弘前市","streetName":"大字中崎字野脇７０番地","latitude":40.65085109,"longitude":140.45805772,"id":"3e0d99d4-4c33-4cd8-8e55-a4cc9b694ed5"},{"name":"月山神社","prefectureName":"青森県","cityName":"八戸市","streetName":"大字松館字篭田３８番地","latitude":40.47426943,"longitude":141.52265175,"id":"2d19acbf-0ee9-4f38-ab6a-8839ec5ac46f"},{"name":"月山神社","prefectureName":"青森県","cityName":"八戸市","streetName":"南郷大字中野字八ツ役３３番地","latitude":40.4077393,"longitude":141.41493113,"id":"a8b8b57c-b493-42cc-8f5f-da733c791d44"},{"name":"月山神社","prefectureName":"青森県","cityName":"三戸郡南部町","streetName":"大字法師岡字林ノ後３９番地","latitude":40.46564278,"longitude":141.40833251,"id":"597d754c-cc47-4644-9723-e4a79a335dbd"},{"name":"月山神社","prefectureName":"青森県","cityName":"三戸郡三戸町","streetName":"大字泉山字船場ノ上３８番地","latitude":40.38221432,"longitude":141.28005861,"id":"7a2da1b2-366a-4675-8649-0d06c8e61f19"},{"name":"月読神社","prefectureName":"青森県","cityName":"平川市","streetName":"小杉西田１３番地","latitude":40.5787904,"longitude":140.53746423,"id":"4a8a7030-c78c-4050-9c05-392164a10453"},{"name":"月讀神社","prefectureName":"青森県","cityName":"北津軽郡板柳町","streetName":"大字太田字前橋３０番地","latitude":40.6958961,"longitude":140.4573237,"id":"c89592df-91c6-4ac4-a6cf-9ea205990e37"},{"name":"朝日神社","prefectureName":"青森県","cityName":"八戸市","streetName":"大字櫛引字一日市２８番地","latitude":40.4890933,"longitude":141.42425827,"id":"294a1003-10a5-45ce-9fb0-fe732e2a359d"},{"name":"松倉神社","prefectureName":"青森県","cityName":"五所川原市","streetName":"大字前田野目字野脇１０２番地","latitude":40.8019503,"longitude":140.56531599,"id":"7acce198-9764-42b1-90b0-25d204482511"},{"name":"柏木神社","prefectureName":"青森県","cityName":"むつ市","streetName":"大字関根字川代１９５番地","latitude":41.37526016,"longitude":141.1991087,"id":"d806a9cf-a220-416c-ad9b-95346e3692bc"},{"name":"柳久保神社","prefectureName":"青森県","cityName":"青森市","streetName":"浪岡大字大釈迦字山田１９９番地","latitude":40.75984358,"longitude":140.59211639,"id":"b667bf13-e44f-4b01-8adf-17c82020ceac"},{"name":"桑原稲荷神社","prefectureName":"青森県","cityName":"青森市","streetName":"大字桑原字山崎１５１","latitude":40.82014792,"longitude":140.80839535,"id":"fd6ca3a9-6898-4856-918e-fef7356f35e9"},{"name":"桝形稲荷神社","prefectureName":"青森県","cityName":"八戸市","streetName":"根城１丁目４番１１号","latitude":40.50285966,"longitude":141.48151062,"id":"b57f49bf-560c-4f86-aa06-1d7616ce6227"},{"name":"椿神社","prefectureName":"青森県","cityName":"東津軽郡平内町","streetName":"大字東田沢字横峰１番の１号","latitude":41.00531746,"longitude":140.90553653,"id":"1d01f2c0-a531-45c3-b915-2cd5ee95d413"},{"name":"武甕槌神社","prefectureName":"青森県","cityName":"つがる市","streetName":"木造越水神山２０番地","latitude":40.80575364,"longitude":140.29889107,"id":"4bede4d0-dad9-49e4-8208-cd7bf0390327"},{"name":"武甕槌神社","prefectureName":"青森県","cityName":"つがる市","streetName":"木造福原平元５１番地","latitude":40.79229498,"longitude":140.34339587,"id":"2d30b2a4-b60f-41c2-a708-e67e0d874248"},{"name":"武甕槌神社","prefectureName":"青森県","cityName":"西津軽郡深浦町","streetName":"大字広戸字家野上１２番地","latitude":40.66911717,"longitude":139.95013295,"id":"fe077762-727a-4a07-8e73-c699565b8fb5"},{"name":"武甕槌神社","prefectureName":"青森県","cityName":"西津軽郡深浦町","streetName":"大字岩崎字浜野３２番地","latitude":40.5884063,"longitude":139.90893661,"id":"53390532-0f65-4a06-bdc3-f7f8e1e0fd12"},{"name":"氣比神社","prefectureName":"青森県","cityName":"上北郡おいらせ町","streetName":"上久保５１番地第１号","latitude":40.64906756,"longitude":141.38235669,"id":"5112573d-584a-47f3-9025-7089de3ead48"},{"name":"永福神社","prefectureName":"青森県","cityName":"五所川原市","streetName":"字柳町６番地","latitude":40.80583792,"longitude":140.44070074,"id":"2fc9a1c3-51bc-4753-895d-d196d458cb7f"},{"name":"池野神社","prefectureName":"青森県","cityName":"下北郡東通村","streetName":"大字蒲野沢字鹿橋山２番地２号","latitude":41.2776673,"longitude":141.3289331,"id":"ea006b8a-e3f3-4851-963a-77168c7638ec"},{"name":"泉神社","prefectureName":"青森県","cityName":"五所川原市","streetName":"大字金山字泉田３２番地","latitude":40.80799416,"longitude":140.48528879,"id":"2a28d088-3a6c-4d97-95c1-85764d110b74"},{"name":"法呂神社","prefectureName":"青森県","cityName":"むつ市","streetName":"大字田名部字道向１８番地１号","latitude":41.30727834,"longitude":141.21346139,"id":"b9759c78-dad2-405b-b0c8-43b943f401c8"},{"name":"法呂神社","prefectureName":"青森県","cityName":"三戸郡三戸町","streetName":"大字久慈町１１番地１号","latitude":40.38820483,"longitude":141.26499897,"id":"02a07287-472d-40ab-819e-d8f5e5cbb8d4"},{"name":"法量神社","prefectureName":"青森県","cityName":"十和田市","streetName":"大字法量字山ノ下２５番地","latitude":40.59150343,"longitude":141.09104388,"id":"17f55e2f-6b4a-481e-bce0-aa76e6e0ba2f"},{"name":"洗磯崎神社","prefectureName":"青森県","cityName":"五所川原市","streetName":"脇元野脇７番地","latitude":41.09585952,"longitude":140.3154901,"id":"e8a349a9-24c6-4375-a3e3-0efd6b94ce90"},{"name":"津軽赤倉山神社","prefectureName":"青森県","cityName":"つがる市","streetName":"稲垣町繁田若竹６２番地","latitude":40.90726481,"longitude":140.41653781,"id":"599b7d86-eb50-481b-a58e-30f569eec616"},{"name":"海守稲荷神社","prefectureName":"青森県","cityName":"下北郡東通村","streetName":"大字猿ケ森字家ノ上３２番地１","latitude":41.2776673,"longitude":141.3289331,"id":"70392007-e361-41d1-9dcc-46bfa04c4bb7"},{"name":"海童神社","prefectureName":"青森県","cityName":"北津軽郡板柳町","streetName":"大字板柳字土井３５９番地１号","latitude":40.69190767,"longitude":140.4584293,"id":"0d2db7c3-a876-4b92-9507-0329556255a1"},{"name":"淡島神社","prefectureName":"青森県","cityName":"弘前市","streetName":"大字高崎字岩井１２３番地","latitude":40.6031238,"longitude":140.4639217,"id":"4211aad6-6d17-44a9-a72d-4defe82d2ed7"},{"name":"淡島神社","prefectureName":"青森県","cityName":"南津軽郡藤崎町","streetName":"大字水木字福西４８番地","latitude":40.67931697,"longitude":140.52893522,"id":"fa279a37-12f9-4739-9da1-6d512ba12295"},{"name":"淡嶋神社","prefectureName":"青森県","cityName":"弘前市","streetName":"大字相馬字藥師平４７番地","latitude":40.55608198,"longitude":140.36356909,"id":"8720f245-255a-41a6-8bb8-c98226d2b2e2"},{"name":"深山神社","prefectureName":"青森県","cityName":"西津軽郡深浦町","streetName":"大字横磯字下岡崎８２番地","latitude":40.62949859,"longitude":139.89193959,"id":"dd7bb92e-6ba0-4d77-938b-54c531dc1d17"},{"name":"深山神社","prefectureName":"青森県","cityName":"東津軽郡平内町","streetName":"大字松野木字一本木１番地","latitude":40.8996599,"longitude":140.99732034,"id":"6a5b9642-7d1a-47a7-bbc4-7a32b8c04564"},{"name":"深山神社","prefectureName":"青森県","cityName":"むつ市","streetName":"大畑町深山７４番地４","latitude":41.40562777,"longitude":141.16337939,"id":"2a650eef-42d5-413d-8530-8ed9686a9ff7"},{"name":"深山神社","prefectureName":"青森県","cityName":"西津軽郡鰺ヶ沢町","streetName":"大字中村町字山本１２７番地","latitude":40.73884956,"longitude":140.23536204,"id":"25fa7e25-e80b-4b9e-80ec-9baf9df293c3"},{"name":"滝神社","prefectureName":"青森県","cityName":"東津軽郡平内町","streetName":"大字松野木字カド山３番地１８８","latitude":40.9260305,"longitude":140.9559197,"id":"8321b730-c389-4df8-b424-f73fbaaeccfc"},{"name":"潮山神社","prefectureName":"青森県","cityName":"三戸郡階上町","streetName":"大字赤保内字寺下１１番地","latitude":40.43239707,"longitude":141.63071785,"id":"6ee9a613-061a-486b-b068-4d457af74f05"},{"name":"瀧神社","prefectureName":"青森県","cityName":"八戸市","streetName":"大字櫛引字寺沢２９番","latitude":40.48106921,"longitude":141.42613056,"id":"3b383cad-4b03-4796-a32d-33efd0df4fd4"},{"name":"瀬辺地天満宮神社","prefectureName":"青森県","cityName":"東津軽郡蓬田村","streetName":"大字瀬辺地字田浦２１７番地","latitude":41.01002925,"longitude":140.64931207,"id":"fe00d981-6918-4261-817d-7d748c999abb"},{"name":"火産靈神社","prefectureName":"青森県","cityName":"八戸市","streetName":"大字櫛引字蒼前１４番地２号","latitude":40.47243136,"longitude":141.4322192,"id":"19c95193-98e5-4cfa-9bee-45a0a29a23d4"},{"name":"熊沢神社","prefectureName":"青森県","cityName":"弘前市","streetName":"大字薬師堂字日照田４９番地","latitude":40.56387944,"longitude":140.57187262,"id":"bd497994-79de-4fa9-acb7-14bc543c6cc9"},{"name":"熊野奥照神社","prefectureName":"青森県","cityName":"弘前市","streetName":"大字田町４丁目１番地１","latitude":40.61282034,"longitude":140.47958127,"id":"0caa80b0-6576-4720-b0e3-23d9801b5087"},{"name":"熊野神社","prefectureName":"青森県","cityName":"青森市","streetName":"大字六枚橋字不知浪６８番地","latitude":40.8220601,"longitude":140.747312,"id":"1da39194-eeec-4119-9cc4-83c7f132f61f"},{"name":"熊野神社","prefectureName":"青森県","cityName":"上北郡六戸町","streetName":"大字犬落瀬字柴山５６番地","latitude":40.61156732,"longitude":141.32918472,"id":"f6d02cfc-9ab6-490b-87e1-1b84aeca1934"},{"name":"熊野神社","prefectureName":"青森県","cityName":"上北郡六ヶ所村","streetName":"大字平沼字追舘１２２番地","latitude":40.88338519,"longitude":141.36516895,"id":"25182a51-0c26-4cf8-b45e-02cce2647f4e"},{"name":"熊野神社","prefectureName":"青森県","cityName":"下北郡東通村","streetName":"大字田屋字ハサバ９５番地","latitude":41.26958614,"longitude":141.27805084,"id":"b6ee506c-c6f5-439b-b444-4e9ea8a25f72"},{"name":"熊野神社","prefectureName":"青森県","cityName":"三戸郡三戸町","streetName":"大字同心町字上川原７９番地","latitude":40.37806694,"longitude":141.25165098,"id":"30033693-29de-44d0-8c57-23a02c67145b"},{"name":"熊野神社","prefectureName":"青森県","cityName":"三戸郡三戸町","streetName":"大字川守田字東張渡５６番地","latitude":40.3781338,"longitude":141.2587224,"id":"cc14b3e9-2d33-4c52-891e-cb8efbd8615f"},{"name":"熊野神社","prefectureName":"青森県","cityName":"上北郡野辺地町","streetName":"字大平下４番地","latitude":40.87553404,"longitude":141.0915267,"id":"6e581ff7-06f5-4d3e-9fc2-e4f7870f5c62"},{"name":"熊野神社","prefectureName":"青森県","cityName":"三戸郡南部町","streetName":"大字虎渡字上ノ山６８番地２","latitude":40.4668228,"longitude":141.3818154,"id":"adb05c64-4054-4ef0-af41-16db5961a5e5"},{"name":"熊野神社","prefectureName":"青森県","cityName":"むつ市","streetName":"新町１５番３号","latitude":41.28917423,"longitude":141.2101765,"id":"ae9e7145-28c1-4e66-b5dd-f6753ea79093"},{"name":"熊野神社","prefectureName":"青森県","cityName":"八戸市","streetName":"大字鮫町字熊野林１１番地１","latitude":40.50172298,"longitude":141.61097507,"id":"4b5bcfc7-adae-439a-8cc3-a228dfa62a12"},{"name":"熊野神社","prefectureName":"青森県","cityName":"三戸郡南部町","streetName":"大字相内字澤構１４番地１号","latitude":40.43287503,"longitude":141.30418198,"id":"457b80da-3507-4ea7-a9b0-006b29f8b046"},{"name":"熊野神社","prefectureName":"青森県","cityName":"むつ市","streetName":"大字田名部字南樺山ノ内稲荷林４９番地","latitude":41.2927481,"longitude":141.1834781,"id":"be0be952-0187-415a-adf4-d54ddefef955"},{"name":"猿田彦大神神社","prefectureName":"青森県","cityName":"青森市","streetName":"大字新城字山田６７７番地７５０","latitude":40.8276579,"longitude":140.66373132,"id":"1d8cf0c5-6031-4d4a-8caf-81fce8cd1169"},{"name":"猿田彦神社","prefectureName":"青森県","cityName":"むつ市","streetName":"大字中野沢字上山道８番地８０","latitude":41.18196837,"longitude":141.28668752,"id":"52acfa95-961b-4d7b-b516-0cab4966bc19"},{"name":"猿田彦神社","prefectureName":"青森県","cityName":"むつ市","streetName":"川内町釜谷８５番地１号","latitude":41.23147443,"longitude":140.98523751,"id":"ac99b3fb-8290-491d-b32e-98e46c28eb4c"},{"name":"猿賀神社","prefectureName":"青森県","cityName":"平川市","streetName":"猿賀石林１７５番地","latitude":40.61660688,"longitude":140.56291533,"id":"fc4700e8-5f84-4df0-8c58-9fed15d92874"},{"name":"玉垂神社","prefectureName":"青森県","cityName":"むつ市","streetName":"大畑町炭焼沢３番２号","latitude":41.44202084,"longitude":141.12614682,"id":"f68a4abc-c940-4c33-bd75-49e57615d924"},{"name":"玉掛神社","prefectureName":"青森県","cityName":"三戸郡南部町","streetName":"大字玉掛字前田４４番地","latitude":40.41812122,"longitude":141.29383906,"id":"8ff7562d-2f27-4d22-a216-523f6782f106"},{"name":"瑞穂教赤倉山神社","prefectureName":"青森県","cityName":"弘前市","streetName":"大字百沢字東岩木山１番地３９号","latitude":40.69133225,"longitude":140.32838662,"id":"8a69e79e-cfe3-4772-ba3e-39ed79db56c3"},{"name":"生魂神社","prefectureName":"青森県","cityName":"南津軽郡田舎館村","streetName":"大字田舎舘字中辻１６７番地","latitude":40.62974064,"longitude":140.55207681,"id":"05e4244b-33a0-410e-98c4-24f3ac9c9028"},{"name":"田名部神社","prefectureName":"青森県","cityName":"むつ市","streetName":"田名部町１番１号","latitude":41.29525988,"longitude":141.21357319,"id":"8cd77576-9e4d-421a-ae8b-fde1de7eeac0"},{"name":"白上稲荷神社","prefectureName":"青森県","cityName":"十和田市","streetName":"大字相坂字白上３４２番地","latitude":40.59325226,"longitude":141.22125913,"id":"ca85a9cb-e190-4541-ae24-c4a8ef915f7f"},{"name":"白山姫神社","prefectureName":"青森県","cityName":"五所川原市","streetName":"大字戸沢字玉清水１６８番地","latitude":40.82118234,"longitude":140.51639721,"id":"4829aafd-0442-41bd-875c-b808c3144168"},{"name":"白山姫神社","prefectureName":"青森県","cityName":"北津軽郡鶴田町","streetName":"大字野木字下糺７４番地","latitude":40.74965913,"longitude":140.39828986,"id":"78d3658b-11f8-4cc1-a51e-a2e95b91e56a"},{"name":"白山姫神社","prefectureName":"青森県","cityName":"弘前市","streetName":"大字鳥井野字宮本４番地","latitude":40.59387319,"longitude":140.41707314,"id":"0071df64-3bc7-4dcf-973a-eea71ce0b9d5"},{"name":"白山姫神社","prefectureName":"青森県","cityName":"黒石市","streetName":"大字袋字富山１１２番地","latitude":40.60334977,"longitude":140.67191889,"id":"72d114b1-9053-4f57-90ab-f777990aecbe"},{"name":"白山神社","prefectureName":"青森県","cityName":"三戸郡南部町","streetName":"大字下名久井字白山３番地","latitude":40.42806277,"longitude":141.33715062,"id":"eb346402-336d-4d33-9660-60edf55f655d"},{"name":"白山神社","prefectureName":"青森県","cityName":"東津軽郡平内町","streetName":"大字土屋字カヌカ沢２５番地１","latitude":40.9260305,"longitude":140.9559197,"id":"5615c965-03da-4e46-bce7-5ddc915071ba"},{"name":"白山神社","prefectureName":"青森県","cityName":"八戸市","streetName":"大字尻内町字尻内６０番地","latitude":40.50352821,"longitude":141.44057017,"id":"44720f44-eaba-4d75-b255-7476b9c27590"},{"name":"白山神社","prefectureName":"青森県","cityName":"下北郡東通村","streetName":"大字大利字井戸尻１９番地","latitude":41.32166152,"longitude":141.25018049,"id":"f44a114a-c131-4afe-ab6c-7265c8f1de64"},{"name":"白山神社","prefectureName":"青森県","cityName":"十和田市","streetName":"大字沢田字長根１７２番地２","latitude":40.58960747,"longitude":141.18036342,"id":"e1452f25-2668-4a81-abee-f79761c80d5b"},{"name":"白山神社","prefectureName":"青森県","cityName":"青森市","streetName":"浪岡大字杉沢字上福田１番地","latitude":40.73053229,"longitude":140.5863042,"id":"11edaa88-ef74-44c9-a924-12c0998cc882"},{"name":"白山神社","prefectureName":"青森県","cityName":"むつ市","streetName":"川内町下小倉平９２番地","latitude":41.22080067,"longitude":140.98530753,"id":"05dd4d21-9e3c-4710-a87a-d292317603b6"},{"name":"白滝神社","prefectureName":"青森県","cityName":"三戸郡三戸町","streetName":"大字梅内字前田５２番地２","latitude":40.37919778,"longitude":141.269485,"id":"74a4afed-447c-4877-8eec-4d1881ae26fd"},{"name":"白衣神社","prefectureName":"青森県","cityName":"五所川原市","streetName":"字田町１番地１","latitude":40.80011925,"longitude":140.4445368,"id":"170927f3-9c2f-459b-9ab0-ce48ee17ef0a"},{"name":"白髭神社","prefectureName":"青森県","cityName":"八戸市","streetName":"大字市川町字橋向２番地","latitude":40.58708161,"longitude":141.46236591,"id":"80a1ded1-196c-4bcb-a5aa-aab505ff2f6e"},{"name":"盛美神社","prefectureName":"青森県","cityName":"平川市","streetName":"猿賀石林４番地１号","latitude":40.5841049,"longitude":140.5664835,"id":"e75487e6-90a7-43e4-84bc-845e7fa234ba"},{"name":"目名神社","prefectureName":"青森県","cityName":"下北郡東通村","streetName":"大字目名字小田野坂５６番地","latitude":41.2776673,"longitude":141.3289331,"id":"b7e1190d-f1eb-4a18-8d2b-29b7f688f20d"},{"name":"真清田神社","prefectureName":"青森県","cityName":"三戸郡田子町","streetName":"大字田子字堂ノ東２０番地","latitude":40.35050981,"longitude":141.17448379,"id":"c331ab75-6f7a-4604-bd0e-c44ac0962439"},{"name":"石上神社","prefectureName":"青森県","cityName":"つがる市","streetName":"稲垣町千年懸河４番地","latitude":40.91084476,"longitude":140.41307408,"id":"e6f9f506-d590-4763-862c-53b6f32f7570"},{"name":"石上神社","prefectureName":"青森県","cityName":"西津軽郡鰺ヶ沢町","streetName":"大字七ツ石町１４０番地","latitude":40.77677665,"longitude":140.21376678,"id":"8d730e80-f160-4f2e-b723-150c12a13566"},{"name":"石亀神社","prefectureName":"青森県","cityName":"三戸郡田子町","streetName":"大字石亀字上ノ平１１番地","latitude":40.3399606,"longitude":141.1520527,"id":"8d50062b-2b38-4c7b-a1c7-aed7f5d49384"},{"name":"石戸神社","prefectureName":"青森県","cityName":"弘前市","streetName":"大字湯口字一ノ安田７０番地","latitude":40.5898346,"longitude":140.41265149,"id":"0d4c07c5-2860-4551-adb9-011a67ef8843"},{"name":"石濱稲荷神社","prefectureName":"青森県","cityName":"東津軽郡外ヶ浜町","streetName":"字蟹田石浜９５番地","latitude":41.05763531,"longitude":140.64013593,"id":"35a69c20-16b5-40c4-b74c-609dac56db2c"},{"name":"石神神社","prefectureName":"青森県","cityName":"西津軽郡鰺ヶ沢町","streetName":"大字建石町字石神１３番地１","latitude":40.7797456,"longitude":140.2082837,"id":"eaf75065-78b7-4807-b817-303ca90ccfdb"},{"name":"石神神社","prefectureName":"青森県","cityName":"青森市","streetName":"大字入内字駒田５７番地","latitude":40.72205605,"longitude":140.71860997,"id":"67985c2b-12ec-463a-bf24-3bd3e0c34e5b"},{"name":"磐余神社","prefectureName":"青森県","cityName":"五所川原市","streetName":"大字羽野木沢字隈無２２番地","latitude":40.7572703,"longitude":140.52232133,"id":"fc21cbe7-8dc0-4ecf-8c7d-b0e5d7fb6e19"},{"name":"磐境神社","prefectureName":"青森県","cityName":"西津軽郡深浦町","streetName":"大字岩坂字長谷野１６４番地","latitude":40.72012538,"longitude":140.11170147,"id":"c93f4da9-a608-45fe-976b-5ef5eabd5d60"},{"name":"磯山稲荷神社","prefectureName":"青森県","cityName":"東津軽郡外ヶ浜町","streetName":"字平舘磯山２８０番地","latitude":41.08837627,"longitude":140.63276034,"id":"e49c187e-5f3f-48f6-a9f2-19e65b569f8b"},{"name":"磯崎神社","prefectureName":"青森県","cityName":"五所川原市","streetName":"金木町中柏木鎧石１５１番地","latitude":40.87375315,"longitude":140.47640939,"id":"378aae13-b6a1-4c55-ac71-40964bbfb98c"},{"name":"神道大教石神神社","prefectureName":"青森県","cityName":"青森市","streetName":"大字駒込字深沢１３番地６９６","latitude":40.75112583,"longitude":140.81667496,"id":"5ec1a95c-8582-4bc9-8564-01c318462b9a"},{"name":"稚野神社","prefectureName":"青森県","cityName":"西津軽郡鰺ヶ沢町","streetName":"大字南金沢町字高根山１４１番地","latitude":40.7797456,"longitude":140.2082837,"id":"70027165-c27a-41da-aead-12780da00c25"},{"name":"稲村崎神社","prefectureName":"青森県","cityName":"つがる市","streetName":"木造中館田浦６０番地","latitude":40.81307667,"longitude":140.36292972,"id":"03cd0f2c-ebd4-412c-b59c-d5d6dadb16dd"},{"name":"稲生神社","prefectureName":"青森県","cityName":"東津軽郡平内町","streetName":"大字稲生字稲生２７番地１","latitude":40.98029928,"longitude":140.87436758,"id":"cf4da11e-b78e-45a4-9dae-2d3f057eac71"},{"name":"稲荷神社","prefectureName":"青森県","cityName":"青森市","streetName":"新田２丁目２０番８号","latitude":40.84073256,"longitude":140.71344643,"id":"c8250052-abca-4d75-8e90-6e18de49dc3b"},{"name":"稲荷神社","prefectureName":"青森県","cityName":"青森市","streetName":"大字筒井字八ツ橋１１６番地の３","latitude":40.79871626,"longitude":140.77573238,"id":"66e0707f-f322-45fa-b998-8ee52cbe7570"},{"name":"稲荷神社","prefectureName":"青森県","cityName":"東津軽郡外ヶ浜町","streetName":"字平舘根岸山居１７０番地２号","latitude":41.0431672,"longitude":140.6317871,"id":"1d94769a-94ce-442b-8a43-824634ec8c0f"},{"name":"稲荷神社","prefectureName":"青森県","cityName":"三戸郡三戸町","streetName":"大字斗内字田屋ノ下５８番地","latitude":40.35532638,"longitude":141.19433492,"id":"fc602377-79c5-4446-9e81-c2d534f4cc1f"},{"name":"稲荷神社","prefectureName":"青森県","cityName":"五所川原市","streetName":"大字姥萢字船橋３２番地１","latitude":40.78971791,"longitude":140.45355606,"id":"fca30271-d0cc-4c9c-95c5-84cc8aa200a1"},{"name":"稲荷神社","prefectureName":"青森県","cityName":"北津軽郡鶴田町","streetName":"大字鶴田字相原２６６番地","latitude":40.77026674,"longitude":140.43598344,"id":"bc07ae67-5004-49d3-9e70-4024e3bffbb3"},{"name":"稲荷神社","prefectureName":"青森県","cityName":"北津軽郡中泊町","streetName":"大字田茂木字鳴見１番地","latitude":40.94334571,"longitude":140.40257647,"id":"5b242e68-4b27-41f3-b2c6-868ad534d87e"},{"name":"稲荷神社","prefectureName":"青森県","cityName":"つがる市","streetName":"富萢町藪分３８番地","latitude":40.98091056,"longitude":140.37283053,"id":"83716bed-b22a-4da0-b0f1-c0e4f9a4d416"},{"name":"稲荷神社","prefectureName":"青森県","cityName":"つがる市","streetName":"柏下古川絹川１番地","latitude":40.79624712,"longitude":140.42761899,"id":"7b1567c7-623f-4b1c-afd6-321846f17658"},{"name":"稲荷神社","prefectureName":"青森県","cityName":"西津軽郡深浦町","streetName":"大字田野沢字清滝１９番地","latitude":40.76197707,"longitude":140.04227732,"id":"ff6266c6-92ed-4e05-b9bb-fc35a442846d"},{"name":"稲荷神社","prefectureName":"青森県","cityName":"南津軽郡藤崎町","streetName":"大字藤崎字村元１６番地","latitude":40.65140994,"longitude":140.4930865,"id":"2c5f7649-ca85-4c19-a171-54f968b13e25"},{"name":"稲荷神社","prefectureName":"青森県","cityName":"黒石市","streetName":"大字甲大工町６番地","latitude":40.64226219,"longitude":140.5902677,"id":"a4b920c0-febd-4211-a3a0-cf7c3a0db486"},{"name":"稲荷神社","prefectureName":"青森県","cityName":"黒石市","streetName":"大字石名坂字館２０番地","latitude":40.62700962,"longitude":140.6283796,"id":"deda37c4-0049-4772-b6f5-29bd2f9ee483"},{"name":"稲荷神社","prefectureName":"青森県","cityName":"下北郡東通村","streetName":"大字砂子又字桑原山１番地","latitude":41.28395569,"longitude":141.3333576,"id":"486d3a52-4887-4700-be3f-ac1a7905dbe2"},{"name":"稲荷神社","prefectureName":"青森県","cityName":"青森市","streetName":"富田２丁目１４番１３号","latitude":40.83001997,"longitude":140.71537997,"id":"6b76adb8-71d8-40e4-b9ec-9644930eeb56"},{"name":"稲荷神社","prefectureName":"青森県","cityName":"青森市","streetName":"大字浪館字近野１番地の１","latitude":40.8220601,"longitude":140.747312,"id":"99db8551-6487-49c6-953b-62db950b80fe"},{"name":"稲荷神社","prefectureName":"青森県","cityName":"東津軽郡外ヶ浜町","streetName":"字平舘弥藏釜１３６番地","latitude":41.19382317,"longitude":140.62282531,"id":"f41fe99a-2b84-47d0-81c4-d8f1c2f2a834"},{"name":"稲荷神社","prefectureName":"青森県","cityName":"三戸郡五戸町","streetName":"字野月２番地","latitude":40.52036688,"longitude":141.2974771,"id":"8e53f8bd-c996-446a-ae60-2db2b0477492"},{"name":"稲荷神社","prefectureName":"青森県","cityName":"北津軽郡鶴田町","streetName":"大字大巻字川瀬５８番地","latitude":40.77985982,"longitude":140.42126746,"id":"0b638c15-676f-4de9-bb2b-a518073e718e"},{"name":"稲荷神社","prefectureName":"青森県","cityName":"北津軽郡中泊町","streetName":"大字長泥字玉清水３８９番地１","latitude":40.95309136,"longitude":140.38329719,"id":"67d1530a-bb93-4170-8fd3-dbc4a7f45271"},{"name":"稲荷神社","prefectureName":"青森県","cityName":"西津軽郡鰺ヶ沢町","streetName":"大字新地町１番地","latitude":40.78160904,"longitude":140.20030349,"id":"fc2c253c-115d-4a2c-812c-c6afaf04562b"},{"name":"稲荷神社","prefectureName":"青森県","cityName":"西津軽郡深浦町","streetName":"大字風合瀬字中砂子川５３番地","latitude":40.6478945,"longitude":139.9273776,"id":"c9bce00d-34f6-4cfe-800a-eafde8946a7e"},{"name":"稲荷神社","prefectureName":"青森県","cityName":"弘前市","streetName":"大字宮舘字宮舘沢１０番地","latitude":40.64843657,"longitude":140.41082892,"id":"2f3a2f1c-81ea-4818-aec5-a45cdc4b8772"},{"name":"稲荷神社","prefectureName":"青森県","cityName":"黒石市","streetName":"大字西馬場尻字村元９２番地","latitude":40.67661891,"longitude":140.58532253,"id":"1ad95c28-e4ad-42a5-ab5c-599626ea2adb"},{"name":"稲荷神社","prefectureName":"青森県","cityName":"平川市","streetName":"蒲田元宮７番地","latitude":40.62305704,"longitude":140.52737108,"id":"0ecf17cd-8bf1-4629-bd86-dd68c7f9ee49"},{"name":"稲荷神社","prefectureName":"青森県","cityName":"青森市","streetName":"大字石江字江渡１１０番地の２号","latitude":40.8244898,"longitude":140.69536186,"id":"c8cacf1c-5e98-4807-accb-5b58f4201e58"},{"name":"稲荷神社","prefectureName":"青森県","cityName":"東津軽郡外ヶ浜町","streetName":"字平舘今津間ノ沢３番地１号","latitude":41.0431672,"longitude":140.6317871,"id":"cb50e5c5-9f3f-44ba-81ca-1500ca3031a9"},{"name":"稲荷神社","prefectureName":"青森県","cityName":"青森市","streetName":"浪岡大字吉内字山下３７番地","latitude":40.71108447,"longitude":140.58940712,"id":"c7bb6216-7372-4e86-a004-fd6b108b7a3f"},{"name":"稲荷神社","prefectureName":"青森県","cityName":"三戸郡南部町","streetName":"大字森越字上小路９番地","latitude":40.44044473,"longitude":141.34816046,"id":"28478826-b3b9-401e-a6a5-806ed2d87f7a"},{"name":"稲荷神社","prefectureName":"青森県","cityName":"五所川原市","streetName":"大字中泉字松枝８８番地","latitude":40.76108029,"longitude":140.49714293,"id":"0b1c9574-17e8-4922-99f5-47a9f49272a0"},{"name":"稲荷神社","prefectureName":"青森県","cityName":"北津軽郡鶴田町","streetName":"大字強巻字押上８番地","latitude":40.76346159,"longitude":140.42854545,"id":"f6fcb87e-5ce6-4475-8999-0a69621254aa"},{"name":"稲荷神社","prefectureName":"青森県","cityName":"五所川原市","streetName":"金木町嘉瀬上端山崎１１２番地ノ１号、１１２番地ノ２号","latitude":40.90289446,"longitude":140.4570373,"id":"a3c6bdad-2379-423a-a7df-6a76f701ce7a"},{"name":"稲荷神社","prefectureName":"青森県","cityName":"北津軽郡中泊町","streetName":"大字高根字小金石１０２０番地１","latitude":40.9604396,"longitude":140.434301,"id":"2ed6162c-b40a-4d00-a5d4-3282328c7b9f"},{"name":"稲荷神社","prefectureName":"青森県","cityName":"つがる市","streetName":"木造下遠山里松本６８番地","latitude":40.82686349,"longitude":140.34848337,"id":"28c95b30-d266-4523-8fd4-284ee4aa1cd9"},{"name":"稲荷神社","prefectureName":"青森県","cityName":"西津軽郡深浦町","streetName":"大字沢辺字山科１８７番地","latitude":40.58567533,"longitude":139.88516661,"id":"e4fc5b7c-09f8-48e1-a090-c5261187af21"},{"name":"稲荷神社","prefectureName":"青森県","cityName":"弘前市","streetName":"大字常盤野字湯の沢５４番地","latitude":40.63150666,"longitude":140.26827253,"id":"f640f434-ec89-4b89-9733-456df9a263cc"},{"name":"稲荷神社","prefectureName":"青森県","cityName":"黒石市","streetName":"大字飛内字宮岸１１番地","latitude":40.67955784,"longitude":140.59883516,"id":"e056320a-35dc-4389-91ab-ba16eaa013f6"},{"name":"稲荷神社","prefectureName":"青森県","cityName":"平川市","streetName":"長田野田１０３番地２","latitude":40.60935744,"longitude":140.55549969,"id":"9f5f5174-8351-457d-b7b6-cb8acd58edde"},{"name":"稲荷神社","prefectureName":"青森県","cityName":"十和田市","streetName":"稲生町５番８号","latitude":40.61854107,"longitude":141.20945153,"id":"1442f482-f63f-44c6-907b-0b30a2648d66"},{"name":"稲荷神社","prefectureName":"青森県","cityName":"青森市","streetName":"沖館５丁目５番６号","latitude":40.83289469,"longitude":140.72273784,"id":"32b68d70-4097-4b3e-94f1-dfacf3d993a6"},{"name":"稲荷神社","prefectureName":"青森県","cityName":"青森市","streetName":"八重田２丁目６番１４号","latitude":40.83209627,"longitude":140.79642095,"id":"8ddab8db-c37e-448b-9190-6b6eaeacab01"},{"name":"稲荷神社","prefectureName":"青森県","cityName":"青森市","streetName":"浪岡大字王余魚沢字北村元２９番地","latitude":40.72566255,"longitude":140.65567666,"id":"aaa21109-0984-456b-af77-c926a3f07d47"},{"name":"稲荷神社","prefectureName":"青森県","cityName":"五所川原市","streetName":"大字毘沙門字熊石２５番地４","latitude":40.85187193,"longitude":140.45695347,"id":"93db4dfb-d49d-49da-bba6-29ac74a23c10"},{"name":"稲荷神社","prefectureName":"青森県","cityName":"つがる市","streetName":"稲垣町繁田袰掛１４番地","latitude":40.91084476,"longitude":140.41307408,"id":"04738d5b-8491-4b28-894e-28505cf2f6b3"},{"name":"稲荷神社","prefectureName":"青森県","cityName":"北津軽郡中泊町","streetName":"大字高根字小金石８５７番地","latitude":41.00336817,"longitude":140.42298589,"id":"00f8ed9c-8118-47d0-ab15-f41994b08622"},{"name":"稲荷神社","prefectureName":"青森県","cityName":"つがる市","streetName":"木造下福原篠原１２３番地","latitude":40.8094455,"longitude":140.32889388,"id":"f1ad7433-d171-4730-b2b0-04b024c2ee8e"},{"name":"稲荷神社","prefectureName":"青森県","cityName":"五所川原市","streetName":"大字福山字広富１７１番地","latitude":40.77942037,"longitude":140.51072712,"id":"56a6d5ac-7fdd-4fc4-bbd7-0cbc37ba218a"},{"name":"稲荷神社","prefectureName":"青森県","cityName":"弘前市","streetName":"大字富田１丁目８番地２号","latitude":40.59617473,"longitude":140.47262447,"id":"7e1bb42f-f3f6-4da0-9065-524845894fe2"},{"name":"稲荷神社","prefectureName":"青森県","cityName":"弘前市","streetName":"大字蒔苗字油伝６９番地","latitude":40.59917196,"longitude":140.48254318,"id":"836a757c-3428-4daa-9add-ecdc4d3bf768"},{"name":"稲荷神社","prefectureName":"青森県","cityName":"弘前市","streetName":"大字国吉字坂本２４１番地","latitude":40.59518764,"longitude":140.3475207,"id":"6df3f1b4-fd19-43fa-afe3-65a13e5fc8ed"},{"name":"稲荷神社","prefectureName":"青森県","cityName":"黒石市","streetName":"大字高舘字丁高原８８番地","latitude":40.6426345,"longitude":140.5946479,"id":"df28eb3f-e476-4afd-b0ea-f3945bcba349"},{"name":"稲荷神社","prefectureName":"青森県","cityName":"南津軽郡田舎館村","streetName":"大字大袋字樋田１９８番地","latitude":40.62254789,"longitude":140.50973117,"id":"0ca22668-8423-4403-b62a-ed25cb77301c"},{"name":"稲荷神社","prefectureName":"青森県","cityName":"南津軽郡藤崎町","streetName":"大字福舘字前田３３番地","latitude":40.70167547,"longitude":140.54189961,"id":"4228916d-1a5a-4470-8660-73be583d0a33"},{"name":"稲荷神社","prefectureName":"青森県","cityName":"十和田市","streetName":"大字藤島字中道２５番地１","latitude":40.58320386,"longitude":141.23274992,"id":"3b1093ab-606d-4509-862c-d9f1dce3d66c"},{"name":"稲荷神社","prefectureName":"青森県","cityName":"むつ市","streetName":"脇野沢滝山５１番地","latitude":41.17226242,"longitude":140.79873242,"id":"ace5cd18-63d0-41e1-b824-280e4ecc3e98"},{"name":"稲荷神社","prefectureName":"青森県","cityName":"青森市","streetName":"大字羽白字富田１７番地","latitude":40.85246908,"longitude":140.68932888,"id":"d1a66a13-773d-44e8-bef8-451600e775b6"},{"name":"稲荷神社","prefectureName":"青森県","cityName":"青森市","streetName":"合浦２丁目１７番３７号","latitude":40.82859628,"longitude":140.78124765,"id":"17e2617f-c946-4e17-82dd-783c4790a1bc"},{"name":"稲荷神社","prefectureName":"青森県","cityName":"青森市","streetName":"浪岡大字女鹿沢字西増田３６番地","latitude":40.70289895,"longitude":140.57981358,"id":"ffcdea72-b0ae-4e6a-baa5-96c0cdcb0f9f"},{"name":"稲荷神社","prefectureName":"青森県","cityName":"五所川原市","streetName":"大字浅井字色吉３８番地","latitude":40.7781145,"longitude":140.49263143,"id":"a258ec04-5bea-4303-97b8-0c039d198202"},{"name":"稲荷神社","prefectureName":"青森県","cityName":"北津軽郡板柳町","streetName":"大字掛落林字宮本１１１番地","latitude":40.71601931,"longitude":140.43961335,"id":"cfeb97de-7106-4ac9-ba8a-d88b16e8b289"},{"name":"稲荷神社","prefectureName":"青森県","cityName":"つがる市","streetName":"稲垣町沼崎幾代崎１番地の１号","latitude":40.86894338,"longitude":140.39338026,"id":"bfca8df2-89e2-46af-9edf-98ed56ef2768"},{"name":"稲荷神社","prefectureName":"青森県","cityName":"北津軽郡中泊町","streetName":"大字八幡字八幡１９６番地","latitude":40.95141554,"longitude":140.43665396,"id":"f3c59d19-4fe4-4584-8c80-4575a9a61aeb"},{"name":"稲荷神社","prefectureName":"青森県","cityName":"西津軽郡鰺ヶ沢町","streetName":"大字浜横沢町字船越９５番地","latitude":40.7797456,"longitude":140.2082837,"id":"53d2f214-9a2c-4d7d-a43e-e81879bf5b88"},{"name":"稲荷神社","prefectureName":"青森県","cityName":"つがる市","streetName":"木造下福原上吉谷２９番地","latitude":40.79504712,"longitude":140.32745283,"id":"955fe61e-10ff-4e81-99e8-6dfc4b32eef0"},{"name":"稲荷神社","prefectureName":"青森県","cityName":"弘前市","streetName":"大字大和沢字沢田２４３番地","latitude":40.6031238,"longitude":140.4639217,"id":"617d1efb-4960-40e0-8d16-af2f6f8e0ca4"},{"name":"稲荷神社","prefectureName":"青森県","cityName":"弘前市","streetName":"大字新寺町３３番地","latitude":40.59752439,"longitude":140.46534143,"id":"feaababc-c10b-41b6-b806-8e082ae921ff"},{"name":"稲荷神社","prefectureName":"青森県","cityName":"弘前市","streetName":"大字中畑字俵元１５４番地","latitude":40.59085105,"longitude":140.31213564,"id":"def3a99c-bd97-438f-8af3-1cd74322ab26"},{"name":"稲荷神社","prefectureName":"青森県","cityName":"南津軽郡大鰐町","streetName":"大字蔵館字古舘７９番地","latitude":40.5231091,"longitude":140.57887576,"id":"0a5805b0-95e7-4c1b-9aef-76a540468d3a"},{"name":"稲荷神社","prefectureName":"青森県","cityName":"黒石市","streetName":"青山１３０番地１","latitude":40.6502893,"longitude":140.60644121,"id":"d8cd72e4-506e-4779-a228-2add46b548e3"},{"name":"稲荷神社","prefectureName":"青森県","cityName":"黒石市","streetName":"大字大川原字橋向２４番地","latitude":40.6426345,"longitude":140.5946479,"id":"be5d1187-e960-41e9-8797-3c4e0d5e29a9"},{"name":"稲荷神社","prefectureName":"青森県","cityName":"南津軽郡田舎館村","streetName":"大字枝川字狐森２２番地","latitude":40.64367773,"longitude":140.563142,"id":"3b481b80-8d92-4239-ae70-98e31731c6a4"},{"name":"稲荷神社","prefectureName":"青森県","cityName":"南津軽郡藤崎町","streetName":"大字久井名舘字早稲田２０番地１","latitude":40.6560514,"longitude":140.5028078,"id":"8617de03-4dbd-48da-8dff-fcbbc5f020c9"},{"name":"稲荷神社","prefectureName":"青森県","cityName":"上北郡六戸町","streetName":"大字上吉田字長谷４番地","latitude":40.609623,"longitude":141.3249019,"id":"97e41931-ff1e-4c40-85f4-3829b1ff52d9"},{"name":"稲荷神社","prefectureName":"青森県","cityName":"むつ市","streetName":"川内町湯野川１２番地","latitude":41.31608789,"longitude":140.96083022,"id":"7fc5f2c7-a345-45dc-970b-45fa08f9754e"},{"name":"稲荷神社","prefectureName":"青森県","cityName":"青森市","streetName":"大字左堰字大科４０番地","latitude":40.91961638,"longitude":140.66421416,"id":"979065e1-d8a3-42d2-b8a4-468cb740f6ab"},{"name":"稲荷神社","prefectureName":"青森県","cityName":"青森市","streetName":"本町３丁目７番９号","latitude":40.82847332,"longitude":140.74990321,"id":"7efcc27f-f46f-4e4c-99eb-4eb5d78c3552"},{"name":"稲荷神社","prefectureName":"青森県","cityName":"青森市","streetName":"大字三内字丸山３７番地２","latitude":40.81570474,"longitude":140.70766706,"id":"b90c0691-797f-43be-af0a-5b47230f93ed"},{"name":"稲荷神社","prefectureName":"青森県","cityName":"五所川原市","streetName":"大字水野尾字宮井１５３番地","latitude":40.79282924,"longitude":140.48106212,"id":"d8ba0034-2df6-4b29-beb7-b9dc196da3e4"},{"name":"稲荷神社","prefectureName":"青森県","cityName":"つがる市","streetName":"稲垣町吉出霞５番地の１","latitude":40.86509601,"longitude":140.37664032,"id":"fbf33631-5ac8-407b-a869-6642215073c2"},{"name":"稲荷神社","prefectureName":"青森県","cityName":"北津軽郡中泊町","streetName":"大字宮川字色吉７６番地","latitude":40.96527244,"longitude":140.43151199,"id":"fc72f4e6-2420-474b-aa70-41b6fa5218fe"},{"name":"稲荷神社","prefectureName":"青森県","cityName":"つがる市","streetName":"木造柴田黒滝１０１番地","latitude":40.80543693,"longitude":140.39504934,"id":"c9e71996-5dcb-4290-83bd-54bfbe9bc259"},{"name":"稲荷神社","prefectureName":"青森県","cityName":"弘前市","streetName":"大字松木平字松元７番地１号","latitude":40.54945031,"longitude":140.497858,"id":"4c52e199-991d-4139-b695-4073579adcc7"},{"name":"稲荷神社","prefectureName":"青森県","cityName":"弘前市","streetName":"大字和徳町２１０番地","latitude":40.60971251,"longitude":140.48375351,"id":"a431c959-2b3b-4ad1-b36c-36d838818da1"},{"name":"稲荷神社","prefectureName":"青森県","cityName":"南津軽郡大鰐町","streetName":"大字宿川原字前平７０番地","latitude":40.52852443,"longitude":140.56185782,"id":"fe821ecf-2b9c-40b3-98c2-5dba175b4feb"},{"name":"稲荷神社","prefectureName":"青森県","cityName":"黒石市","streetName":"大字下目内沢字村ヨリ西家岸１１番地","latitude":40.6426345,"longitude":140.5946479,"id":"c43622b8-cb2e-4535-b6c2-1c757f37ebad"},{"name":"稲荷神社","prefectureName":"青森県","cityName":"黒石市","streetName":"大字豊岡字長坂６５番地１","latitude":40.62737374,"longitude":140.63913158,"id":"fc5d2ff2-6e5e-4121-ada4-9dcf2bf47fa9"},{"name":"稲荷神社","prefectureName":"青森県","cityName":"平川市","streetName":"松崎亀井２１番地３","latitude":40.59310003,"longitude":140.53556906,"id":"2ae5fa58-ee47-488d-8cbd-eb6e7ccad297"},{"name":"稲荷神社","prefectureName":"青森県","cityName":"むつ市","streetName":"川守町１０番１８号","latitude":41.26453386,"longitude":141.15063466,"id":"b64b02f5-1e7b-426c-96dd-63de865ae569"},{"name":"稲荷神社","prefectureName":"青森県","cityName":"むつ市","streetName":"大畑町孫次郎間１番地１","latitude":41.41301888,"longitude":141.16382058,"id":"2f553620-a76a-4a91-a880-0dbb53e9c7ef"},{"name":"稲荷神社","prefectureName":"青森県","cityName":"むつ市","streetName":"川内町下小倉平２４番地","latitude":41.22445857,"longitude":140.98502122,"id":"458b37c3-8c79-4b46-845e-fb990366cc8a"},{"name":"稲荷神社","prefectureName":"青森県","cityName":"上北郡横浜町","streetName":"字有畑６４番地","latitude":41.13022635,"longitude":141.27217666,"id":"75c5ad28-73fe-48ae-9cb2-b069b42c9804"},{"name":"稲荷神社","prefectureName":"青森県","cityName":"青森市","streetName":"大字小橋字伊沢５０番の２号","latitude":40.92135226,"longitude":140.6614893,"id":"7b3bf0cd-044c-4c12-9ae5-2b3f22cf65db"},{"name":"稲荷神社","prefectureName":"青森県","cityName":"青森市","streetName":"大字大野字若宮１３３番地","latitude":40.80325359,"longitude":140.73592434,"id":"005abcd7-bc8d-40f5-bf6d-3c1c5006b7dc"},{"name":"稲荷神社","prefectureName":"青森県","cityName":"青森市","streetName":"小柳１丁目１８番１６号","latitude":40.82198341,"longitude":140.79119968,"id":"fa6c72de-4e34-4579-979b-76a933e20e68"},{"name":"稲荷神社","prefectureName":"青森県","cityName":"東津軽郡蓬田村","streetName":"大字阿弥陀川字汐干３２番地","latitude":40.97128318,"longitude":140.65592122,"id":"cc08103b-a290-4621-b5be-e37d67a73857"},{"name":"稲荷神社","prefectureName":"青森県","cityName":"東津軽郡平内町","streetName":"大字茂浦字浦田２６番地","latitude":40.96373368,"longitude":140.85994763,"id":"7e1eb4b0-5267-4061-962c-91c5d73ecc20"},{"name":"稲荷神社","prefectureName":"青森県","cityName":"五所川原市","streetName":"大字太刀打字柳川１７６番地","latitude":40.82511918,"longitude":140.45504855,"id":"3ea0ef90-f243-4058-9a2b-4b8f170bba19"},{"name":"稲荷神社","prefectureName":"青森県","cityName":"西津軽郡鰺ヶ沢町","streetName":"大字長平町字乙音羽山５９番の２号","latitude":40.7797456,"longitude":140.2082837,"id":"6032fe13-3386-400c-8e90-fdaefb45d6f5"},{"name":"稲荷神社","prefectureName":"青森県","cityName":"つがる市","streetName":"木造菊川宝森１番地","latitude":40.81065116,"longitude":140.33907627,"id":"aba26fb7-87de-4764-974c-fc0bdae1f5e4"},{"name":"稲荷神社","prefectureName":"青森県","cityName":"弘前市","streetName":"大字楢木字用田２４５番地","latitude":40.68991536,"longitude":140.42229288,"id":"2d293997-68d0-4a78-a365-e65e5edd3342"},{"name":"稲荷神社","prefectureName":"青森県","cityName":"弘前市","streetName":"大字藤代１丁目１６番地１","latitude":40.61508877,"longitude":140.45072442,"id":"ae337f0a-5239-4e01-a2d5-1d13430accc8"},{"name":"稲荷神社","prefectureName":"青森県","cityName":"黒石市","streetName":"大字上目内沢字相野々堰添２９番地","latitude":40.6628905,"longitude":140.60722406,"id":"49acce89-9b03-4f91-9be4-30ec0f638f41"},{"name":"稲荷神社","prefectureName":"青森県","cityName":"黒石市","streetName":"青山８番地３","latitude":40.65373908,"longitude":140.61379886,"id":"e52e63f2-c4be-4205-a427-747b2de8dfc3"},{"name":"稲荷神社","prefectureName":"青森県","cityName":"平川市","streetName":"切明上井戸８１番地","latitude":40.52688623,"longitude":140.7468981,"id":"f0f54c5d-daf5-4262-8212-6a46284b83a0"},{"name":"稲荷神社","prefectureName":"青森県","cityName":"むつ市","streetName":"栗山町１９番４５号","latitude":41.30470051,"longitude":141.20523151,"id":"ebc07a3c-6e87-4bac-8c64-9c2b06b8d1cb"},{"name":"稲荷神社","prefectureName":"青森県","cityName":"むつ市","streetName":"川内町家ノ上４番地","latitude":41.1975198,"longitude":140.97443722,"id":"792aeb60-a9f3-4b17-803f-d48a7b5c6652"},{"name":"稲荷神社","prefectureName":"青森県","cityName":"下北郡大間町","streetName":"大字奥戸字新釜７３番地","latitude":41.4715432,"longitude":140.89113015,"id":"f254f22f-fff9-43f6-9115-1d324fc8c195"},{"name":"稲荷神社","prefectureName":"青森県","cityName":"下北郡佐井村","streetName":"大字長後字長後７番地","latitude":41.36997699,"longitude":140.82881468,"id":"9a54cf2d-fc8a-429c-86c7-39e2acfd82c0"},{"name":"稲荷神社","prefectureName":"青森県","cityName":"下北郡佐井村","streetName":"大字長後字福浦川目８番地","latitude":41.32761935,"longitude":140.80968358,"id":"cd18ceda-9f46-48f1-950a-33f7e11931ad"},{"name":"稲荷神社","prefectureName":"青森県","cityName":"青森市","streetName":"大字油川字千刈７４番地１","latitude":40.84445974,"longitude":140.70606627,"id":"879f20cd-cf1a-4803-bf99-08d7deb19674"},{"name":"稲荷神社","prefectureName":"青森県","cityName":"青森市","streetName":"大字合子沢字松森１２８番地","latitude":40.76772167,"longitude":140.75876797,"id":"b9daa625-bd8d-4b6f-8f2f-cf162d5928a5"},{"name":"稲荷神社","prefectureName":"青森県","cityName":"青森市","streetName":"大字荒川字品川１２１番地１号","latitude":40.77746711,"longitude":140.72505664,"id":"24702417-e5d0-4b8e-a077-eea63ba13a57"},{"name":"稲荷神社","prefectureName":"青森県","cityName":"東津軽郡蓬田村","streetName":"大字中沢字池田４２番地","latitude":40.95215449,"longitude":140.65701622,"id":"84c325a7-b65a-44fe-91dc-0f0e59d8c085"},{"name":"稲荷神社","prefectureName":"青森県","cityName":"八戸市","streetName":"南郷大字市野沢字林合１３番地","latitude":40.39611605,"longitude":141.44062693,"id":"b353a25a-2221-4bc3-8f8a-d03661d828c3"},{"name":"稲荷神社","prefectureName":"青森県","cityName":"三戸郡南部町","streetName":"大字小向字二又１０１番地","latitude":40.40315774,"longitude":141.23525395,"id":"41cfc183-678c-4e2a-881e-ce13423b073c"},{"name":"稲荷神社","prefectureName":"青森県","cityName":"三戸郡南部町","streetName":"大字斗賀字下斗賀２８番地","latitude":40.45697614,"longitude":141.34495799,"id":"7aa6a33a-280f-4609-aa21-f6a02368ce3d"},{"name":"稲荷神社","prefectureName":"青森県","cityName":"五所川原市","streetName":"大字飯詰字狐野１６９番地１２号","latitude":40.82514513,"longitude":140.49341801,"id":"0b53b74b-8151-4767-8452-2a0d3851121d"},{"name":"稲荷神社","prefectureName":"青森県","cityName":"西津軽郡鰺ヶ沢町","streetName":"大字芦萢町字響滝６７番地","latitude":40.70159149,"longitude":140.23023311,"id":"2cab2f9b-f507-49ef-9e51-2c30c5ed9bac"},{"name":"稲荷神社","prefectureName":"青森県","cityName":"つがる市","streetName":"木造出野里吉野１番地","latitude":40.84628766,"longitude":140.39937788,"id":"7e636f85-1b7a-42e8-9cf5-fbef7245fee0"},{"name":"稲荷神社","prefectureName":"青森県","cityName":"弘前市","streetName":"大字五代字山本７３６番地","latitude":40.61252372,"longitude":140.40506201,"id":"c60f4b51-3eb3-4bea-9db9-618619bfef8d"},{"name":"稲荷神社","prefectureName":"青森県","cityName":"弘前市","streetName":"大字鬼沢字山ノ越３２３番地","latitude":40.69960294,"longitude":140.40752734,"id":"f6242396-dcf4-4608-9e83-14cb6663f690"},{"name":"稲荷神社","prefectureName":"青森県","cityName":"黒石市","streetName":"大字小屋敷字宮岸１番地","latitude":40.67418335,"longitude":140.59705498,"id":"10b3155e-768b-49e3-9cc3-61e75004106c"},{"name":"稲荷神社","prefectureName":"青森県","cityName":"黒石市","streetName":"大字温湯字䖸下３１番地","latitude":40.60730754,"longitude":140.66636084,"id":"38b15352-4d73-41ae-a831-ac4b13c8218a"},{"name":"稲荷神社","prefectureName":"青森県","cityName":"南津軽郡田舎館村","streetName":"大字諏訪堂字川口２５番地","latitude":40.63181983,"longitude":140.53089541,"id":"309a7ffd-379b-45a8-84bc-8c8fd7a1926d"},{"name":"稲荷神社","prefectureName":"青森県","cityName":"平川市","streetName":"平田森上宮本２番地","latitude":40.5952652,"longitude":140.58116254,"id":"846061ef-9064-4c39-8e4a-12b1d834eb38"},{"name":"稲荷神社","prefectureName":"青森県","cityName":"上北郡野辺地町","streetName":"字向田７３番地","latitude":40.8642219,"longitude":141.1282745,"id":"7f7fb1e0-c9b5-462d-9975-e1b9c6b6f55d"},{"name":"稲荷神社","prefectureName":"青森県","cityName":"むつ市","streetName":"大字田名部字上道８７番地７","latitude":41.29286321,"longitude":141.23071396,"id":"43cfa6f1-042c-49d9-9991-a236bacd12c9"},{"name":"稲荷神社","prefectureName":"青森県","cityName":"下北郡東通村","streetName":"大字野牛字水ノ上９２番地","latitude":41.33665252,"longitude":141.36640376,"id":"e926e64c-27fd-453f-adff-afc3bcb0a6a2"},{"name":"稲荷神社","prefectureName":"青森県","cityName":"下北郡大間町","streetName":"大字大間字大間９１番地１","latitude":41.52814215,"longitude":140.90784124,"id":"bafc22d3-3cda-4c2e-b67e-ff475e9bd126"},{"name":"稲荷神社","prefectureName":"青森県","cityName":"下北郡風間浦村","streetName":"大字下風呂字湯ノ上３６番地３","latitude":41.487552,"longitude":140.9953375,"id":"1fcbc9ff-dcac-46db-9ed3-63b5c5dfd7ef"},{"name":"稲荷神社","prefectureName":"青森県","cityName":"青森市","streetName":"原別５丁目７番２号","latitude":40.84011228,"longitude":140.8064836,"id":"dc85b529-f4cc-4c96-bb34-85de112a64fd"},{"name":"稲荷神社","prefectureName":"青森県","cityName":"東津軽郡蓬田村","streetName":"大字長科字川瀬３５番地","latitude":40.96055922,"longitude":140.65517999,"id":"afae72d6-06e5-4d89-a07e-6623e9083660"},{"name":"稲荷神社","prefectureName":"青森県","cityName":"三戸郡田子町","streetName":"大字相米字相米２番地","latitude":40.33967722,"longitude":141.14347848,"id":"f377fb7b-a1f6-4c98-bba4-7cc1b0cd3b55"},{"name":"稲荷神社","prefectureName":"青森県","cityName":"五所川原市","streetName":"大字米田字八橋１８３番地","latitude":40.80537467,"longitude":140.46814297,"id":"991b7b2b-d358-490f-accf-7198027d8303"},{"name":"稲荷神社","prefectureName":"青森県","cityName":"北津軽郡鶴田町","streetName":"大字木筒字下掛橋５６番地","latitude":40.75142898,"longitude":140.41813843,"id":"c9b5f800-10f2-4145-9312-87a1efc92e5b"},{"name":"稲荷神社","prefectureName":"青森県","cityName":"つがる市","streetName":"木造千代田米盛６２番地","latitude":40.82281079,"longitude":140.33519297,"id":"0d88ac04-3db7-43b7-ba23-478ee26295b8"},{"name":"稲荷神社","prefectureName":"青森県","cityName":"西津軽郡深浦町","streetName":"大字大間越字上小屋野３９番地","latitude":40.6478945,"longitude":139.9273776,"id":"f4d5394b-0c99-4ac8-b238-7f9906d454a7"},{"name":"稲荷神社","prefectureName":"青森県","cityName":"弘前市","streetName":"大字大清水４丁目１０５番地１","latitude":40.57933263,"longitude":140.49145766,"id":"24c41705-6f70-4a21-a661-7849afd547ed"},{"name":"稲荷神社","prefectureName":"青森県","cityName":"弘前市","streetName":"大字新里字西里見７７番地","latitude":40.59212668,"longitude":140.51011342,"id":"e808ed0f-b153-49a7-be67-e8f68b737771"},{"name":"稲荷神社","prefectureName":"青森県","cityName":"黒石市","streetName":"大字牡丹平字稲荷沢下１１３番地","latitude":40.64208524,"longitude":140.6228209,"id":"648a2cf5-7bc8-4f37-9296-f7afdda3cdd0"},{"name":"稲荷神社","prefectureName":"青森県","cityName":"黒石市","streetName":"野際１丁目９１番地","latitude":40.65729918,"longitude":140.59790834,"id":"a87b3322-b94f-44ce-ab10-5370892809c4"},{"name":"稲荷神社","prefectureName":"青森県","cityName":"むつ市","streetName":"金谷２丁目５番１号","latitude":41.29362332,"longitude":141.19282742,"id":"9e7da93b-1515-4edd-8ab5-8c6d7690d86c"},{"name":"立野神社","prefectureName":"青森県","cityName":"五所川原市","streetName":"金木町喜良市桔梗野４０番地","latitude":40.89040175,"longitude":140.48716338,"id":"320b33a8-dba5-417f-9db7-fe6cbe71d009"},{"name":"粟島神社","prefectureName":"青森県","cityName":"青森市","streetName":"大字油川字浪岸３６番地の７号","latitude":40.85948754,"longitude":140.69208422,"id":"8fcf52ab-b7eb-45ac-88ba-82906be402f4"},{"name":"糠部神社","prefectureName":"青森県","cityName":"三戸郡三戸町","streetName":"大字梅内字城ノ下３４番地２","latitude":40.38163068,"longitude":141.26460211,"id":"0bc57356-9fdb-49b6-932b-20cf54da9c8b"},{"name":"細越神社","prefectureName":"青森県","cityName":"青森市","streetName":"大字細越字栄山３１１番地","latitude":40.78745197,"longitude":140.71100445,"id":"cfa65a77-7b00-416c-80ab-958d85c5ad9c"},{"name":"羽黒神社","prefectureName":"青森県","cityName":"弘前市","streetName":"大字石渡５丁目５番地１０","latitude":40.63093974,"longitude":140.45353154,"id":"029bf4fe-b6bd-4e7c-8f44-c032375cdc7d"},{"name":"羽黒神社","prefectureName":"青森県","cityName":"弘前市","streetName":"大字十腰内字野中１３番地３９","latitude":40.74561632,"longitude":140.34192188,"id":"d4f82cd4-ad44-4fcf-b7ff-92b1c0776dd2"},{"name":"羽黒神社","prefectureName":"青森県","cityName":"黒石市","streetName":"大字浅瀬石字清川１３６番地","latitude":40.63077813,"longitude":140.61055569,"id":"2e7ad7df-bf2b-4bb2-9019-28b37ef3756e"},{"name":"羽黒神社","prefectureName":"青森県","cityName":"弘前市","streetName":"大字宮地字宮本３５０番地","latitude":40.61530057,"longitude":140.38569662,"id":"08af3bc4-f327-446f-9f4b-36fbc78c9ab7"},{"name":"羽黒神社","prefectureName":"青森県","cityName":"青森市","streetName":"大字飛鳥字岸田８８番地","latitude":40.87517695,"longitude":140.67819871,"id":"d5534fd9-9477-4482-a580-d16934b4e987"},{"name":"羽黒神社","prefectureName":"青森県","cityName":"南津軽郡大鰐町","streetName":"大字大鰐字薬師館２１番地","latitude":40.51819566,"longitude":140.57535683,"id":"82a13312-7c8f-4ce1-814e-8474b6981337"},{"name":"胸肩神社","prefectureName":"青森県","cityName":"弘前市","streetName":"大字品川町８９番地","latitude":40.59444731,"longitude":140.47811874,"id":"659e35e0-8d0e-4570-8009-5b2cda652328"},{"name":"胸肩神社","prefectureName":"青森県","cityName":"青森市","streetName":"大字小橋字田川６２番地","latitude":40.92653232,"longitude":140.66486658,"id":"90682e7e-3fb2-4d12-85fb-30ffda66fc4b"},{"name":"胸肩神社","prefectureName":"青森県","cityName":"北津軽郡中泊町","streetName":"大字大沢内字二タ見３２９番地２","latitude":40.94355282,"longitude":140.44260099,"id":"32314d53-f12e-431e-9c1c-577b4e43f0f5"},{"name":"胸肩神社","prefectureName":"青森県","cityName":"五所川原市","streetName":"大字藻川字村崎６４４番地","latitude":40.85970859,"longitude":140.40565731,"id":"e7856c7b-8b79-4aa0-ae76-36627cbd95e7"},{"name":"胸肩神社","prefectureName":"青森県","cityName":"西津軽郡鰺ヶ沢町","streetName":"大字浜町８２番地","latitude":40.78504773,"longitude":140.20456979,"id":"0613d558-04c1-4068-8b02-a2f8bd5666e9"},{"name":"胸肩神社","prefectureName":"青森県","cityName":"五所川原市","streetName":"大字湊字船越２９９番地","latitude":40.8077573,"longitude":140.4460696,"id":"630f260d-bdb6-4287-b565-d3a1240d60e0"},{"name":"胸肩神社","prefectureName":"青森県","cityName":"つがる市","streetName":"稲垣町福富笹船２９番地","latitude":40.90776643,"longitude":140.38995114,"id":"cc5cd7ce-d99c-4673-91cc-a24fe9d4c7f3"},{"name":"胸肩神社","prefectureName":"青森県","cityName":"黒石市","streetName":"大字中川字篠村１８４番地","latitude":40.63110269,"longitude":140.59399578,"id":"a841deb6-5620-491e-b0af-998b297afb7c"},{"name":"舘神社","prefectureName":"青森県","cityName":"三戸郡階上町","streetName":"大字道仏字道仏３番地","latitude":40.44460656,"longitude":141.64649349,"id":"8ea12083-a305-4ccd-a1ab-a428d3dd8161"},{"name":"船岡久須志神社","prefectureName":"青森県","cityName":"東津軽郡外ヶ浜町","streetName":"字平舘船岡１３３番地","latitude":41.0431672,"longitude":140.6317871,"id":"b0f58be4-b9f4-4410-989f-6a867632005d"},{"name":"花松神社","prefectureName":"青森県","cityName":"上北郡七戸町","streetName":"字花松林ノ根３６番地","latitude":40.7231079,"longitude":141.20260706,"id":"ff5f9762-9b23-4d1c-a28c-024aa11883bd"},{"name":"若宮八幡神社","prefectureName":"青森県","cityName":"三戸郡南部町","streetName":"大字小向字村中３９番地","latitude":40.41115477,"longitude":141.26544218,"id":"fc0f6fee-6e43-4b94-adbf-85d521a47b56"},{"name":"若宮神社","prefectureName":"青森県","cityName":"下北郡東通村","streetName":"大字岩屋字向８７番地ノ内１号","latitude":41.2776673,"longitude":141.3289331,"id":"106a85de-8fdf-44d4-9b4b-d88deaac4033"},{"name":"若宮稲荷神社","prefectureName":"青森県","cityName":"北津軽郡中泊町","streetName":"大字田茂木字若宮９８０番地１","latitude":40.99804272,"longitude":140.39251965,"id":"81f2c2e5-321f-42da-bcdf-23e3ca7772bc"},{"name":"荒磯崎神社","prefectureName":"青森県","cityName":"南津軽郡藤崎町","streetName":"大字林崎字宮本８番地","latitude":40.66661671,"longitude":140.48806398,"id":"63803e67-8d07-47a6-b347-2cd921fefaf4"},{"name":"荒神社","prefectureName":"青森県","cityName":"三戸郡南部町","streetName":"大字鳥谷字鳥谷２２番地","latitude":40.35938059,"longitude":141.36324539,"id":"af34d5a8-4134-4886-bc96-479a3365a681"},{"name":"蒼前神社","prefectureName":"青森県","cityName":"三戸郡新郷村","streetName":"大字西越字中鶴間２１番地","latitude":40.42489334,"longitude":141.21584642,"id":"3f28b957-08bf-49fc-8d1d-5de39de82ca6"},{"name":"蓬田八幡宮神社","prefectureName":"青森県","cityName":"東津軽郡蓬田村","streetName":"大字蓬田字宮本２７番地１","latitude":40.9717165,"longitude":140.6559657,"id":"0cc503f1-5352-4783-b9c4-055b3c49ada3"},{"name":"蕪嶋神社","prefectureName":"青森県","cityName":"八戸市","streetName":"大字鮫町字鮫５６番地２","latitude":40.53857585,"longitude":141.55761512,"id":"d19d8ab6-5d69-4c7f-b231-f4cce96ef221"},{"name":"袰崎神社","prefectureName":"青森県","cityName":"下北郡東通村","streetName":"大字蒲野沢字石持１番地","latitude":41.33015688,"longitude":141.30278519,"id":"f5f9251f-76a0-49c6-8c52-c86b81d1243b"},{"name":"西宮神社","prefectureName":"青森県","cityName":"むつ市","streetName":"大畑町二枚橋４１番地","latitude":41.41749334,"longitude":141.15502372,"id":"23006996-5cca-45b2-8b8f-7ba1860ca7d3"},{"name":"西宮神社","prefectureName":"青森県","cityName":"むつ市","streetName":"川内町田野沢２７５番地","latitude":41.19185212,"longitude":141.0232229,"id":"00e4880e-426d-4ec6-afdd-6d94bd0ee37f"},{"name":"西宮神社","prefectureName":"青森県","cityName":"むつ市","streetName":"脇野沢蛸田４７番地","latitude":41.13355851,"longitude":140.79294295,"id":"9513140c-9239-4546-bb63-938f472164d0"},{"name":"諏訪神社","prefectureName":"青森県","cityName":"三戸郡南部町","streetName":"大字高瀬字宮野３８番地","latitude":40.41524743,"longitude":141.31968067,"id":"fa6603a3-f5f6-4276-b3ee-f49e5755100b"},{"name":"諏訪神社","prefectureName":"青森県","cityName":"青森市","streetName":"大字諏訪沢字山辺２１３番地","latitude":40.8274031,"longitude":140.82338531,"id":"fa1af998-cfdf-4bd3-be9f-2070aa2fd013"},{"name":"諏訪神社","prefectureName":"青森県","cityName":"弘前市","streetName":"大字向外瀬１丁目５番地１","latitude":40.62129691,"longitude":140.47380038,"id":"faea03f4-c2dc-4e82-ace6-390e95b136ba"},{"name":"諏訪神社","prefectureName":"青森県","cityName":"三戸郡南部町","streetName":"大字玉掛字諏訪ノ平４９番地１","latitude":40.41607738,"longitude":141.30450184,"id":"89e16951-c253-4fd8-bb8e-f683f29ea37c"},{"name":"諏訪神社","prefectureName":"青森県","cityName":"三戸郡南部町","streetName":"大字剣吉字上町４４番地ノ１","latitude":40.44493846,"longitude":141.3397419,"id":"4b8c1af5-240e-440b-b88f-41d0e58bb9c9"},{"name":"諏訪神社","prefectureName":"青森県","cityName":"上北郡六ヶ所村","streetName":"大字泊字川原１５８番地１","latitude":41.08685455,"longitude":141.39122914,"id":"8c294deb-f1f8-4458-8b25-4ea70be89243"},{"name":"諏訪神社","prefectureName":"青森県","cityName":"青森市","streetName":"栄町１丁目４番２６号","latitude":40.8237158,"longitude":140.76330526,"id":"ab6a01d7-3280-44f7-aedd-5a91791d62b5"},{"name":"諏訪神社","prefectureName":"青森県","cityName":"三戸郡田子町","streetName":"大字原字原６３番地","latitude":40.31209953,"longitude":141.12343458,"id":"f82e4536-9427-41b1-bc03-3531d97cc820"},{"name":"諏訪神社","prefectureName":"青森県","cityName":"東津軽郡平内町","streetName":"大字口広字左エ門次郎２２番地の１号","latitude":40.9260305,"longitude":140.9559197,"id":"7297f3e0-9842-4cda-885e-16a092c3828a"},{"name":"護穀神社","prefectureName":"青森県","cityName":"弘前市","streetName":"大字住吉町８番地１１","latitude":40.59727188,"longitude":140.473741,"id":"bb4bb31a-2924-4480-9fbc-f122173804c8"},{"name":"谷地頭神社","prefectureName":"青森県","cityName":"三沢市","streetName":"大字三沢字早稲田１２５４番２５","latitude":40.81437119,"longitude":141.36364866,"id":"4c7323ae-a676-432b-83f4-e0fb143c0fc2"},{"name":"豊受神社","prefectureName":"青森県","cityName":"南津軽郡田舎館村","streetName":"大字豊蒔字牡丹森２１６番地","latitude":40.6312069,"longitude":140.5501159,"id":"aa9f0188-a293-4df1-848f-f686c45eb640"},{"name":"豊受美神社","prefectureName":"青森県","cityName":"西津軽郡鰺ヶ沢町","streetName":"大字淀町３２番地","latitude":40.7797456,"longitude":140.2082837,"id":"a0ef9ddc-ed66-4042-a408-f43c2bf0dc25"},{"name":"豊﨑稲荷神社","prefectureName":"青森県","cityName":"つがる市","streetName":"豊富町千貫９３番地２号","latitude":40.96815064,"longitude":140.37262264,"id":"07670dd8-1c6b-4b80-967a-ece4bad6eaf1"},{"name":"貴船神社","prefectureName":"青森県","cityName":"弘前市","streetName":"大字取上３丁目１番地１","latitude":40.58604007,"longitude":140.48609105,"id":"9682fdc9-b9ae-4464-93a2-a96eca17664b"},{"name":"貴船神社","prefectureName":"青森県","cityName":"平川市","streetName":"新屋町村元２３番地","latitude":40.6077859,"longitude":140.5763677,"id":"1399b784-d589-4dc5-9955-4b92b9fcc6f7"},{"name":"貴船神社","prefectureName":"青森県","cityName":"南津軽郡大鰐町","streetName":"大字居土字高野平８８番地","latitude":40.518237,"longitude":140.567977,"id":"238d01c0-5258-4d8b-a4bf-7a0e1e4a989f"},{"name":"貴船神社","prefectureName":"青森県","cityName":"弘前市","streetName":"大字十面沢字沢田９２番地","latitude":40.72575735,"longitude":140.35382707,"id":"07603b19-0d82-47a0-9358-83cb120bfe34"},{"name":"貴船神社","prefectureName":"青森県","cityName":"青森市","streetName":"大字野内字鈴森２９１番地の２号","latitude":40.85518056,"longitude":140.8233647,"id":"0e899f02-d041-41bf-8472-9e93ce5ada64"},{"name":"貴船神社","prefectureName":"青森県","cityName":"黒石市","streetName":"北美町１丁目６５番地１０","latitude":40.65392479,"longitude":140.60216364,"id":"5ee667da-659f-48c2-a9b6-e8550c0cf548"},{"name":"貴船神社","prefectureName":"青森県","cityName":"東津軽郡平内町","streetName":"大字内童子字角頭９３番地３１３号","latitude":40.9260305,"longitude":140.9559197,"id":"a5e20cb0-374f-41ce-b56d-5b42d9c09e65"},{"name":"貴野神社","prefectureName":"青森県","cityName":"西津軽郡鰺ヶ沢町","streetName":"大字赤石町字宇名原１１０番地","latitude":40.7797456,"longitude":140.2082837,"id":"e0fa45e0-4dbd-4c1c-9667-ce5cde0b4a83"},{"name":"貴野神社","prefectureName":"青森県","cityName":"西津軽郡鰺ヶ沢町","streetName":"大字館前町字小津軽沢５８番地","latitude":40.7797456,"longitude":140.2082837,"id":"6609aaf9-2440-4a04-b9ac-786484c5a58d"},{"name":"貴野神社","prefectureName":"青森県","cityName":"西津軽郡深浦町","streetName":"大字風合瀬字大磯１１２番地","latitude":40.7415095,"longitude":140.02739393,"id":"42a91cc6-4aaf-42af-b92a-5532bf06bbb2"},{"name":"貴野神社","prefectureName":"青森県","cityName":"西津軽郡深浦町","streetName":"大字深浦字大舘２２０番地","latitude":40.6478945,"longitude":139.9273776,"id":"1af9a318-7477-4f4e-afd9-97d13c33820a"},{"name":"赤岩神社","prefectureName":"青森県","cityName":"下北郡東通村","streetName":"大字白糠字明神ノ上５番地","latitude":41.13180107,"longitude":141.3922526,"id":"cf329e23-4d1c-42b7-b41a-695bc4c75505"},{"name":"軻遇突智神社","prefectureName":"青森県","cityName":"西津軽郡鰺ヶ沢町","streetName":"大字南金沢町字上高根山３７７番地","latitude":40.7797456,"longitude":140.2082837,"id":"09a717cd-0a85-4e9f-b623-b4eb5ce2067c"},{"name":"近川稲荷神社金刀比羅神社","prefectureName":"青森県","cityName":"むつ市","streetName":"大湊浜町１番１号","latitude":41.27956835,"longitude":141.15790271,"id":"fbf238d7-6896-4fda-a7f5-f7782370810a"},{"name":"郷沢稲荷神社","prefectureName":"青森県","cityName":"東津軽郡蓬田村","streetName":"大字郷沢字浜田７５番地","latitude":40.99039786,"longitude":140.65122927,"id":"5eb91200-ced2-4c86-b41e-51168fcde278"},{"name":"野田神社","prefectureName":"青森県","cityName":"弘前市","streetName":"大字藤沢字野田１２２番地","latitude":40.56790834,"longitude":140.37135624,"id":"2250dda8-d601-4de3-9d48-441db9ec1222"},{"name":"金七五三神社","prefectureName":"青森県","cityName":"むつ市","streetName":"川内町宿野部後田２１番地","latitude":41.19769791,"longitude":140.99459142,"id":"b48ab0f5-84cb-4db4-b9d5-c5107860a034"},{"name":"金刀比羅神社","prefectureName":"青森県","cityName":"三戸郡階上町","streetName":"大字道仏字小舟渡１１番地","latitude":40.45371965,"longitude":141.67275915,"id":"085ca9fe-6dcb-498a-9a55-b9aac2ceb6dc"},{"name":"金山彦神社","prefectureName":"青森県","cityName":"つがる市","streetName":"木造福原妻元３３番地","latitude":40.79263634,"longitude":140.33083592,"id":"51512351-c01a-429a-bb99-231627bf0bb2"},{"name":"金峰神社","prefectureName":"青森県","cityName":"弘前市","streetName":"大字清水森字沼田７３番地","latitude":40.5705203,"longitude":140.5042929,"id":"6f281c6b-e684-4587-8fdb-ead9af310805"},{"name":"金峰神社","prefectureName":"青森県","cityName":"青森市","streetName":"大字新城字山田４０１番地","latitude":40.8220601,"longitude":140.747312,"id":"15b950b2-1ad3-430c-b8a8-54b5a59c7533"},{"name":"金神神社","prefectureName":"青森県","cityName":"むつ市","streetName":"大字城ヶ沢字角違２６番地","latitude":41.20575793,"longitude":141.0830733,"id":"4a532026-2d1c-4603-95df-5e7538b0c1e6"},{"name":"鉢森神社","prefectureName":"青森県","cityName":"むつ市","streetName":"大字田名部字十二林３３番地９","latitude":41.2927481,"longitude":141.1834781,"id":"41fc64ac-8bad-44f9-93c1-14acd6f03c90"},{"name":"鍵懸神社","prefectureName":"青森県","cityName":"下北郡東通村","streetName":"大字小田野沢字南通５５番地５０","latitude":41.2776673,"longitude":141.3289331,"id":"2078a9ed-5aa3-4426-a915-a89f0894fe44"},{"name":"長者山新羅神社","prefectureName":"青森県","cityName":"八戸市","streetName":"長者１丁目６番１０号","latitude":40.50342639,"longitude":141.49185669,"id":"a8e37bc4-22fd-49e1-aa66-e00a67e89d78"},{"name":"長谷山神社","prefectureName":"青森県","cityName":"三戸郡南部町","streetName":"大字大向字飛鳥６３番地","latitude":40.40324755,"longitude":141.2706837,"id":"4f3d8b8b-c9b7-4f92-b6bc-e1efe5219e2b"},{"name":"長谷澤神社","prefectureName":"青森県","cityName":"黒石市","streetName":"大字上十川字長谷沢一番囲１００番地２号","latitude":40.6426345,"longitude":140.5946479,"id":"33ee686e-b5ef-4d47-a3d5-3e6713b72a67"},{"name":"闇龗神社","prefectureName":"青森県","cityName":"五所川原市","streetName":"大字神山字鶉野３４番地１号","latitude":40.79186901,"longitude":140.51318477,"id":"f2a52e38-be6d-44c1-9e47-0a14f80dea79"},{"name":"闇龗神社","prefectureName":"青森県","cityName":"五所川原市","streetName":"大字漆川字浅井４８番地","latitude":40.81285418,"longitude":140.46255967,"id":"ffec0cf5-aae2-4aae-9c29-36c238897ef0"},{"name":"闇龗神社","prefectureName":"青森県","cityName":"つがる市","streetName":"稲垣町穂積桜田１番地","latitude":40.89004698,"longitude":140.4053533,"id":"ece4355b-feb8-429c-ab6c-9633d5d1415b"},{"name":"闇龗神社","prefectureName":"青森県","cityName":"北津軽郡鶴田町","streetName":"大字沖字岡田２９５番地","latitude":40.74800874,"longitude":140.46886824,"id":"65a97836-d81e-41df-bc6c-122351942f4a"},{"name":"闇龗神社","prefectureName":"青森県","cityName":"北津軽郡鶴田町","streetName":"大字中野字種元１４６番地","latitude":40.7586037,"longitude":140.4283846,"id":"19d8bd11-eba0-489c-bfba-38e1b5134dc0"},{"name":"闇龗神社","prefectureName":"青森県","cityName":"北津軽郡鶴田町","streetName":"大字山道字小泉６８番地","latitude":40.75726292,"longitude":140.45059416,"id":"060b4175-7aaf-4191-b065-682ca9f788df"},{"name":"闇＿神社","prefectureName":"青森県","cityName":"北津軽郡板柳町","streetName":"大字飯田字村元２９番地","latitude":40.67234624,"longitude":140.47404791,"id":"45a1045a-aff0-4eb3-aee9-55de783fb768"},{"name":"阿蘇神社","prefectureName":"青森県","cityName":"平川市","streetName":"唐竹薬師沢９０番地","latitude":40.55454299,"longitude":140.6101644,"id":"83345d17-99b4-494b-a345-01311d056390"},{"name":"青森県護国神社","prefectureName":"青森県","cityName":"弘前市","streetName":"大字下白銀町１番地２号","latitude":40.60946206,"longitude":140.46754598,"id":"02288fe6-1327-43a7-b24f-26efe2e378bc"},{"name":"香取神社","prefectureName":"青森県","cityName":"弘前市","streetName":"大字富栄字平岡２８番地","latitude":40.63905178,"longitude":140.41724833,"id":"9c66269f-ea4c-4c1d-999c-c4b19e4c488c"},{"name":"香取神社","prefectureName":"青森県","cityName":"青森市","streetName":"大字大矢沢字里見２３３番２","latitude":40.77692991,"longitude":140.78362119,"id":"3468746f-be7d-432c-9ced-2e7ac60b85aa"},{"name":"香取神社","prefectureName":"青森県","cityName":"五所川原市","streetName":"大字持子沢字笠野前３４７番地","latitude":40.7445327,"longitude":140.52522987,"id":"70cc7363-2d7d-438b-be66-90a00e53fd79"},{"name":"香取神社","prefectureName":"青森県","cityName":"西津軽郡鰺ヶ沢町","streetName":"大字浜横沢町字椛ノ沢２１番地","latitude":40.7797456,"longitude":140.2082837,"id":"6046e19b-6650-4a88-8e7c-980808d70c32"},{"name":"馬曆神社","prefectureName":"青森県","cityName":"三戸郡三戸町","streetName":"大字川守田字下比良１９番地","latitude":40.39656761,"longitude":141.26441529,"id":"79f07cf5-f610-4eb4-8ad9-b2bd7e5ac12b"},{"name":"高倉八幡神社","prefectureName":"青森県","cityName":"西津軽郡深浦町","streetName":"大字久田字簾沢４２番地","latitude":40.6478945,"longitude":139.9273776,"id":"374152a1-6598-491d-ba32-3e10d16b0a21"},{"name":"高倉神社","prefectureName":"青森県","cityName":"西津軽郡鰺ヶ沢町","streetName":"大字深谷町字若山１３８番地１号","latitude":40.7797456,"longitude":140.2082837,"id":"65023b53-ee03-42d1-8ca8-cdbf1ec1b810"},{"name":"高倉神社","prefectureName":"青森県","cityName":"つがる市","streetName":"木造越水長谷川５６番地","latitude":40.79255758,"longitude":140.28702573,"id":"3ff9f620-2e8f-4237-b5eb-5193a6cdff16"},{"name":"高倉神社","prefectureName":"青森県","cityName":"西津軽郡鰺ヶ沢町","streetName":"大字南金沢町字晴間３８番地１","latitude":40.7797456,"longitude":140.2082837,"id":"cd634766-b731-4d73-9cc1-8839fec60116"},{"name":"高倉神社","prefectureName":"青森県","cityName":"西津軽郡鰺ヶ沢町","streetName":"大字湯舟町字七尾１９６番の１","latitude":40.7797456,"longitude":140.2082837,"id":"7c1fd520-3284-4dc5-a0b1-4926df5ce1a2"},{"name":"高倉神社","prefectureName":"青森県","cityName":"西津軽郡鰺ヶ沢町","streetName":"大字南浮田町字米山２５番地３","latitude":40.7797456,"longitude":140.2082837,"id":"5dd69177-eec7-4ecc-8c10-892aec93d51b"},{"name":"高倉神社","prefectureName":"青森県","cityName":"西津軽郡鰺ヶ沢町","streetName":"大字小屋敷町字袖ケ崎７７番地","latitude":40.7797456,"longitude":140.2082837,"id":"b8a893b9-74d4-420d-bd9f-8c45cdc0fbee"},{"name":"高倉神社","prefectureName":"青森県","cityName":"西津軽郡鰺ヶ沢町","streetName":"大字北浮田町字今須１６番地","latitude":40.7797456,"longitude":140.2082837,"id":"1f450d73-5678-4cdd-b800-48e9bacb6a14"},{"name":"高倉神社","prefectureName":"青森県","cityName":"西津軽郡鰺ヶ沢町","streetName":"大字日照田町字野脇１３０番地","latitude":40.7797456,"longitude":140.2082837,"id":"fb3fe26f-4996-4257-b417-a0a5bad309e1"},{"name":"高増神社","prefectureName":"青森県","cityName":"北津軽郡板柳町","streetName":"大字大俵字和田４２４番地","latitude":40.6958961,"longitude":140.4573237,"id":"60b93dfd-74ed-47aa-b5a5-c7f30065bc2f"},{"name":"高山神社","prefectureName":"青森県","cityName":"八戸市","streetName":"南郷大字島守字北向４３番地","latitude":40.42338321,"longitude":141.47603109,"id":"6e3956ba-71f8-46e1-8b42-fe9686f80796"},{"name":"高山稲荷神社","prefectureName":"青森県","cityName":"つがる市","streetName":"牛潟町鷲野沢１４７番地１号","latitude":40.93799666,"longitude":140.31220729,"id":"41e3450c-c43a-4ede-92a8-daaaafb22bc5"},{"name":"高岩神社","prefectureName":"青森県","cityName":"八戸市","streetName":"大字鮫町字高岩２４番地","latitude":40.50064254,"longitude":141.62023544,"id":"eb49d84a-dacf-476e-90eb-cbbc1e46692a"},{"name":"高根八幡宮神社","prefectureName":"青森県","cityName":"東津軽郡蓬田村","streetName":"大字広瀬字高根２６番地１","latitude":41.02026344,"longitude":140.61018679,"id":"03a341d2-d6a9-4ef6-ad8d-16f0107152b0"},{"name":"高清水神社","prefectureName":"青森県","cityName":"十和田市","streetName":"大字相坂字高清水７４番地２号","latitude":40.63328261,"longitude":141.25044113,"id":"f8b684c1-db9e-4d97-875c-fca456e78e3d"},{"name":"高照神社","prefectureName":"青森県","cityName":"弘前市","streetName":"大字高岡字神馬野８７番地","latitude":40.6232598,"longitude":140.35447683,"id":"24fabdd0-f626-4144-88c2-23bf9a1a9709"},{"name":"高皇産霊神社","prefectureName":"青森県","cityName":"つがる市","streetName":"木造柴田弥生田５８番地","latitude":40.80710772,"longitude":140.35769698,"id":"3355a6cc-88f3-4f95-ac68-aa38993769f9"},{"name":"高良神社","prefectureName":"青森県","cityName":"三戸郡五戸町","streetName":"大字倉石中市字田茂平６６番地","latitude":40.50726452,"longitude":141.25632566,"id":"b7cd8457-feae-4d0b-9352-493c37cd03d7"},{"name":"高龗神社","prefectureName":"青森県","cityName":"五所川原市","streetName":"大字長富字竹崎１９番地","latitude":40.86401222,"longitude":140.45521977,"id":"3a6e5f91-ad68-4aef-838b-7c5d0f0ac460"},{"name":"鬼神社","prefectureName":"青森県","cityName":"弘前市","streetName":"大字鬼沢字菖蒲沢１５１番地","latitude":40.68561278,"longitude":140.41459915,"id":"9d55f34d-9129-479b-832e-9b0d66f300fc"},{"name":"鹿島神社","prefectureName":"青森県","cityName":"中津軽郡西目屋村","streetName":"大字村市字稲葉２１３番地２号","latitude":40.5769301,"longitude":140.2965183,"id":"385cf4ce-4ec9-493d-9581-85e14102cf3a"},{"name":"鹿島神社","prefectureName":"青森県","cityName":"北津軽郡板柳町","streetName":"大字滝井字川崎４８番地３号","latitude":40.70128084,"longitude":140.5140133,"id":"772c43df-3e40-4439-a69b-367b22fe96ed"},{"name":"鹿嶋神社","prefectureName":"青森県","cityName":"北津軽郡板柳町","streetName":"大字高増字宮本１４番地","latitude":40.72186995,"longitude":140.4875205,"id":"70803dcc-8960-41ba-9a31-71572c4fe3e3"},{"name":"鹿嶋神社","prefectureName":"青森県","cityName":"南津軽郡藤崎町","streetName":"大字藤越字西一本木１８番地","latitude":40.65008275,"longitude":140.50837427,"id":"37a03443-6267-49e3-abd5-ab20d869af5f"},{"name":"鹿嶋神社","prefectureName":"青森県","cityName":"つがる市","streetName":"木造菰槌磯ノ松１７番地","latitude":40.85513743,"longitude":140.33149782,"id":"0c8e4662-b713-4654-a4c7-d6fe1eb25d30"},{"name":"鹿嶋神社","prefectureName":"青森県","cityName":"南津軽郡藤崎町","streetName":"大字藤崎字若前１５番地","latitude":40.65644838,"longitude":140.49479728,"id":"0a67cfbe-06b7-442e-a074-f8f5a5ecc196"},{"name":"鹿嶋神社","prefectureName":"青森県","cityName":"つがる市","streetName":"木造大畑宮崎３２番４号地","latitude":40.84108152,"longitude":140.35659884,"id":"fefc7987-30cd-40f0-a91c-a01efe8d15ae"},{"name":"鹿嶋神社","prefectureName":"青森県","cityName":"五所川原市","streetName":"大字毘沙門字東中久保５番地","latitude":40.84447828,"longitude":140.45710369,"id":"2c972b0f-9bb5-4763-b27e-6ef7b84e2582"},{"name":"鹿嶋神社","prefectureName":"青森県","cityName":"五所川原市","streetName":"大字桜田字鴻ノ巣９番地","latitude":40.84148416,"longitude":140.4577731,"id":"1064f671-fe3b-4fee-9ec8-e52c76fbbc48"},{"name":"鹿嶌神社","prefectureName":"青森県","cityName":"中津軽郡西目屋村","streetName":"大字大秋字都谷森１２０番地","latitude":40.57786537,"longitude":140.26679836,"id":"0950a872-98a2-48bd-9893-993f4018ffb8"},{"name":"黒石神社","prefectureName":"青森県","cityName":"黒石市","streetName":"大字市ノ町２０番地","latitude":40.64137073,"longitude":140.59354248,"id":"f9a68563-90a4-488c-97a2-95eb7a82b702"},{"name":"龍田神社","prefectureName":"青森県","cityName":"西津軽郡深浦町","streetName":"大字田野沢字成瀬８３番地","latitude":40.75882467,"longitude":140.04227196,"id":"fa0f3aef-608d-47fb-bf30-14800e31e971"},{"name":"龍興山神社","prefectureName":"青森県","cityName":"八戸市","streetName":"南郷大字島守字内山１１５番地","latitude":40.4202758,"longitude":141.48889358,"id":"47869095-e209-43da-b906-dc6294f179e2"},{"name":"龗神社","prefectureName":"青森県","cityName":"八戸市","streetName":"内丸２丁目１番５１号","latitude":40.51488594,"longitude":141.49040354,"id":"b8b10681-8326-4992-b9e7-d12ac2055488"},{"name":"三戸大神宮","prefectureName":"青森県","cityName":"三戸郡三戸町","streetName":"大字同心町字諏訪内４６番地","latitude":40.37562569,"longitude":141.25553402,"id":"429338a0-7ee7-49d0-9efe-efc5944e07c4"},{"name":"天地身一太神宮","prefectureName":"青森県","cityName":"十和田市","streetName":"穂並町１１番６号","latitude":40.60238458,"longitude":141.22292531,"id":"11f5e100-103f-4cbf-9779-1e9fa20123f3"}]