[
    {
        "name": "一景島神社",
        "prefectureName": "宮城県",
        "cityName": "気仙沼市",
        "streetName": "弁天町１丁目９番２４号",
        "latitude": 38.89666005,
        "longitude": 141.58017449,
        "id": "a1962cdf-0790-4cea-ac28-61f3ba859278"
    },
    {
        "name": "七郷神社",
        "prefectureName": "宮城県",
        "cityName": "仙台市若林区",
        "streetName": "荒井４丁目１０番地の２６",
        "latitude": 38.2446382,
        "longitude": 140.94161939,
        "id": "154480a7-bb27-4c46-b6bf-fa57edc0855e"
    },
    {
        "name": "三國神社",
        "prefectureName": "宮城県",
        "cityName": "牡鹿郡女川町",
        "streetName": "横浦字三国１番地",
        "latitude": 38.4454472,
        "longitude": 141.4430212,
        "id": "5f7d5545-ab8f-4ae9-a969-9b56df0d242b"
    },
    {
        "name": "三山大神教湯殿山神社",
        "prefectureName": "宮城県",
        "cityName": "石巻市",
        "streetName": "清水町２丁目１４番２８号",
        "latitude": 38.4410257,
        "longitude": 141.29125351,
        "id": "9beb0d24-8489-458f-9ab9-660354204da0"
    },
    {
        "name": "三峯神社",
        "prefectureName": "宮城県",
        "cityName": "栗原市",
        "streetName": "若柳字川南道伝前１１３番地",
        "latitude": 38.76653158,
        "longitude": 141.13033121,
        "id": "e678b37c-4042-4d04-9053-5168bde26685"
    },
    {
        "name": "三島神社",
        "prefectureName": "宮城県",
        "cityName": "角田市",
        "streetName": "島田字間野田６番地",
        "latitude": 37.94054317,
        "longitude": 140.81626309,
        "id": "788c52ee-a736-4a00-a141-9108cd299e9e"
    },
    {
        "name": "三嶋神社",
        "prefectureName": "宮城県",
        "cityName": "本吉郡南三陸町",
        "streetName": "歌津字伊里前５５番地",
        "latitude": 38.71727778,
        "longitude": 141.52416311,
        "id": "5beabcd4-8345-44d7-aab6-f5ddd8348902"
    },
    {
        "name": "三方島神社",
        "prefectureName": "宮城県",
        "cityName": "登米市",
        "streetName": "迫町北方字一番江２０番地の２",
        "latitude": 38.72983353,
        "longitude": 141.15878555,
        "id": "cdf86103-53b6-4f31-bfca-d041eaa7cc9f"
    },
    {
        "name": "三滝神社",
        "prefectureName": "宮城県",
        "cityName": "白石市",
        "streetName": "小原字明神前３０番地",
        "latitude": 37.9493545,
        "longitude": 140.55471671,
        "id": "4f33b9c3-750e-4481-9bc4-fa2ac4c14c48"
    },
    {
        "name": "三輪足神社",
        "prefectureName": "宮城県",
        "cityName": "遠田郡美里町",
        "streetName": "成田字西谷地６３番地",
        "latitude": 38.5444047,
        "longitude": 141.0566995,
        "id": "de798af3-35d9-465c-9971-5a34eed438e0"
    },
    {
        "name": "下増田神社",
        "prefectureName": "宮城県",
        "cityName": "名取市",
        "streetName": "下増田字屋敷６４番地",
        "latitude": 38.13708943,
        "longitude": 140.93569214,
        "id": "7bbf7a3d-ee7c-41c7-a51e-aea8769ded02"
    },
    {
        "name": "中田神社",
        "prefectureName": "宮城県",
        "cityName": "仙台市太白区",
        "streetName": "西中田１丁目２０番１２号",
        "latitude": 38.19806976,
        "longitude": 140.88128444,
        "id": "d459575a-b79b-4750-9ef3-299d573b99cb"
    },
    {
        "name": "久集比奈神社",
        "prefectureName": "宮城県",
        "cityName": "石巻市",
        "streetName": "高木字上品山２番地",
        "latitude": 38.49931226,
        "longitude": 141.3574038,
        "id": "116a7d51-e3af-4bcd-871f-959836c21bc4"
    },
    {
        "name": "久須師神社",
        "prefectureName": "宮城県",
        "cityName": "牡鹿郡女川町",
        "streetName": "江島字江島５４番地",
        "latitude": 38.39906828,
        "longitude": 141.5938041,
        "id": "506bd1c9-a8b9-4c9b-a13c-bcacb8fc5f1b"
    },
    {
        "name": "久須師神社",
        "prefectureName": "宮城県",
        "cityName": "気仙沼市",
        "streetName": "田尻１１２番地",
        "latitude": 38.86076249,
        "longitude": 141.610462,
        "id": "e097d8cc-ec0c-4d02-8ace-a88a56764b91"
    },
    {
        "name": "久須師神社",
        "prefectureName": "宮城県",
        "cityName": "牡鹿郡女川町",
        "streetName": "飯子浜字飯子３５番地",
        "latitude": 38.39825391,
        "longitude": 141.48217463,
        "id": "390fc257-62ce-438a-81a9-ec37749c677a"
    },
    {
        "name": "久須師神社",
        "prefectureName": "宮城県",
        "cityName": "石巻市",
        "streetName": "長面字大入山２９番地",
        "latitude": 38.55089379,
        "longitude": 141.45605616,
        "id": "8ff71acd-e219-44ca-a55e-beb295d4a708"
    },
    {
        "name": "久須志神社",
        "prefectureName": "宮城県",
        "cityName": "栗原市",
        "streetName": "栗駒栗原西沢１０３番地",
        "latitude": 38.7975589,
        "longitude": 141.03168439,
        "id": "704d4472-ea8a-4f53-a3e4-a961e8d0bfe7"
    },
    {
        "name": "久須志神社",
        "prefectureName": "宮城県",
        "cityName": "本吉郡南三陸町",
        "streetName": "志津川字松井田７３番地",
        "latitude": 38.69355645,
        "longitude": 141.48265584,
        "id": "b66b79e6-3e38-4c5c-975c-58f4ea3e52f6"
    },
    {
        "name": "久須志神社",
        "prefectureName": "宮城県",
        "cityName": "本吉郡南三陸町",
        "streetName": "戸倉字滝浜近東囲５７番地",
        "latitude": 38.6806264,
        "longitude": 141.4624746,
        "id": "a2bcc762-f36e-4454-9f01-3118724690a2"
    },
    {
        "name": "二の宮神社",
        "prefectureName": "宮城県",
        "cityName": "富谷市",
        "streetName": "二ノ関館下９２番地",
        "latitude": 38.39938355,
        "longitude": 140.88896889,
        "id": "99fc616f-64be-4b2c-85b0-b70223c0522c"
    },
    {
        "name": "二俣神社",
        "prefectureName": "宮城県",
        "cityName": "石巻市",
        "streetName": "三輪田字尾崎前２番地",
        "latitude": 38.50212787,
        "longitude": 141.31627918,
        "id": "19750459-c612-4557-a70d-a142fe587ef4"
    },
    {
        "name": "二木神社",
        "prefectureName": "宮城県",
        "cityName": "仙台市宮城野区",
        "streetName": "田子３丁目２番４０号",
        "latitude": 38.28194406,
        "longitude": 140.9645066,
        "id": "b534fa1f-2b78-4545-80d5-846d1b31f859"
    },
    {
        "name": "二渡神社",
        "prefectureName": "宮城県",
        "cityName": "牡鹿郡女川町",
        "streetName": "高白浜字崎山５３番地１",
        "latitude": 38.4454472,
        "longitude": 141.4430212,
        "id": "cb97176e-3498-4862-b3c3-bd04676deb6a"
    },
    {
        "name": "二渡神社",
        "prefectureName": "宮城県",
        "cityName": "石巻市",
        "streetName": "竹浜字磯棚１番地",
        "latitude": 38.36341524,
        "longitude": 141.43130632,
        "id": "eb38428b-ec0b-4a37-95ad-705f25175084"
    },
    {
        "name": "二渡神社",
        "prefectureName": "宮城県",
        "cityName": "牡鹿郡女川町",
        "streetName": "大石原浜字向５３番地",
        "latitude": 38.39896169,
        "longitude": 141.46545385,
        "id": "4ef10094-b512-4925-a41f-e60a82ac0fa4"
    },
    {
        "name": "二渡神社",
        "prefectureName": "宮城県",
        "cityName": "石巻市",
        "streetName": "福貴浦字福貴屋敷２３番地",
        "latitude": 38.35464997,
        "longitude": 141.44471098,
        "id": "81924c2c-a768-464e-85e6-847ccd5ad45d"
    },
    {
        "name": "二渡神社",
        "prefectureName": "宮城県",
        "cityName": "本吉郡南三陸町",
        "streetName": "戸倉字長清水３３番地",
        "latitude": 38.63616292,
        "longitude": 141.50737897,
        "id": "741574d2-2fc2-47c2-ab37-73de0953f778"
    },
    {
        "name": "二渡神社",
        "prefectureName": "宮城県",
        "cityName": "牡鹿郡女川町",
        "streetName": "小乗浜字向２３番地の１",
        "latitude": 38.43773177,
        "longitude": 141.45538127,
        "id": "70a5b3e4-f319-413f-b96d-de85b22c6d53"
    },
    {
        "name": "二渡神社",
        "prefectureName": "宮城県",
        "cityName": "柴田郡村田町",
        "streetName": "大字沼田字中森山９番地",
        "latitude": 38.08442738,
        "longitude": 140.70704023,
        "id": "749c34b7-3cec-46ae-b107-c10a56d33a6e"
    },
    {
        "name": "五十瀨神社",
        "prefectureName": "宮城県",
        "cityName": "栗原市",
        "streetName": "若柳字川南上堤７９番地",
        "latitude": 38.77463041,
        "longitude": 141.12131228,
        "id": "98479fd0-a4d3-4773-8fa4-bdae2475e4d7"
    },
    {
        "name": "五十瀬神社",
        "prefectureName": "宮城県",
        "cityName": "登米市",
        "streetName": "石越町南郷字高森３２２番地の１",
        "latitude": 38.75868706,
        "longitude": 141.17472208,
        "id": "9f3cc16b-5aae-4b1b-bed7-0e2e294bbeeb"
    },
    {
        "name": "五十瀬神社",
        "prefectureName": "宮城県",
        "cityName": "栗原市",
        "streetName": "栗駒猿飛来神明１９番地",
        "latitude": 38.81648612,
        "longitude": 141.00188646,
        "id": "52eedd76-25c9-4251-8184-952b480d01e2"
    },
    {
        "name": "五十瀬神社",
        "prefectureName": "宮城県",
        "cityName": "栗原市",
        "streetName": "金成有壁大日前６５番地",
        "latitude": 38.87104422,
        "longitude": 141.11946716,
        "id": "e38bd3e5-26cd-4ade-aa27-cecb52da64fb"
    },
    {
        "name": "五十鈴神社",
        "prefectureName": "宮城県",
        "cityName": "牡鹿郡女川町",
        "streetName": "大字塚浜字小屋取浜２番地の２",
        "latitude": 38.4454472,
        "longitude": 141.4430212,
        "id": "7ffffa64-69e1-4b68-b17a-ef14ea5e3800"
    },
    {
        "name": "五十鈴神社",
        "prefectureName": "宮城県",
        "cityName": "東松島市",
        "streetName": "小松字伊勢前１００番地",
        "latitude": 38.43338851,
        "longitude": 141.2127934,
        "id": "8c43572d-bb11-4c6a-94dc-4ff7d3d00142"
    },
    {
        "name": "五十鈴神社",
        "prefectureName": "宮城県",
        "cityName": "石巻市",
        "streetName": "泊浜新畑１番地",
        "latitude": 38.4344851,
        "longitude": 141.3028892,
        "id": "973d2445-34d6-4052-9683-ce60fdd045bf"
    },
    {
        "name": "五十鈴神社",
        "prefectureName": "宮城県",
        "cityName": "牡鹿郡女川町",
        "streetName": "野々浜字野々浜３８番地",
        "latitude": 38.39395406,
        "longitude": 141.46805939,
        "id": "8b969f1a-9b9e-4b12-af38-2af241cb7638"
    },
    {
        "name": "五十鈴神社",
        "prefectureName": "宮城県",
        "cityName": "石巻市",
        "streetName": "桃浦字台２７番地",
        "latitude": 38.39832184,
        "longitude": 141.42728581,
        "id": "f70b1859-4710-45a5-8a87-9b78f789d03b"
    },
    {
        "name": "五十鈴神社",
        "prefectureName": "宮城県",
        "cityName": "東松島市",
        "streetName": "大曲字寺沼２２番地",
        "latitude": 38.42665096,
        "longitude": 141.23816348,
        "id": "b8238550-ed9a-404d-ad89-b2c6f50f0a10"
    },
    {
        "name": "五十鈴神社",
        "prefectureName": "宮城県",
        "cityName": "牡鹿郡女川町",
        "streetName": "桐ケ崎字桐ケ崎１２１番地の１",
        "latitude": 38.44119873,
        "longitude": 141.47727635,
        "id": "a1ee5dde-a71f-49e4-a776-8ba19d2a8f0a"
    },
    {
        "name": "五十鈴神社",
        "prefectureName": "宮城県",
        "cityName": "東松島市",
        "streetName": "宮戸字村２６番地",
        "latitude": 38.32578506,
        "longitude": 141.15423428,
        "id": "0f970e5f-d9db-4406-8b79-65414ecc8a5e"
    },
    {
        "name": "五十鈴神社",
        "prefectureName": "宮城県",
        "cityName": "石巻市",
        "streetName": "広渕字米ケ崎３９番地",
        "latitude": 38.48002155,
        "longitude": 141.21465756,
        "id": "bfc663d2-07b8-46e2-8771-f6eb2c418a3d"
    },
    {
        "name": "五十鈴神社",
        "prefectureName": "宮城県",
        "cityName": "石巻市",
        "streetName": "月浦字高頭山７番地",
        "latitude": 38.4344851,
        "longitude": 141.3028892,
        "id": "631c9614-5681-4ed9-812e-443efd5b052b"
    },
    {
        "name": "五十鈴神社",
        "prefectureName": "宮城県",
        "cityName": "東松島市",
        "streetName": "小野字笹森２番地",
        "latitude": 38.4056852,
        "longitude": 141.15582581,
        "id": "0ee9b27e-11a2-49ee-ab21-705dc6d348f2"
    },
    {
        "name": "五十鈴神社",
        "prefectureName": "宮城県",
        "cityName": "石巻市",
        "streetName": "狐崎浜字鹿立屋敷１９番地",
        "latitude": 38.4344851,
        "longitude": 141.3028892,
        "id": "74e13243-efce-4573-bddc-ab58c3dec008"
    },
    {
        "name": "五十鈴神社",
        "prefectureName": "宮城県",
        "cityName": "牡鹿郡女川町",
        "streetName": "大字針浜字針浜２５２番地",
        "latitude": 38.4454472,
        "longitude": 141.4430212,
        "id": "5b63bf77-7e57-4f61-979a-d5d7c900d4e6"
    },
    {
        "name": "五十鈴神社",
        "prefectureName": "宮城県",
        "cityName": "石巻市",
        "streetName": "小積浜字小積山７番地",
        "latitude": 38.37109271,
        "longitude": 141.4562089,
        "id": "3495375d-8137-4c13-827b-09c1bb64db1a"
    },
    {
        "name": "五十鈴神社",
        "prefectureName": "宮城県",
        "cityName": "気仙沼市",
        "streetName": "魚町２丁目６番７号",
        "latitude": 38.90671711,
        "longitude": 141.57898808,
        "id": "d2cb2c16-5606-42da-ac3d-2d803ed27beb"
    },
    {
        "name": "五十鈴神社",
        "prefectureName": "宮城県",
        "cityName": "石巻市",
        "streetName": "鮫浦細田１１番地",
        "latitude": 38.38098678,
        "longitude": 141.48641947,
        "id": "824e1169-82d7-4b23-9c9d-6a8aa589e033"
    },
    {
        "name": "五十鈴神社",
        "prefectureName": "宮城県",
        "cityName": "石巻市",
        "streetName": "給分浜入沢１９番地",
        "latitude": 38.4344851,
        "longitude": 141.3028892,
        "id": "4b3e8516-0223-42a1-a863-0cd22011470e"
    },
    {
        "name": "五十鈴神社",
        "prefectureName": "宮城県",
        "cityName": "石巻市",
        "streetName": "雄勝町熊沢字熊沢５０番地",
        "latitude": 38.5090431,
        "longitude": 141.53314143,
        "id": "b0d070aa-9f0e-4ff5-84fe-3a42637ff3aa"
    },
    {
        "name": "五十鈴神社",
        "prefectureName": "宮城県",
        "cityName": "石巻市",
        "streetName": "前網浜赤島２１番地",
        "latitude": 38.4344851,
        "longitude": 141.3028892,
        "id": "da0bbdac-b7b5-4bc1-ba27-535b36356c90"
    },
    {
        "name": "五十鈴神社",
        "prefectureName": "宮城県",
        "cityName": "石巻市",
        "streetName": "水明南２丁目１２番１５号",
        "latitude": 38.4344851,
        "longitude": 141.3028892,
        "id": "96b019cd-000e-4fb3-be67-914b3dd8aec0"
    },
    {
        "name": "五十鈴神社",
        "prefectureName": "宮城県",
        "cityName": "石巻市",
        "streetName": "雄勝町分浜字分浜２３８番地",
        "latitude": 38.49770143,
        "longitude": 141.49070685,
        "id": "e3fd157a-ceca-4ad4-bd08-a4da67ba7352"
    },
    {
        "name": "五十鈴神社",
        "prefectureName": "宮城県",
        "cityName": "石巻市",
        "streetName": "雄勝町雄勝字唐桑９番地の２",
        "latitude": 38.51224651,
        "longitude": 141.47712737,
        "id": "63dab9d5-5f1a-4483-b86e-01de0a96b49f"
    },
    {
        "name": "五十鈴神社",
        "prefectureName": "宮城県",
        "cityName": "牡鹿郡女川町",
        "streetName": "塚浜字塚浜１３８番地の１",
        "latitude": 38.4454472,
        "longitude": 141.4430212,
        "id": "46f9a62d-9a9a-40f5-a908-69eb8d4a209c"
    },
    {
        "name": "五十鈴神社",
        "prefectureName": "宮城県",
        "cityName": "石巻市",
        "streetName": "渡波字神明１９番地",
        "latitude": 38.41475671,
        "longitude": 141.3751716,
        "id": "c7a9daab-3509-4cc1-a4ed-179cb1f7cf7b"
    },
    {
        "name": "五十鈴神社",
        "prefectureName": "宮城県",
        "cityName": "石巻市",
        "streetName": "牧浜字牧屋敷１０番地",
        "latitude": 38.4344851,
        "longitude": 141.3028892,
        "id": "c9eccd42-e183-4f6c-bc8e-edbd9c3eceec"
    },
    {
        "name": "五十鈴神社",
        "prefectureName": "宮城県",
        "cityName": "石巻市",
        "streetName": "桃生町牛田字舘前２７番地",
        "latitude": 38.56031099,
        "longitude": 141.25096541,
        "id": "0c1dc4cb-fc7f-4411-9336-6c0f99a6eb22"
    },
    {
        "name": "五十鈴神社",
        "prefectureName": "宮城県",
        "cityName": "牡鹿郡女川町",
        "streetName": "大字浦宿浜字中崎３１番地",
        "latitude": 38.43751394,
        "longitude": 141.42097982,
        "id": "dab3884f-4687-4cdc-b1ea-eee9ce0d135f"
    },
    {
        "name": "五十鈴神社",
        "prefectureName": "宮城県",
        "cityName": "本吉郡南三陸町",
        "streetName": "戸倉字干谷１０２番地の２",
        "latitude": 38.6806264,
        "longitude": 141.4624746,
        "id": "7be8a653-15fd-4daa-97cb-d46154205864"
    },
    {
        "name": "五柱神社",
        "prefectureName": "宮城県",
        "cityName": "仙台市若林区",
        "streetName": "藤塚字屋敷５１番地１",
        "latitude": 38.18274411,
        "longitude": 140.95777057,
        "id": "fcaa4269-48f1-492b-8286-d5f588056fb9"
    },
    {
        "name": "亘理神社",
        "prefectureName": "宮城県",
        "cityName": "亘理郡亘理町",
        "streetName": "字旧舘３２番地",
        "latitude": 38.03379819,
        "longitude": 140.85067583,
        "id": "c26e2568-2749-4766-9602-50713e0cd3a2"
    },
    {
        "name": "仁和多利神社",
        "prefectureName": "宮城県",
        "cityName": "多賀城市",
        "streetName": "笠神１丁目７番２０号",
        "latitude": 38.30606591,
        "longitude": 141.02618271,
        "id": "9982a6bb-aa37-4e76-b46a-ea1dce3a841e"
    },
    {
        "name": "今熊野神社",
        "prefectureName": "宮城県",
        "cityName": "名取市",
        "streetName": "高舘川上字北䑓８番地",
        "latitude": 38.18325382,
        "longitude": 140.85387645,
        "id": "ec30c98a-1df1-4c5e-bf6b-efefd5c3818f"
    },
    {
        "name": "伊去波夜和気命神社",
        "prefectureName": "宮城県",
        "cityName": "石巻市",
        "streetName": "水沼字平畑１６４番地",
        "latitude": 38.48136529,
        "longitude": 141.37052557,
        "id": "1e1d98b6-c50f-405e-bf78-afa6623c65db"
    },
    {
        "name": "伊去波夜和気命神社",
        "prefectureName": "宮城県",
        "cityName": "石巻市",
        "streetName": "大宮町５番４５号",
        "latitude": 38.41544785,
        "longitude": 141.36285879,
        "id": "f3850a01-4b78-4b53-902a-aeafb615e6cb"
    },
    {
        "name": "伊豆佐比賣神社",
        "prefectureName": "宮城県",
        "cityName": "宮城郡利府町",
        "streetName": "飯土井字長者５５番地",
        "latitude": 38.322337,
        "longitude": 140.96373471,
        "id": "72463a95-9246-4b53-a18a-d87c0c5de17b"
    },
    {
        "name": "伊達八幡神社",
        "prefectureName": "宮城県",
        "cityName": "仙台市若林区",
        "streetName": "五十人町２４番地",
        "latitude": 38.245426,
        "longitude": 140.89477619,
        "id": "fbc88596-6e18-4d43-ac21-3762dc668713"
    },
    {
        "name": "伊達神社",
        "prefectureName": "宮城県",
        "cityName": "加美郡色麻町",
        "streetName": "四竈字町３番地",
        "latitude": 38.54527833,
        "longitude": 140.85090227,
        "id": "d5d53c05-87a4-41c0-9ffb-ff5858ffce14"
    },
    {
        "name": "住吉神社",
        "prefectureName": "宮城県",
        "cityName": "仙台市宮城野区",
        "streetName": "福室字平柳８１番地",
        "latitude": 38.25631035,
        "longitude": 140.96679102,
        "id": "f91fa53b-8bb3-44c8-8123-fdb43876c96f"
    },
    {
        "name": "住吉神社",
        "prefectureName": "宮城県",
        "cityName": "仙台市泉区",
        "streetName": "西田中字下田中１５番地",
        "latitude": 38.33814371,
        "longitude": 140.79008725,
        "id": "f089d4e8-4537-44be-8403-5355f66de608"
    },
    {
        "name": "住吉神社",
        "prefectureName": "宮城県",
        "cityName": "角田市",
        "streetName": "枝野字郡山５番地",
        "latitude": 37.9413566,
        "longitude": 140.79820916,
        "id": "6006c4f8-3d0f-4ae1-9ac7-ff32eb8abdf8"
    },
    {
        "name": "佐倍乃神社",
        "prefectureName": "宮城県",
        "cityName": "名取市",
        "streetName": "愛島笠島字西台１番地の４",
        "latitude": 38.16184177,
        "longitude": 140.84704493,
        "id": "1689b006-c827-47e8-ac7b-f3b1a93370b0"
    },
    {
        "name": "作樂神社",
        "prefectureName": "宮城県",
        "cityName": "石巻市",
        "streetName": "雄勝町水浜字小浜５番地",
        "latitude": 38.50392007,
        "longitude": 141.48703763,
        "id": "81545e07-261f-4dc9-a0a1-8909569f6813"
    },
    {
        "name": "作田島船魂稲荷神社",
        "prefectureName": "宮城県",
        "cityName": "石巻市",
        "streetName": "中瀬４番１０号",
        "latitude": 38.4344851,
        "longitude": 141.3028892,
        "id": "206e08f1-cbbe-4f51-986c-0389e5c867b9"
    },
    {
        "name": "保呂羽神社",
        "prefectureName": "宮城県",
        "cityName": "栗原市",
        "streetName": "一迫真坂字山の上１番地",
        "latitude": 38.73924485,
        "longitude": 140.95462542,
        "id": "22ae9f21-284b-4b89-9e25-538d4109a7d6"
    },
    {
        "name": "保呂羽神社",
        "prefectureName": "宮城県",
        "cityName": "本吉郡南三陸町",
        "streetName": "志津川字上保呂毛１２２番地の１",
        "latitude": 38.6806264,
        "longitude": 141.4624746,
        "id": "c012ffb0-e479-4908-a4b6-4e3cda8a8194"
    },
    {
        "name": "保食神社",
        "prefectureName": "宮城県",
        "cityName": "栗原市",
        "streetName": "志波姫沼崎高原６４番地",
        "latitude": 38.75277837,
        "longitude": 141.05868593,
        "id": "39a25301-bab6-49df-ba27-21c99866dd18"
    },
    {
        "name": "信夫神社",
        "prefectureName": "宮城県",
        "cityName": "仙台市若林区",
        "streetName": "三百人町１４７番地の２",
        "latitude": 38.24681204,
        "longitude": 140.8957399,
        "id": "bc55d381-5926-40d2-99d3-2986ede9e1ec"
    },
    {
        "name": "八坂神社",
        "prefectureName": "宮城県",
        "cityName": "栗原市",
        "streetName": "鶯沢袋五輪１８番地",
        "latitude": 38.80233528,
        "longitude": 140.90809424,
        "id": "977b6ce4-9ba0-4398-b595-e441be255d83"
    },
    {
        "name": "八坂神社",
        "prefectureName": "宮城県",
        "cityName": "栗原市",
        "streetName": "金成普賢堂粒良田前２６番地",
        "latitude": 38.81037812,
        "longitude": 141.07504312,
        "id": "db60dd56-db86-4faf-a5c2-5ba1cc6741bd"
    },
    {
        "name": "八坂神社",
        "prefectureName": "宮城県",
        "cityName": "栗原市",
        "streetName": "金成片馬合八坂６７番地",
        "latitude": 38.81037812,
        "longitude": 141.07504312,
        "id": "825d6109-2bbc-4ce4-aed3-7aad5cb7bac8"
    },
    {
        "name": "八坂神社",
        "prefectureName": "宮城県",
        "cityName": "栗原市",
        "streetName": "金成大原木川畑１０２番地",
        "latitude": 38.81308466,
        "longitude": 141.02792293,
        "id": "157584e0-9bb9-4bbb-bbd5-99dcab1bb3f8"
    },
    {
        "name": "八坂神社",
        "prefectureName": "宮城県",
        "cityName": "仙台市宮城野区",
        "streetName": "岩切字若宮前１１番地の７",
        "latitude": 38.3054129,
        "longitude": 140.94618992,
        "id": "81343372-0cbb-4b47-97e2-3874828ba4ad"
    },
    {
        "name": "八坂神社",
        "prefectureName": "宮城県",
        "cityName": "大崎市",
        "streetName": "三本木字南町４４番地",
        "latitude": 38.5251381,
        "longitude": 140.94490231,
        "id": "4799fafa-daf3-425c-8ddb-6fd28b38e97d"
    },
    {
        "name": "八坂神社",
        "prefectureName": "宮城県",
        "cityName": "栗原市",
        "streetName": "金成有壁八坂８３番地",
        "latitude": 38.86549225,
        "longitude": 141.12487522,
        "id": "0ba48edd-b45b-4647-881f-bd97bf55fa72"
    },
    {
        "name": "八坂神社",
        "prefectureName": "宮城県",
        "cityName": "大崎市",
        "streetName": "古川中島町１０番４５号",
        "latitude": 38.5609644,
        "longitude": 140.9565054,
        "id": "a0329e32-0ef9-4192-9860-ee257a187b45"
    },
    {
        "name": "八坂神社",
        "prefectureName": "宮城県",
        "cityName": "大崎市",
        "streetName": "岩出山字磯田舘下１４番地",
        "latitude": 38.65334635,
        "longitude": 140.8670083,
        "id": "f721ccb1-173b-459a-9b8b-c776de2d17bf"
    },
    {
        "name": "八坂神社",
        "prefectureName": "宮城県",
        "cityName": "栗原市",
        "streetName": "志波姫北郷小糠塚１番地",
        "latitude": 38.76866905,
        "longitude": 141.08955423,
        "id": "8f9f9dca-9494-4478-acaa-17ff3293812a"
    },
    {
        "name": "八坂神社",
        "prefectureName": "宮城県",
        "cityName": "仙台市太白区",
        "streetName": "富田字上野中４番地",
        "latitude": 38.21252599,
        "longitude": 140.84809197,
        "id": "3d9fedba-b0ca-4425-b79e-321d97d89f1b"
    },
    {
        "name": "八坂神社",
        "prefectureName": "宮城県",
        "cityName": "黒川郡大和町",
        "streetName": "落合蒜袋字宮下６７番地",
        "latitude": 38.44488407,
        "longitude": 140.91353665,
        "id": "29387ccf-240f-44a1-a62a-040c74e54cdc"
    },
    {
        "name": "八坂神社",
        "prefectureName": "宮城県",
        "cityName": "栗原市",
        "streetName": "鶯沢北郷若宮４番地",
        "latitude": 38.82242478,
        "longitude": 140.92545225,
        "id": "62e98507-aa97-491e-af30-0ebaf56717e6"
    },
    {
        "name": "八幡神社",
        "prefectureName": "宮城県",
        "cityName": "仙台市若林区",
        "streetName": "上飯田２丁目９番１１号",
        "latitude": 38.21884069,
        "longitude": 140.9153367,
        "id": "3ff55810-77ab-429c-99d5-d3940c85480a"
    },
    {
        "name": "八幡神社",
        "prefectureName": "宮城県",
        "cityName": "黒川郡大和町",
        "streetName": "鶴巣下草字迫１２７番地",
        "latitude": 38.4190121,
        "longitude": 140.90478598,
        "id": "483e9420-4c78-4624-ada8-d3be690e5022"
    },
    {
        "name": "八幡神社",
        "prefectureName": "宮城県",
        "cityName": "大崎市",
        "streetName": "古川大幡字道上１３番地",
        "latitude": 38.55752119,
        "longitude": 140.96698232,
        "id": "0bd7ebe1-bcba-450f-8f33-b29ac76fd2fe"
    },
    {
        "name": "八幡神社",
        "prefectureName": "宮城県",
        "cityName": "大崎市",
        "streetName": "岩出山字上真山八幡９２番地",
        "latitude": 38.65334635,
        "longitude": 140.8670083,
        "id": "7cf953ac-069b-41e8-b1d1-5abeb7f426cc"
    },
    {
        "name": "八幡神社",
        "prefectureName": "宮城県",
        "cityName": "栗原市",
        "streetName": "若柳字川南上堤１５０番地",
        "latitude": 38.77148392,
        "longitude": 141.13259472,
        "id": "00374736-0c90-46c6-9e51-125681d53747"
    },
    {
        "name": "八幡神社",
        "prefectureName": "宮城県",
        "cityName": "栗原市",
        "streetName": "志波姫沼崎北曽根１番地",
        "latitude": 38.75323111,
        "longitude": 141.05915808,
        "id": "35266c71-7079-4691-8d87-4d39fe057390"
    },
    {
        "name": "八幡神社",
        "prefectureName": "宮城県",
        "cityName": "栗原市",
        "streetName": "高清水本町４１番地",
        "latitude": 38.65673823,
        "longitude": 141.01126251,
        "id": "bc6b4fed-27b6-4ac4-923d-a857ed6b557a"
    },
    {
        "name": "八幡神社",
        "prefectureName": "宮城県",
        "cityName": "栗原市",
        "streetName": "金成梨崎仲道３５番地",
        "latitude": 38.78937204,
        "longitude": 141.07053584,
        "id": "820c46fb-7ac5-48c0-9d79-33360298b815"
    },
    {
        "name": "八幡神社",
        "prefectureName": "宮城県",
        "cityName": "石巻市",
        "streetName": "蛇田字土和田山３４番地",
        "latitude": 38.4344851,
        "longitude": 141.3028892,
        "id": "893d3cf5-0743-4fdc-8584-69397935fc11"
    },
    {
        "name": "八幡神社",
        "prefectureName": "宮城県",
        "cityName": "本吉郡南三陸町",
        "streetName": "歌津字田の浦５０番地",
        "latitude": 38.7204389,
        "longitude": 141.53419847,
        "id": "77c88c03-8dec-48ee-ab9e-2c678377782c"
    },
    {
        "name": "八幡神社",
        "prefectureName": "宮城県",
        "cityName": "亘理郡亘理町",
        "streetName": "逢隈中泉字町裏１０７番地",
        "latitude": 38.08091037,
        "longitude": 140.86816378,
        "id": "e505d898-51c0-4135-9974-95e2ba6aadf4"
    },
    {
        "name": "八幡神社",
        "prefectureName": "宮城県",
        "cityName": "仙台市若林区",
        "streetName": "沖野３丁目１６番３５号",
        "latitude": 38.22810621,
        "longitude": 140.91140055,
        "id": "25c5b198-75dd-4d05-bba3-9c4bbce8c8c4"
    },
    {
        "name": "八幡神社",
        "prefectureName": "宮城県",
        "cityName": "柴田郡村田町",
        "streetName": "大字沼辺字中山３３５番地",
        "latitude": 38.1185476,
        "longitude": 140.7223926,
        "id": "08469825-df79-49ad-a2ba-240f586e886f"
    },
    {
        "name": "八幡神社",
        "prefectureName": "宮城県",
        "cityName": "白石市",
        "streetName": "大鷹沢大町字大門１２０番地",
        "latitude": 37.98617489,
        "longitude": 140.65206994,
        "id": "0275c875-3cfa-40b8-9911-6e5f7bbea0f3"
    },
    {
        "name": "八幡神社",
        "prefectureName": "宮城県",
        "cityName": "大崎市",
        "streetName": "古川李埣字八萬５番地",
        "latitude": 38.58669121,
        "longitude": 140.94831338,
        "id": "1e022874-bf00-4936-91b3-1b5e4fd58697"
    },
    {
        "name": "八幡神社",
        "prefectureName": "宮城県",
        "cityName": "大崎市",
        "streetName": "田尻沼部字舘浦２０番地",
        "latitude": 38.60746881,
        "longitude": 141.05928985,
        "id": "2f70d791-5eb8-497a-abde-5380f56d82e2"
    },
    {
        "name": "八幡神社",
        "prefectureName": "宮城県",
        "cityName": "大崎市",
        "streetName": "岩出山下一栗字片岸浦１３６番地",
        "latitude": 38.69021743,
        "longitude": 140.86373256,
        "id": "e34677b3-0ede-4621-9c10-dffea9d8ce4d"
    },
    {
        "name": "八幡神社",
        "prefectureName": "宮城県",
        "cityName": "加美郡色麻町",
        "streetName": "黒沢字八幡３８番地",
        "latitude": 38.5564348,
        "longitude": 140.84100262,
        "id": "d95a83c7-70f8-4034-8dbe-41998eefd179"
    },
    {
        "name": "八幡神社",
        "prefectureName": "宮城県",
        "cityName": "栗原市",
        "streetName": "若柳字川南南谷地７２番地",
        "latitude": 38.73005239,
        "longitude": 141.14325639,
        "id": "1245b8d2-c4eb-4bda-9f1b-e8b7abeb5518"
    },
    {
        "name": "八幡神社",
        "prefectureName": "宮城県",
        "cityName": "栗原市",
        "streetName": "瀬峰横森前１４４番地",
        "latitude": 38.66739916,
        "longitude": 141.06911166,
        "id": "cba4f634-ae62-4dee-9d08-b9d0e3228c8a"
    },
    {
        "name": "八幡神社",
        "prefectureName": "宮城県",
        "cityName": "栗原市",
        "streetName": "金成藤渡戸八幡沢９３番地",
        "latitude": 38.81037812,
        "longitude": 141.07504312,
        "id": "424fe49d-02a5-4462-bd8a-e7f50b25ba6e"
    },
    {
        "name": "八幡神社",
        "prefectureName": "宮城県",
        "cityName": "登米市",
        "streetName": "中田町石森字舘１２２番地",
        "latitude": 38.69626722,
        "longitude": 141.21754515,
        "id": "ac3b6ca9-8f13-4ed3-8693-8b5d1f307c1d"
    },
    {
        "name": "八幡神社",
        "prefectureName": "宮城県",
        "cityName": "富谷市",
        "streetName": "今泉八幡下６２番地",
        "latitude": 38.39632419,
        "longitude": 140.9258161,
        "id": "1bd239cc-3865-4fd8-b7a1-e1485ba16b70"
    },
    {
        "name": "八幡神社",
        "prefectureName": "宮城県",
        "cityName": "柴田郡柴田町",
        "streetName": "大字成田字倉元６０番地",
        "latitude": 38.08891025,
        "longitude": 140.76360481,
        "id": "9f54133b-a74b-4e4c-a98c-c08968d38f6e"
    },
    {
        "name": "八幡神社",
        "prefectureName": "宮城県",
        "cityName": "遠田郡美里町",
        "streetName": "南高城字屋敷５番地",
        "latitude": 38.5444047,
        "longitude": 141.0566995,
        "id": "26f7e9cf-f85f-4f90-b4d4-c32b4d12a26c"
    },
    {
        "name": "八幡神社",
        "prefectureName": "宮城県",
        "cityName": "大崎市",
        "streetName": "松山須摩屋字阿弥陀江２８番地３",
        "latitude": 38.527354,
        "longitude": 141.07306549,
        "id": "e322e6f8-7167-4397-8686-130ea3d285e6"
    },
    {
        "name": "八幡神社",
        "prefectureName": "宮城県",
        "cityName": "大崎市",
        "streetName": "岩出山字下金沢３７０番地",
        "latitude": 38.64870223,
        "longitude": 140.86219511,
        "id": "739ed7ed-198a-4704-abe0-5722a3bc569e"
    },
    {
        "name": "八幡神社",
        "prefectureName": "宮城県",
        "cityName": "栗原市",
        "streetName": "若柳有賀字山京１２０番地",
        "latitude": 38.81067017,
        "longitude": 141.09011943,
        "id": "04f5f2b0-da27-49ce-8160-75e235ae5e17"
    },
    {
        "name": "八幡神社",
        "prefectureName": "宮城県",
        "cityName": "栗原市",
        "streetName": "志波姫刈敷治郎９３番地",
        "latitude": 38.75323111,
        "longitude": 141.05915808,
        "id": "df83385c-a4a9-4a81-9eb6-46e0d355cb19"
    },
    {
        "name": "八幡神社",
        "prefectureName": "宮城県",
        "cityName": "栗原市",
        "streetName": "鶯沢南郷遠堀１番地",
        "latitude": 38.80233528,
        "longitude": 140.90809424,
        "id": "0f7e9298-8ad9-458e-8612-2df09223a9f2"
    },
    {
        "name": "八幡神社",
        "prefectureName": "宮城県",
        "cityName": "栗原市",
        "streetName": "栗駒片子沢千刈田５番地",
        "latitude": 38.78676233,
        "longitude": 140.96041044,
        "id": "8304d0bc-1cab-4071-a265-4f3cebb15b04"
    },
    {
        "name": "八幡神社",
        "prefectureName": "宮城県",
        "cityName": "栗原市",
        "streetName": "金成赤児新山前２２番地",
        "latitude": 38.81037812,
        "longitude": 141.07504312,
        "id": "6dc0cf36-d8f6-4419-97c8-e9cb6551a681"
    },
    {
        "name": "八幡神社",
        "prefectureName": "宮城県",
        "cityName": "石巻市",
        "streetName": "井内字八幡山１６０番地の１",
        "latitude": 38.4344851,
        "longitude": 141.3028892,
        "id": "60d92564-9afb-4b62-a7fe-a169c4db452a"
    },
    {
        "name": "八幡神社",
        "prefectureName": "宮城県",
        "cityName": "登米市",
        "streetName": "迫町佐沼字鉄砲町３３番地",
        "latitude": 38.68914175,
        "longitude": 141.18839224,
        "id": "bd25ecf4-ed03-4405-9260-303a3f8a16c7"
    },
    {
        "name": "八幡神社",
        "prefectureName": "宮城県",
        "cityName": "仙台市太白区",
        "streetName": "鈎取１丁目１０番３５号",
        "latitude": 38.2228275,
        "longitude": 140.84358936,
        "id": "6ee0b8f5-4ec8-4691-b325-a8dd26069ce5"
    },
    {
        "name": "八幡神社",
        "prefectureName": "宮城県",
        "cityName": "黒川郡大和町",
        "streetName": "吉岡字町裏３９番地",
        "latitude": 38.44786055,
        "longitude": 140.88693887,
        "id": "02d292b2-5361-45e5-a6da-7d1ba6592602"
    },
    {
        "name": "八幡神社",
        "prefectureName": "宮城県",
        "cityName": "黒川郡大郷町",
        "streetName": "石原字宮前１７番地",
        "latitude": 38.44686909,
        "longitude": 140.97055598,
        "id": "c5d3fc40-3f92-4dba-8a57-f5730f1ce796"
    },
    {
        "name": "八幡神社",
        "prefectureName": "宮城県",
        "cityName": "柴田郡柴田町",
        "streetName": "槻木白幡４丁目３番１１号",
        "latitude": 38.0711323,
        "longitude": 140.80545496,
        "id": "bd6c4acb-5c46-41b9-809f-02cd2cabf181"
    },
    {
        "name": "八幡神社",
        "prefectureName": "宮城県",
        "cityName": "大崎市",
        "streetName": "松山下伊場野字宮下１６番地",
        "latitude": 38.52101521,
        "longitude": 141.00280393,
        "id": "79d91973-187a-407f-ba6c-0ed4421782d1"
    },
    {
        "name": "八幡神社",
        "prefectureName": "宮城県",
        "cityName": "遠田郡涌谷町",
        "streetName": "小里字八幡２１番地",
        "latitude": 38.58622654,
        "longitude": 141.15795309,
        "id": "1804d88f-b38f-4161-9e18-f8cd8965317c"
    },
    {
        "name": "八幡神社",
        "prefectureName": "宮城県",
        "cityName": "加美郡加美町",
        "streetName": "米泉字屋敷６８番地",
        "latitude": 38.5717617,
        "longitude": 140.8547479,
        "id": "e6529683-6daf-4277-9033-7230c403986d"
    },
    {
        "name": "八幡神社",
        "prefectureName": "宮城県",
        "cityName": "栗原市",
        "streetName": "一迫字中屋敷浦６８番地",
        "latitude": 38.76558142,
        "longitude": 140.89180589,
        "id": "f6b120f6-68cc-4648-bd54-c561b3d61fb4"
    },
    {
        "name": "八幡神社",
        "prefectureName": "宮城県",
        "cityName": "栗原市",
        "streetName": "金成末野若宮２５番地",
        "latitude": 38.84338628,
        "longitude": 141.11326349,
        "id": "6b1dfeda-0ea3-42f1-940a-3afbeba1f2b6"
    },
    {
        "name": "八幡神社",
        "prefectureName": "宮城県",
        "cityName": "東松島市",
        "streetName": "赤井字舘前２１７番地",
        "latitude": 38.44704835,
        "longitude": 141.23102711,
        "id": "8e8ab3ad-1b2e-4a76-8239-cd1f51e5c590"
    },
    {
        "name": "八幡神社",
        "prefectureName": "宮城県",
        "cityName": "東松島市",
        "streetName": "宮戸字大浜１６番地",
        "latitude": 38.4261672,
        "longitude": 141.210244,
        "id": "4d5d6dff-f87d-4c8f-89ec-31ecebd0701d"
    },
    {
        "name": "八幡神社",
        "prefectureName": "宮城県",
        "cityName": "石巻市",
        "streetName": "雄勝町大須字大須１５８番地２",
        "latitude": 38.52267488,
        "longitude": 141.5422596,
        "id": "000f2f1d-0212-4700-b03e-c765aaeda961"
    },
    {
        "name": "八幡神社",
        "prefectureName": "宮城県",
        "cityName": "登米市",
        "streetName": "迫町森字西表２３０番地",
        "latitude": 38.67236665,
        "longitude": 141.21698525,
        "id": "1b06e0ec-25c0-4751-b28f-917828591165"
    },
    {
        "name": "八幡神社",
        "prefectureName": "宮城県",
        "cityName": "多賀城市",
        "streetName": "宮内１丁目２番５０号",
        "latitude": 38.28229623,
        "longitude": 141.01094415,
        "id": "68893b89-9efe-4f91-b675-cd559e187b42"
    },
    {
        "name": "八幡神社",
        "prefectureName": "宮城県",
        "cityName": "黒川郡大和町",
        "streetName": "鶴巣鳥屋字天ケ沢１番地",
        "latitude": 38.40949503,
        "longitude": 140.93137899,
        "id": "3a91716b-fec3-49ea-85cf-1f6c38f29674"
    },
    {
        "name": "八幡神社",
        "prefectureName": "宮城県",
        "cityName": "黒川郡大郷町",
        "streetName": "粕川字八幡６番地",
        "latitude": 38.44135917,
        "longitude": 140.98915411,
        "id": "b5139c01-c7be-4c37-83a2-2eada830d8bc"
    },
    {
        "name": "八幡神社",
        "prefectureName": "宮城県",
        "cityName": "黒川郡大郷町",
        "streetName": "粕川字李崎４９番地",
        "latitude": 38.43533811,
        "longitude": 141.00306928,
        "id": "c5f3a762-ab0b-4342-becd-79b7c3d0ecea"
    },
    {
        "name": "八幡神社",
        "prefectureName": "宮城県",
        "cityName": "角田市",
        "streetName": "角田字牛館１１２番地",
        "latitude": 37.97031599,
        "longitude": 140.77668197,
        "id": "29a0bcfd-bc08-4cb5-a5ae-0f6280eb24f1"
    },
    {
        "name": "八幡神社",
        "prefectureName": "宮城県",
        "cityName": "遠田郡涌谷町",
        "streetName": "涌谷字日向町３２番地",
        "latitude": 38.54494516,
        "longitude": 141.13533228,
        "id": "d2b3bde0-117c-40e2-8951-5143a25d75ba"
    },
    {
        "name": "八幡神社",
        "prefectureName": "宮城県",
        "cityName": "加美郡加美町",
        "streetName": "鳥屋ケ崎字八幡裏３７番地",
        "latitude": 38.5717617,
        "longitude": 140.8547479,
        "id": "11b2315c-2af2-4d62-b1bb-67afd52abb8d"
    },
    {
        "name": "八幡神社",
        "prefectureName": "宮城県",
        "cityName": "栗原市",
        "streetName": "一迫字大川口不動西３７番地",
        "latitude": 38.76558142,
        "longitude": 140.89180589,
        "id": "b3c7f6cf-b676-4992-bd25-157e25247b6b"
    },
    {
        "name": "八幡神社",
        "prefectureName": "宮城県",
        "cityName": "栗原市",
        "streetName": "若柳字川南中ノ目５０番地",
        "latitude": 38.75642429,
        "longitude": 141.13003992,
        "id": "e5f582a5-4162-4806-a702-aeed560420b5"
    },
    {
        "name": "八幡神社",
        "prefectureName": "宮城県",
        "cityName": "栗原市",
        "streetName": "金成沢辺町１００番地",
        "latitude": 38.81037812,
        "longitude": 141.07504312,
        "id": "71044f25-ea1a-4531-b1d7-c356150abd2c"
    },
    {
        "name": "八幡神社",
        "prefectureName": "宮城県",
        "cityName": "石巻市",
        "streetName": "鹿又字八幡前４０番地",
        "latitude": 38.4344851,
        "longitude": 141.3028892,
        "id": "a272e627-ef58-47e3-b5b2-6dc8baf28fa5"
    },
    {
        "name": "八幡神社",
        "prefectureName": "宮城県",
        "cityName": "気仙沼市",
        "streetName": "本吉町外尾４番地",
        "latitude": 38.78551292,
        "longitude": 141.47946002,
        "id": "10e7f141-c925-477f-a7ea-114db744ccf2"
    },
    {
        "name": "八幡神社",
        "prefectureName": "宮城県",
        "cityName": "黒川郡大和町",
        "streetName": "落合桧和田字八幡堂２１番地の１",
        "latitude": 38.42744005,
        "longitude": 140.93672169,
        "id": "98fdf702-d6e2-4c7e-9360-cbe30ae2a818"
    },
    {
        "name": "八幡神社",
        "prefectureName": "宮城県",
        "cityName": "角田市",
        "streetName": "神次郎字鍛治屋沢１３４番地の２",
        "latitude": 38.03735707,
        "longitude": 140.78826361,
        "id": "6b49c645-0c04-4258-b35a-8b7acec45923"
    },
    {
        "name": "八幡神社",
        "prefectureName": "宮城県",
        "cityName": "大崎市",
        "streetName": "古川師山字薬師２８番地",
        "latitude": 38.58669121,
        "longitude": 140.94831338,
        "id": "b7a27c1d-13de-4a8f-990e-25afeb6dbd2d"
    },
    {
        "name": "八幡神社",
        "prefectureName": "宮城県",
        "cityName": "遠田郡涌谷町",
        "streetName": "吉住字前畑２３番地",
        "latitude": 38.56333078,
        "longitude": 141.19180926,
        "id": "e54e84c0-534e-4455-881a-dbdb3565200e"
    },
    {
        "name": "八幡神社",
        "prefectureName": "宮城県",
        "cityName": "栗原市",
        "streetName": "一迫字川口沢山４２番地",
        "latitude": 38.76558142,
        "longitude": 140.89180589,
        "id": "edb5db0c-4883-4294-8add-696a4725c605"
    },
    {
        "name": "八幡神社",
        "prefectureName": "宮城県",
        "cityName": "栗原市",
        "streetName": "栗駒深谷日照田５９番地",
        "latitude": 38.83940325,
        "longitude": 141.01562297,
        "id": "a5dc7038-0670-4b66-998f-c50f956d23e2"
    },
    {
        "name": "八幡神社",
        "prefectureName": "宮城県",
        "cityName": "栗原市",
        "streetName": "金成津久毛平形烏子沢１０５番地",
        "latitude": 38.81037812,
        "longitude": 141.07504312,
        "id": "c4c4da66-ac56-46d1-8072-bf0317ef2bf9"
    },
    {
        "name": "八幡神社",
        "prefectureName": "宮城県",
        "cityName": "東松島市",
        "streetName": "上下堤字八幡１０番地",
        "latitude": 38.4261672,
        "longitude": 141.210244,
        "id": "e39db4a9-8fb7-4f95-9d30-ae9670cdd592"
    },
    {
        "name": "八幡神社",
        "prefectureName": "宮城県",
        "cityName": "石巻市",
        "streetName": "沼津字八幡山２７番地",
        "latitude": 38.44799737,
        "longitude": 141.37955603,
        "id": "d62c48da-7c4d-40a3-892d-0dfd370191c7"
    },
    {
        "name": "八幡神社",
        "prefectureName": "宮城県",
        "cityName": "石巻市",
        "streetName": "福地字町８５番地",
        "latitude": 38.53485414,
        "longitude": 141.38466851,
        "id": "03fe4319-bca0-4b26-afdb-d7ceecf9e442"
    },
    {
        "name": "八幡神社",
        "prefectureName": "宮城県",
        "cityName": "登米市",
        "streetName": "米山町西野字後小路７４番地",
        "latitude": 38.62880142,
        "longitude": 141.21411834,
        "id": "89b13349-27ac-4147-9986-cd783b75e298"
    },
    {
        "name": "八幡神社",
        "prefectureName": "宮城県",
        "cityName": "気仙沼市",
        "streetName": "本吉町平椚９７番地",
        "latitude": 38.78551292,
        "longitude": 141.47946002,
        "id": "3c30bb0a-aabd-4caa-a127-2c2b4e73d337"
    },
    {
        "name": "八幡神社",
        "prefectureName": "宮城県",
        "cityName": "仙台市若林区",
        "streetName": "新弓ノ町５０番地",
        "latitude": 38.2443625,
        "longitude": 140.9005396,
        "id": "dc07561a-4f7f-45a9-8577-b80cdb32aa8a"
    },
    {
        "name": "八幡神社",
        "prefectureName": "宮城県",
        "cityName": "黒川郡大衡村",
        "streetName": "大衡字八幡４８番地",
        "latitude": 38.46411173,
        "longitude": 140.87835577,
        "id": "233855ec-7464-4125-a6aa-0bccde6c6165"
    },
    {
        "name": "八幡神社",
        "prefectureName": "宮城県",
        "cityName": "伊具郡丸森町",
        "streetName": "小斎字八幡田１０番地",
        "latitude": 37.91657114,
        "longitude": 140.82419439,
        "id": "5408e485-eb66-4677-b6c4-7eef2ea51ed4"
    },
    {
        "name": "八幡神社",
        "prefectureName": "宮城県",
        "cityName": "大崎市",
        "streetName": "古川江合本町１丁目１番８号",
        "latitude": 38.58812505,
        "longitude": 140.96779743,
        "id": "cd50378e-c5d2-49d9-bf45-32cc136e4da3"
    },
    {
        "name": "八幡神社",
        "prefectureName": "宮城県",
        "cityName": "栗原市",
        "streetName": "一迫真坂字八幡５番地",
        "latitude": 38.76558142,
        "longitude": 140.89180589,
        "id": "983e0b40-820e-43bd-b32c-5165f31c9af8"
    },
    {
        "name": "八幡神社",
        "prefectureName": "宮城県",
        "cityName": "栗原市",
        "streetName": "栗駒松倉西山１８番地",
        "latitude": 38.83940325,
        "longitude": 141.01562297,
        "id": "9b56c8e2-9df1-4f20-ab4e-d69a8811269c"
    },
    {
        "name": "八幡神社",
        "prefectureName": "宮城県",
        "cityName": "東松島市",
        "streetName": "矢本字上館下９９番地",
        "latitude": 38.42080397,
        "longitude": 141.21063869,
        "id": "034bd60b-c46d-4bf2-b183-ae162a785a41"
    },
    {
        "name": "八幡神社",
        "prefectureName": "宮城県",
        "cityName": "石巻市",
        "streetName": "南境字妙見８番地",
        "latitude": 38.4344851,
        "longitude": 141.3028892,
        "id": "4ff5caf4-22e2-4975-b8fb-03d3022e846e"
    },
    {
        "name": "八幡神社",
        "prefectureName": "宮城県",
        "cityName": "登米市",
        "streetName": "南方町松島屋敷６７番地",
        "latitude": 38.67010187,
        "longitude": 141.18829331,
        "id": "41ae33ae-f3b6-4bce-bdb4-6a76323b63ef"
    },
    {
        "name": "八幡神社",
        "prefectureName": "宮城県",
        "cityName": "仙台市泉区",
        "streetName": "朴沢字八幡下４１番地",
        "latitude": 38.36803928,
        "longitude": 140.78483017,
        "id": "2f822f7f-c41a-4c06-9be5-e2751f9f8136"
    },
    {
        "name": "八幡神社",
        "prefectureName": "宮城県",
        "cityName": "黒川郡大衡村",
        "streetName": "大瓜字八幡４０番地",
        "latitude": 38.45597331,
        "longitude": 140.8663576,
        "id": "10719b8f-3600-4af0-8be5-ee0a5f74daad"
    },
    {
        "name": "八幡神社",
        "prefectureName": "宮城県",
        "cityName": "大崎市",
        "streetName": "古川新堀字原田１３番地",
        "latitude": 38.58008773,
        "longitude": 140.89177973,
        "id": "d437f1dc-e94a-4a57-98b5-d4e439971a36"
    },
    {
        "name": "八幡神社",
        "prefectureName": "宮城県",
        "cityName": "栗原市",
        "streetName": "築館薬師１丁目１番地",
        "latitude": 38.73126648,
        "longitude": 141.02216085,
        "id": "f74db6dc-7dbc-4e29-a3be-cf0ad981ecc7"
    },
    {
        "name": "八幡神社",
        "prefectureName": "宮城県",
        "cityName": "栗原市",
        "streetName": "栗駒中野若宮山１番地",
        "latitude": 38.84406193,
        "longitude": 140.95104602,
        "id": "83c91fdf-e18f-4792-a6ce-cedd2dd18756"
    },
    {
        "name": "八幡神社",
        "prefectureName": "宮城県",
        "cityName": "東松島市",
        "streetName": "根古字朴木沢３１番地",
        "latitude": 38.4261672,
        "longitude": 141.210244,
        "id": "5b522601-0a05-40c1-94d3-b60a044091f4"
    },
    {
        "name": "八幡神社",
        "prefectureName": "宮城県",
        "cityName": "石巻市",
        "streetName": "高木字若宮７８番地",
        "latitude": 38.47340764,
        "longitude": 141.36192477,
        "id": "635e8eff-166b-48a2-bd23-a9fa8cb263c8"
    },
    {
        "name": "八幡神社",
        "prefectureName": "宮城県",
        "cityName": "石巻市",
        "streetName": "小船越字舟形１９６番地",
        "latitude": 38.4344851,
        "longitude": 141.3028892,
        "id": "e2788f56-1feb-4a8b-82c3-08e87228f792"
    },
    {
        "name": "八幡神社",
        "prefectureName": "宮城県",
        "cityName": "登米市",
        "streetName": "中田町上沼字八幡山４７番地",
        "latitude": 38.720559,
        "longitude": 141.21155836,
        "id": "1ac24b4c-3930-4f06-ae99-26223b627160"
    },
    {
        "name": "八幡神社",
        "prefectureName": "宮城県",
        "cityName": "気仙沼市",
        "streetName": "東八幡前１番地",
        "latitude": 38.92450975,
        "longitude": 141.58466218,
        "id": "ebb1bd7f-0eab-4386-9270-8ac2c36346ec"
    },
    {
        "name": "八幡神社",
        "prefectureName": "宮城県",
        "cityName": "本吉郡南三陸町",
        "streetName": "志津川字西田２番地",
        "latitude": 38.69130177,
        "longitude": 141.50437638,
        "id": "5ef34bd5-8be0-410c-84b6-b8a1dfb3dabc"
    },
    {
        "name": "八幡神社",
        "prefectureName": "宮城県",
        "cityName": "宮城郡利府町",
        "streetName": "中央３丁目６番地１",
        "latitude": 38.32988958,
        "longitude": 140.97915497,
        "id": "964ba0fe-1e93-49d9-9560-30962a54d200"
    },
    {
        "name": "八幡神社",
        "prefectureName": "宮城県",
        "cityName": "亘理郡亘理町",
        "streetName": "吉田字西１６番地２",
        "latitude": 37.9963914,
        "longitude": 140.850394,
        "id": "ec55c4fe-f964-46b2-afb4-3170171b904e"
    },
    {
        "name": "八幡神社",
        "prefectureName": "宮城県",
        "cityName": "黒川郡大和町",
        "streetName": "落合三ケ内字山畑１６９番地",
        "latitude": 38.44095573,
        "longitude": 140.96250712,
        "id": "8d556197-82db-4ea7-ae6b-0cc23c908518"
    },
    {
        "name": "八幡神社",
        "prefectureName": "宮城県",
        "cityName": "大崎市",
        "streetName": "古川小林字一本杉３番地",
        "latitude": 38.58669121,
        "longitude": 140.94831338,
        "id": "3e31dd93-8288-41dc-96c9-f1a789f1a3be"
    },
    {
        "name": "八幡神社",
        "prefectureName": "宮城県",
        "cityName": "栗原市",
        "streetName": "築館字城生野地蔵堂１５番地",
        "latitude": 38.7500697,
        "longitude": 141.0136772,
        "id": "a642b874-3369-42e5-bd75-0c688fdc2098"
    },
    {
        "name": "八幡神社",
        "prefectureName": "宮城県",
        "cityName": "石巻市",
        "streetName": "大谷川浜大谷川道山２０番地",
        "latitude": 38.37435131,
        "longitude": 141.48048978,
        "id": "806a33ef-ed77-460b-8929-ba4658e14a68"
    },
    {
        "name": "八幡神社",
        "prefectureName": "宮城県",
        "cityName": "登米市",
        "streetName": "東和町米川字西綱木３番地",
        "latitude": 38.77398698,
        "longitude": 141.33005722,
        "id": "f79bc0f6-6c9e-45e4-aaf7-6827e812e926"
    },
    {
        "name": "八幡神社",
        "prefectureName": "宮城県",
        "cityName": "登米市",
        "streetName": "中田町上沼字舘浦１１９番地",
        "latitude": 38.720559,
        "longitude": 141.21155836,
        "id": "47738d7a-781c-430e-bf59-9951b5dccdd8"
    },
    {
        "name": "八幡神社",
        "prefectureName": "宮城県",
        "cityName": "気仙沼市",
        "streetName": "松崎中瀬８９番地３",
        "latitude": 38.87482406,
        "longitude": 141.58728615,
        "id": "482c2fc6-50ce-4bbc-bbea-a51be061733a"
    },
    {
        "name": "八幡神社",
        "prefectureName": "宮城県",
        "cityName": "本吉郡南三陸町",
        "streetName": "入谷字水口沢２４３番地",
        "latitude": 38.70547806,
        "longitude": 141.41362484,
        "id": "ac98d727-8718-49a8-9962-f8552d97e7da"
    },
    {
        "name": "八幡神社",
        "prefectureName": "宮城県",
        "cityName": "宮城郡松島町",
        "streetName": "幡谷字八幡５８番地",
        "latitude": 38.42578856,
        "longitude": 141.06221638,
        "id": "af3d7828-60b0-45f5-8fed-9687cc877561"
    },
    {
        "name": "八幡神社",
        "prefectureName": "宮城県",
        "cityName": "亘理郡亘理町",
        "streetName": "逢隈上郡字若宮５８番地",
        "latitude": 38.05988969,
        "longitude": 140.84847187,
        "id": "022ffe82-3ad3-4dd0-ae0b-71a01da5ddd3"
    },
    {
        "name": "八沢神社",
        "prefectureName": "宮城県",
        "cityName": "栗原市",
        "streetName": "鶯沢南郷洞泉寺１１４番地",
        "latitude": 38.80233528,
        "longitude": 140.90809424,
        "id": "c37bc428-61ef-4818-aefc-ea6f4d20a207"
    },
    {
        "name": "八重垣神社",
        "prefectureName": "宮城県",
        "cityName": "伊具郡丸森町",
        "streetName": "大内字下梅ケ作５番地",
        "latitude": 37.89653182,
        "longitude": 140.82460073,
        "id": "842e1f92-cfda-4bf9-b8ad-f116976e45b4"
    },
    {
        "name": "八重垣神社",
        "prefectureName": "宮城県",
        "cityName": "亘理郡山元町",
        "streetName": "高瀬字笠野１２８番地",
        "latitude": 37.95704717,
        "longitude": 140.91020081,
        "id": "5a2515eb-4bd9-4c2b-b348-7da9be1fcf2b"
    },
    {
        "name": "八重垣神社",
        "prefectureName": "宮城県",
        "cityName": "伊具郡丸森町",
        "streetName": "小斎字北町場４５番地",
        "latitude": 37.92048747,
        "longitude": 140.8282717,
        "id": "f66bf015-cea1-4f87-8235-5af63b5ee6dd"
    },
    {
        "name": "八雲神社",
        "prefectureName": "宮城県",
        "cityName": "遠田郡涌谷町",
        "streetName": "字新町７９番地",
        "latitude": 38.54046768,
        "longitude": 141.12524489,
        "id": "9c17ef1b-fd73-4361-808e-e53d6ae5624a"
    },
    {
        "name": "八雲神社",
        "prefectureName": "宮城県",
        "cityName": "栗原市",
        "streetName": "一迫字川口沢山６１番地",
        "latitude": 38.76558142,
        "longitude": 140.89180589,
        "id": "c29f0876-25f7-4b79-a25c-61544d857111"
    },
    {
        "name": "八雲神社",
        "prefectureName": "宮城県",
        "cityName": "牡鹿郡女川町",
        "streetName": "出島字出島４８番地の１",
        "latitude": 38.45768415,
        "longitude": 141.51991083,
        "id": "b9a8df51-3392-4e7d-bded-97fc3c4e4040"
    },
    {
        "name": "八雲神社",
        "prefectureName": "宮城県",
        "cityName": "石巻市",
        "streetName": "福地字国土３５番地の１",
        "latitude": 38.53929903,
        "longitude": 141.40430026,
        "id": "255ee1e4-7e3b-4c67-8e88-53c4be893804"
    },
    {
        "name": "八雲神社",
        "prefectureName": "宮城県",
        "cityName": "気仙沼市",
        "streetName": "唐桑町宿浦２４０番地",
        "latitude": 38.89821924,
        "longitude": 141.63843614,
        "id": "8a1efeca-4ae5-4952-bd72-bffe2a21f4cc"
    },
    {
        "name": "八雲神社",
        "prefectureName": "宮城県",
        "cityName": "本吉郡南三陸町",
        "streetName": "歌津字田の浦４２番地",
        "latitude": 38.7204389,
        "longitude": 141.53419847,
        "id": "ab672765-b918-4406-b656-4a6c679367b3"
    },
    {
        "name": "八雲神社",
        "prefectureName": "宮城県",
        "cityName": "気仙沼市",
        "streetName": "塚沢１番地",
        "latitude": 38.94640294,
        "longitude": 141.52116325,
        "id": "e406edb3-dee4-47de-b34e-252f136d96ae"
    },
    {
        "name": "八雲神社",
        "prefectureName": "宮城県",
        "cityName": "伊具郡丸森町",
        "streetName": "筆甫字中嶋１９番地",
        "latitude": 37.83516074,
        "longitude": 140.72968151,
        "id": "d107967c-0e78-4d5b-bae0-ed4294e81ecc"
    },
    {
        "name": "八雲神社",
        "prefectureName": "宮城県",
        "cityName": "角田市",
        "streetName": "高倉字手代木４５番地",
        "latitude": 37.99977033,
        "longitude": 140.74945484,
        "id": "13b3b800-13ec-4374-a63c-368a8d919281"
    },
    {
        "name": "八雲神社",
        "prefectureName": "宮城県",
        "cityName": "大崎市",
        "streetName": "松山金谷字小台崎３５番地",
        "latitude": 38.51159436,
        "longitude": 141.06850551,
        "id": "0c563bc3-43c7-4330-883e-80adf6f336de"
    },
    {
        "name": "八雲神社",
        "prefectureName": "宮城県",
        "cityName": "石巻市",
        "streetName": "中島字舘前畑三番２０１番地",
        "latitude": 38.53832993,
        "longitude": 141.33257591,
        "id": "8b84432a-0177-4484-bb62-9b2aa6c61e85"
    },
    {
        "name": "八雲神社",
        "prefectureName": "宮城県",
        "cityName": "気仙沼市",
        "streetName": "赤岩牧沢６０番地",
        "latitude": 38.88462532,
        "longitude": 141.55962167,
        "id": "aaea6319-4536-4f02-a0ae-5caac3851b7f"
    },
    {
        "name": "八雲神社",
        "prefectureName": "宮城県",
        "cityName": "伊具郡丸森町",
        "streetName": "舘矢間舘山字岩前８２番地",
        "latitude": 37.9114317,
        "longitude": 140.7655279,
        "id": "195995c1-200a-4967-92d6-70c4e38df3c0"
    },
    {
        "name": "八雲神社",
        "prefectureName": "宮城県",
        "cityName": "遠田郡涌谷町",
        "streetName": "字烏鴉１３番地",
        "latitude": 38.5284976,
        "longitude": 141.15181712,
        "id": "d148c42d-566a-491a-8f3c-0478bd5faa4d"
    },
    {
        "name": "八雲神社",
        "prefectureName": "宮城県",
        "cityName": "遠田郡美里町",
        "streetName": "練牛字一号２４番地",
        "latitude": 38.51078713,
        "longitude": 141.1115672,
        "id": "04f62a42-24b1-4eda-9d81-b536424e5558"
    },
    {
        "name": "八雲神社",
        "prefectureName": "宮城県",
        "cityName": "石巻市",
        "streetName": "鹿又字町浦９６番地",
        "latitude": 38.49174786,
        "longitude": 141.29125663,
        "id": "bb5befa2-1b19-4c5a-bcc3-65cb30d42eac"
    },
    {
        "name": "八雲神社",
        "prefectureName": "宮城県",
        "cityName": "石巻市",
        "streetName": "小船越字沢田山１７８番地３",
        "latitude": 38.4344851,
        "longitude": 141.3028892,
        "id": "1903f7ff-9c03-47b5-8b2e-52178e4a2944"
    },
    {
        "name": "八雲神社",
        "prefectureName": "宮城県",
        "cityName": "牡鹿郡女川町",
        "streetName": "指ケ浜字指ケ浜６２番地",
        "latitude": 38.47267603,
        "longitude": 141.48142212,
        "id": "e46e6b25-676e-4ccf-8cc6-64d9fa0d3d06"
    },
    {
        "name": "八雲神社",
        "prefectureName": "宮城県",
        "cityName": "石巻市",
        "streetName": "小船越字山畑１９８番地の２",
        "latitude": 38.50354384,
        "longitude": 141.29208104,
        "id": "2479993b-370e-4610-8bd2-a79cdfdd6745"
    },
    {
        "name": "八雲神社",
        "prefectureName": "宮城県",
        "cityName": "伊具郡丸森町",
        "streetName": "字天王１１番地",
        "latitude": 37.89404486,
        "longitude": 140.77825793,
        "id": "3d7c6021-b0d5-4b49-ad05-a998a945ad64"
    },
    {
        "name": "八雲神社",
        "prefectureName": "宮城県",
        "cityName": "牡鹿郡女川町",
        "streetName": "大字浦宿浜字天王１１９番地",
        "latitude": 38.43707186,
        "longitude": 141.40834802,
        "id": "a76b5880-bb1a-4d89-8989-9701cbb3f776"
    },
    {
        "name": "八雲神社",
        "prefectureName": "宮城県",
        "cityName": "大崎市",
        "streetName": "古川深沼１１番地",
        "latitude": 38.58669121,
        "longitude": 140.94831338,
        "id": "4831e66d-9830-4bbb-a4ce-07c46a413fa0"
    },
    {
        "name": "八雲神社",
        "prefectureName": "宮城県",
        "cityName": "亘理郡亘理町",
        "streetName": "逢隈牛袋字天王９番地",
        "latitude": 38.07641946,
        "longitude": 140.88544065,
        "id": "eb049680-f843-4507-b747-ca44274e22c2"
    },
    {
        "name": "八雲神社",
        "prefectureName": "宮城県",
        "cityName": "仙台市青葉区",
        "streetName": "柏木３丁目５番１６号",
        "latitude": 38.27537135,
        "longitude": 140.85457883,
        "id": "eb3bdd18-8d48-4311-9abf-2834d2411bee"
    },
    {
        "name": "八雲神社",
        "prefectureName": "宮城県",
        "cityName": "栗原市",
        "streetName": "高清水北原３３番地",
        "latitude": 38.63624879,
        "longitude": 141.0101692,
        "id": "9e1b40bd-8593-4fb3-a37e-366905e28e08"
    },
    {
        "name": "八雲神社",
        "prefectureName": "宮城県",
        "cityName": "石巻市",
        "streetName": "桃生町倉埣字人家３７番地",
        "latitude": 38.59300235,
        "longitude": 141.27022896,
        "id": "6682556b-d78d-488f-8af8-c3df0762d57f"
    },
    {
        "name": "八雲神社",
        "prefectureName": "宮城県",
        "cityName": "気仙沼市",
        "streetName": "上東側２４５番地",
        "latitude": 38.95026504,
        "longitude": 141.57505945,
        "id": "0ec94d6d-1d5c-49c3-8be7-9384a65552b2"
    },
    {
        "name": "八雲神社",
        "prefectureName": "宮城県",
        "cityName": "柴田郡柴田町",
        "streetName": "大字入間田字古内２４番地",
        "latitude": 38.11089212,
        "longitude": 140.78748198,
        "id": "88e4dfc1-1d0f-40d8-8f9c-93e5d41dbac0"
    },
    {
        "name": "八雲神社",
        "prefectureName": "宮城県",
        "cityName": "刈田郡蔵王町",
        "streetName": "大字円田字道上山８１番地",
        "latitude": 38.09860536,
        "longitude": 140.66044585,
        "id": "de637342-fda6-4055-a867-cf5e38d688dd"
    },
    {
        "name": "八雲神社",
        "prefectureName": "宮城県",
        "cityName": "石巻市",
        "streetName": "桃生町永井字皆川４０番地",
        "latitude": 38.58141526,
        "longitude": 141.28411984,
        "id": "861c09bb-e470-4241-b708-c3209d9ecab6"
    },
    {
        "name": "八雲神社",
        "prefectureName": "宮城県",
        "cityName": "気仙沼市",
        "streetName": "角地１６３番地",
        "latitude": 38.97802095,
        "longitude": 141.51276299,
        "id": "17cfe32c-8b89-43e7-ae05-7a67a34bf635"
    },
    {
        "name": "八雲神社",
        "prefectureName": "宮城県",
        "cityName": "岩沼市",
        "streetName": "長岡字上根崎２２番地",
        "latitude": 38.12657292,
        "longitude": 140.85110755,
        "id": "a06e4312-8393-4835-9768-d8e872524d11"
    },
    {
        "name": "八鳴神社",
        "prefectureName": "宮城県",
        "cityName": "石巻市",
        "streetName": "新山浜不動沢４０番地",
        "latitude": 38.32897241,
        "longitude": 141.52587668,
        "id": "95025d3c-ea78-422c-9c93-e9f3f4f8efb0"
    },
    {
        "name": "八龍神社",
        "prefectureName": "宮城県",
        "cityName": "伊具郡丸森町",
        "streetName": "舘矢間舘山字東原１５９番地",
        "latitude": 37.92255578,
        "longitude": 140.78105651,
        "id": "44d9909b-45ac-4d54-8da7-95ab57c706fb"
    },
    {
        "name": "出羽神社",
        "prefectureName": "宮城県",
        "cityName": "角田市",
        "streetName": "横倉字宮下６９番地",
        "latitude": 37.99532679,
        "longitude": 140.77519196,
        "id": "efea9a54-d9b7-42f2-9220-65ff79f9cb5f"
    },
    {
        "name": "出羽神社",
        "prefectureName": "宮城県",
        "cityName": "加美郡色麻町",
        "streetName": "高城字宮１３番地",
        "latitude": 38.56185087,
        "longitude": 140.84154398,
        "id": "3bda740f-1bc2-4fbf-8001-e55e871b8bc7"
    },
    {
        "name": "出雲神社",
        "prefectureName": "宮城県",
        "cityName": "登米市",
        "streetName": "東和町錦織字山居沢５５番地",
        "latitude": 38.72662993,
        "longitude": 141.27249278,
        "id": "e2c18e27-628e-43eb-9440-a9cd0404bd06"
    },
    {
        "name": "刈田嶺神社",
        "prefectureName": "宮城県",
        "cityName": "刈田郡蔵王町",
        "streetName": "遠刈田温泉字遠刈田１１番地",
        "latitude": 38.0980609,
        "longitude": 140.6584349,
        "id": "a99603f2-9a57-4dcf-a9c2-8556ac931d25"
    },
    {
        "name": "刈田嶺神社",
        "prefectureName": "宮城県",
        "cityName": "刈田郡蔵王町",
        "streetName": "宮字馬場１番地",
        "latitude": 38.05026441,
        "longitude": 140.65287191,
        "id": "bd6b4467-7dce-489b-b2bc-f7e372d962ce"
    },
    {
        "name": "剱神社",
        "prefectureName": "宮城県",
        "cityName": "大崎市",
        "streetName": "古川斎下字宮浦３８番地",
        "latitude": 38.60090783,
        "longitude": 140.88844533,
        "id": "36387171-0265-4098-bcae-0e27583bbb09"
    },
    {
        "name": "加茂神社",
        "prefectureName": "宮城県",
        "cityName": "大崎市",
        "streetName": "田尻字町１９番地",
        "latitude": 38.59961418,
        "longitude": 141.02121201,
        "id": "041c84df-558e-4242-a0f3-591b5c187640"
    },
    {
        "name": "加茂神社",
        "prefectureName": "宮城県",
        "cityName": "気仙沼市",
        "streetName": "唐桑町竹の袖９番地",
        "latitude": 38.96276754,
        "longitude": 141.63112429,
        "id": "ade55a5b-7e42-4579-8237-bf364e9faaa3"
    },
    {
        "name": "加茂神社",
        "prefectureName": "宮城県",
        "cityName": "遠田郡涌谷町",
        "streetName": "涌谷字下町６８番地",
        "latitude": 38.5389571,
        "longitude": 141.1370212,
        "id": "5993eed5-77fd-45c4-92e9-9a46a2fa3af8"
    },
    {
        "name": "北辰神社",
        "prefectureName": "宮城県",
        "cityName": "栗原市",
        "streetName": "若柳字川北欠１番地",
        "latitude": 38.77269241,
        "longitude": 141.13962741,
        "id": "23c9f6f5-cad1-489e-a1c8-f7799490ee55"
    },
    {
        "name": "北野神社",
        "prefectureName": "宮城県",
        "cityName": "気仙沼市",
        "streetName": "芳ノ口１７８番地",
        "latitude": 38.9702304,
        "longitude": 141.51829326,
        "id": "0c3a8882-8c5c-4fa7-80b1-e7841064fd1c"
    },
    {
        "name": "北野神社",
        "prefectureName": "宮城県",
        "cityName": "気仙沼市",
        "streetName": "新町８番６号",
        "latitude": 38.90781399,
        "longitude": 141.56366445,
        "id": "2252c8d4-20cc-4aca-9d57-c7cd9c5c22e1"
    },
    {
        "name": "北野神社",
        "prefectureName": "宮城県",
        "cityName": "栗原市",
        "streetName": "金成宮前４９番地",
        "latitude": 38.83609741,
        "longitude": 141.07988077,
        "id": "74667e70-db6b-43f9-8350-cb380f55fe88"
    },
    {
        "name": "北野神社",
        "prefectureName": "宮城県",
        "cityName": "石巻市",
        "streetName": "雄勝町立浜字天神７番地",
        "latitude": 38.50882059,
        "longitude": 141.51650141,
        "id": "80ae84dc-1c24-4326-8f24-60d9e9433c9e"
    },
    {
        "name": "北野神社",
        "prefectureName": "宮城県",
        "cityName": "石巻市",
        "streetName": "長面字大入山２９番地",
        "latitude": 38.55089379,
        "longitude": 141.45605616,
        "id": "443ac12b-7af1-4f98-8e36-cefa54273e9a"
    },
    {
        "name": "十二宮神社",
        "prefectureName": "宮城県",
        "cityName": "大崎市",
        "streetName": "古川境野宮字北屋敷２５番地",
        "latitude": 38.55726529,
        "longitude": 140.96155229,
        "id": "e84f9c84-b538-4313-952e-fc9ff92cdffb"
    },
    {
        "name": "十文字神社",
        "prefectureName": "宮城県",
        "cityName": "亘理郡亘理町",
        "streetName": "逢隈十文字字宮前８８番地",
        "latitude": 38.06970048,
        "longitude": 140.87710276,
        "id": "6e3614da-5e5b-4177-bbff-439c6691e3cf"
    },
    {
        "name": "千貫神社",
        "prefectureName": "宮城県",
        "cityName": "岩沼市",
        "streetName": "南長谷字諏訪１２８番地の２",
        "latitude": 38.09076724,
        "longitude": 140.84296512,
        "id": "412c7381-68c1-4e52-a07e-922dfd51ce68"
    },
    {
        "name": "厳島神社",
        "prefectureName": "宮城県",
        "cityName": "伊具郡丸森町",
        "streetName": "舘矢間山田字洞場３５番地",
        "latitude": 37.93295147,
        "longitude": 140.7620025,
        "id": "7086c757-02b9-4a10-a70e-3071d0f6232a"
    },
    {
        "name": "古城神社",
        "prefectureName": "宮城県",
        "cityName": "仙台市若林区",
        "streetName": "河原町２丁目７番１０号",
        "latitude": 38.23784887,
        "longitude": 140.89321005,
        "id": "d54e65bd-f428-4618-a47f-6474fff1dc0b"
    },
    {
        "name": "古峯神社",
        "prefectureName": "宮城県",
        "cityName": "本吉郡南三陸町",
        "streetName": "志津川字上の山２７番地の２",
        "latitude": 38.68003445,
        "longitude": 141.44916736,
        "id": "5cc644d7-0275-4ee0-ac33-8f72f7cde683"
    },
    {
        "name": "古川神社",
        "prefectureName": "宮城県",
        "cityName": "大崎市",
        "streetName": "古川諏訪２丁目６番５５号",
        "latitude": 38.58259727,
        "longitude": 140.94946623,
        "id": "22ba2bd4-7138-4fcc-b38f-1e1aa39ded8e"
    },
    {
        "name": "合同会社大伴家持神社",
        "prefectureName": "宮城県",
        "cityName": "仙台市若林区",
        "streetName": "日辺字沖田３５番地",
        "latitude": 38.2443625,
        "longitude": 140.9005396,
        "id": "51219a53-b8be-475a-87bb-465b2c234135"
    },
    {
        "name": "吉田神社",
        "prefectureName": "宮城県",
        "cityName": "宮城郡七ヶ浜町",
        "streetName": "吉田浜字宮ノ前２９番地１",
        "latitude": 38.30961493,
        "longitude": 141.07764677,
        "id": "e1b9442e-6fd8-48c2-933d-09f58c80052a"
    },
    {
        "name": "吉窪神社",
        "prefectureName": "宮城県",
        "cityName": "仙台市宮城野区",
        "streetName": "岡田字浜通２９番地",
        "latitude": 38.266111,
        "longitude": 140.9098261,
        "id": "5f6e073d-b471-430e-97f7-29d515a50042"
    },
    {
        "name": "和光神社",
        "prefectureName": "宮城県",
        "cityName": "仙台市宮城野区",
        "streetName": "鉄砲町４４番地１",
        "latitude": 38.266111,
        "longitude": 140.9098261,
        "id": "5f61d6a8-a964-435d-8e95-38ada88edd7b"
    },
    {
        "name": "和合神社",
        "prefectureName": "宮城県",
        "cityName": "宮城郡松島町",
        "streetName": "北小泉字堂屋４５番地",
        "latitude": 38.42209272,
        "longitude": 141.10055908,
        "id": "7e20fc52-aef3-453c-9674-44e350168bdf"
    },
    {
        "name": "和我神社",
        "prefectureName": "宮城県",
        "cityName": "栗原市",
        "streetName": "築館字萩沢木戸１２２番地",
        "latitude": 38.73479724,
        "longitude": 141.04902167,
        "id": "0f93f97d-deb5-43e1-8938-d4172f9bc70f"
    },
    {
        "name": "和渕神社",
        "prefectureName": "宮城県",
        "cityName": "石巻市",
        "streetName": "和渕字和渕町１番地",
        "latitude": 38.4344851,
        "longitude": 141.3028892,
        "id": "7f9093ee-5764-45ac-8b72-0594aaf19a56"
    },
    {
        "name": "嚴島神社",
        "prefectureName": "宮城県",
        "cityName": "石巻市",
        "streetName": "流留字町１１番地",
        "latitude": 38.4300966,
        "longitude": 141.37801521,
        "id": "f405ccbe-9fa9-4b95-94c2-73a5f419f450"
    },
    {
        "name": "嚴島神社",
        "prefectureName": "宮城県",
        "cityName": "牡鹿郡女川町",
        "streetName": "出島字寺間５番地",
        "latitude": 38.44034451,
        "longitude": 141.52629972,
        "id": "319f6ea4-6608-40cd-975a-ca1868c1faba"
    },
    {
        "name": "坂元神社",
        "prefectureName": "宮城県",
        "cityName": "亘理郡山元町",
        "streetName": "坂元字舘下１６６番地",
        "latitude": 37.91782063,
        "longitude": 140.89330446,
        "id": "8d59fa63-c021-4904-bcfd-004add6ac6f1"
    },
    {
        "name": "堤町天神社",
        "prefectureName": "宮城県",
        "cityName": "仙台市青葉区",
        "streetName": "堤町２丁目１０番１９号",
        "latitude": 38.28475172,
        "longitude": 140.86949564,
        "id": "f86056a8-bc69-48f9-9d43-c6ed78de787c"
    },
    {
        "name": "塩釜神社",
        "prefectureName": "宮城県",
        "cityName": "遠田郡美里町",
        "streetName": "二郷字慶半３５番地",
        "latitude": 38.47636965,
        "longitude": 141.13226063,
        "id": "3a6035c0-ffca-4e4c-8797-9d5558861695"
    },
    {
        "name": "塩釜神社",
        "prefectureName": "宮城県",
        "cityName": "遠田郡美里町",
        "streetName": "和多田沼字上屋敷３番地",
        "latitude": 38.52507423,
        "longitude": 141.09860442,
        "id": "68e69cf0-2dcb-4361-a78c-c248ef15b791"
    },
    {
        "name": "塩釜神社",
        "prefectureName": "宮城県",
        "cityName": "大崎市",
        "streetName": "古川清水沢字北山１３番地",
        "latitude": 38.65141904,
        "longitude": 140.98076448,
        "id": "20e06775-9b88-432c-bbed-bc4d02e930eb"
    },
    {
        "name": "塩釜神社",
        "prefectureName": "宮城県",
        "cityName": "仙台市宮城野区",
        "streetName": "榴岡２丁目２番２２号",
        "latitude": 38.26170181,
        "longitude": 140.88452609,
        "id": "5ac7317d-737f-470e-b75d-fb4b9361a48a"
    },
    {
        "name": "塩釜神社",
        "prefectureName": "宮城県",
        "cityName": "東松島市",
        "streetName": "大塚字長浜１７７番地",
        "latitude": 38.36138324,
        "longitude": 141.13695291,
        "id": "d7697617-175d-441f-9d5f-51a92bff99f5"
    },
    {
        "name": "境野神社",
        "prefectureName": "宮城県",
        "cityName": "栗原市",
        "streetName": "鶯沢北郷的場１１５番地",
        "latitude": 38.8271438,
        "longitude": 140.93025711,
        "id": "4d3358d6-8375-4352-aa12-654523845ff6"
    },
    {
        "name": "増田神社",
        "prefectureName": "宮城県",
        "cityName": "名取市",
        "streetName": "増田２丁目３番１３号",
        "latitude": 38.1721169,
        "longitude": 140.88541349,
        "id": "a8de45d9-9df1-42e4-8acd-19eaddea7fd6"
    },
    {
        "name": "多賀神社",
        "prefectureName": "宮城県",
        "cityName": "仙台市太白区",
        "streetName": "富沢３丁目１５番１号",
        "latitude": 38.21801175,
        "longitude": 140.85948226,
        "id": "70f3a076-6674-4eac-ba6f-8ff9adf86e62"
    },
    {
        "name": "多賀神社",
        "prefectureName": "宮城県",
        "cityName": "多賀城市",
        "streetName": "高崎１丁目１４番１３号",
        "latitude": 38.30034062,
        "longitude": 140.99804998,
        "id": "a171c46e-1bb1-414a-91b7-6ef9ca5257a4"
    },
    {
        "name": "多賀神社",
        "prefectureName": "宮城県",
        "cityName": "名取市",
        "streetName": "高柳字下西５０番地",
        "latitude": 38.17710926,
        "longitude": 140.91329988,
        "id": "3a7ca231-7cb5-488e-bf54-bd00b34d6d3f"
    },
    {
        "name": "大天馬神社",
        "prefectureName": "宮城県",
        "cityName": "大崎市",
        "streetName": "松山長尾字大天馬西１４０番地",
        "latitude": 38.51159436,
        "longitude": 141.06850551,
        "id": "7c4a0f9b-341c-4538-9804-aabdb9d55d1d"
    },
    {
        "name": "大山祇神社",
        "prefectureName": "宮城県",
        "cityName": "仙台市宮城野区",
        "streetName": "原町大字苦竹字新田２６番地",
        "latitude": 38.266111,
        "longitude": 140.9098261,
        "id": "86913042-2307-400b-bf5c-d32d2bdd24b8"
    },
    {
        "name": "大島神社",
        "prefectureName": "宮城県",
        "cityName": "石巻市",
        "streetName": "住吉町１丁目３番１号",
        "latitude": 38.43399375,
        "longitude": 141.31128304,
        "id": "2bc998f4-2139-46a9-bb88-7432b8e44948"
    },
    {
        "name": "大島神社",
        "prefectureName": "宮城県",
        "cityName": "気仙沼市",
        "streetName": "亀山１番地",
        "latitude": 38.87263042,
        "longitude": 141.62255207,
        "id": "3cd7f827-7132-46b3-9b2f-08a90449480f"
    },
    {
        "name": "大崎八幡神社",
        "prefectureName": "宮城県",
        "cityName": "大崎市",
        "streetName": "岩出山下野目字境２８番地",
        "latitude": 38.6319218,
        "longitude": 140.89786178,
        "id": "4516174b-b05b-468d-b5f4-c55ac41260d8"
    },
    {
        "name": "大崎八幡神社",
        "prefectureName": "宮城県",
        "cityName": "大崎市",
        "streetName": "田尻八幡字御殿坂１６番地",
        "latitude": 38.61390128,
        "longitude": 141.01216244,
        "id": "754c1d5d-a68a-453e-811c-b00b73a292c7"
    },
    {
        "name": "大崎神社",
        "prefectureName": "宮城県",
        "cityName": "大崎市",
        "streetName": "古川大崎字名生舘６８番地",
        "latitude": 38.58669121,
        "longitude": 140.94831338,
        "id": "2653abed-d3a4-4182-a65d-6690e68c006a"
    },
    {
        "name": "大日孁神社",
        "prefectureName": "宮城県",
        "cityName": "石巻市",
        "streetName": "皿貝字小沢６番地",
        "latitude": 38.4344851,
        "longitude": 141.3028892,
        "id": "e46edc90-997f-4b50-ad91-cc7fdf21f85d"
    },
    {
        "name": "大杉神社",
        "prefectureName": "宮城県",
        "cityName": "気仙沼市",
        "streetName": "町裏２４１番地の１",
        "latitude": 38.9080807,
        "longitude": 141.5699943,
        "id": "b7b48a15-e736-44c8-8f5a-9444dd17ae88"
    },
    {
        "name": "大槻神社",
        "prefectureName": "宮城県",
        "cityName": "伊具郡丸森町",
        "streetName": "小斎字松崎５３番地",
        "latitude": 37.90997996,
        "longitude": 140.81585092,
        "id": "67dd440e-c06f-423b-8e2d-a83057866760"
    },
    {
        "name": "大荒山神社",
        "prefectureName": "宮城県",
        "cityName": "角田市",
        "streetName": "稲置字舛内６３番地",
        "latitude": 38.00965232,
        "longitude": 140.7371165,
        "id": "a8fff4c9-4e53-4e77-b794-bc85db27f69c"
    },
    {
        "name": "大高山神社",
        "prefectureName": "宮城県",
        "cityName": "柴田郡大河原町",
        "streetName": "金ケ瀬字台部２番地の１",
        "latitude": 38.03862824,
        "longitude": 140.69988797,
        "id": "5383d392-d144-4eb1-a7fb-c22bd0811117"
    },
    {
        "name": "天神社",
        "prefectureName": "宮城県",
        "cityName": "遠田郡美里町",
        "streetName": "青生字水越６１番地の３",
        "latitude": 38.5444047,
        "longitude": 141.0566995,
        "id": "a0ec4b34-4018-4005-b800-0b83fd1de104"
    },
    {
        "name": "天神社",
        "prefectureName": "宮城県",
        "cityName": "大崎市",
        "streetName": "古川長岡針字成田２３９番地",
        "latitude": 38.58989843,
        "longitude": 141.00703926,
        "id": "6f552d0c-f799-4c6f-b50f-3b56ccca0092"
    },
    {
        "name": "天神社",
        "prefectureName": "宮城県",
        "cityName": "遠田郡涌谷町",
        "streetName": "上郡字上郡澤７番地",
        "latitude": 38.5770822,
        "longitude": 141.10094522,
        "id": "081f56e2-5264-42ec-806a-db9f96de2c5b"
    },
    {
        "name": "天神社",
        "prefectureName": "宮城県",
        "cityName": "大崎市",
        "streetName": "古川狐塚字天神浦２９番地",
        "latitude": 38.60421566,
        "longitude": 140.98176152,
        "id": "d007f6fb-f73f-4b5e-8e2b-a4582dbc747b"
    },
    {
        "name": "天神社",
        "prefectureName": "宮城県",
        "cityName": "登米市",
        "streetName": "迫町佐沼字下田中４７番地",
        "latitude": 38.68914175,
        "longitude": 141.18839224,
        "id": "59c61911-67f9-48f3-84fa-a72596effa4c"
    },
    {
        "name": "天神社",
        "prefectureName": "宮城県",
        "cityName": "亘理郡山元町",
        "streetName": "高瀬字北ノ原３４番地",
        "latitude": 37.94141425,
        "longitude": 140.87485511,
        "id": "4666da43-c177-42e3-8eaa-70a58955e45a"
    },
    {
        "name": "天神社",
        "prefectureName": "宮城県",
        "cityName": "白石市",
        "streetName": "白川津田字寺下１５９番地",
        "latitude": 38.02871225,
        "longitude": 140.68669547,
        "id": "fd5e764a-6a21-47d1-b058-6772ba66939a"
    },
    {
        "name": "天神社",
        "prefectureName": "宮城県",
        "cityName": "大崎市",
        "streetName": "古川小泉字下大小５８番地",
        "latitude": 38.58936599,
        "longitude": 140.95044917,
        "id": "3a34a384-eb94-4f4c-bf94-e133ee4d35bb"
    },
    {
        "name": "天神社",
        "prefectureName": "宮城県",
        "cityName": "刈田郡蔵王町",
        "streetName": "大字曲竹字天神山１３番地",
        "latitude": 38.0980609,
        "longitude": 140.6584349,
        "id": "46f82584-ece4-419b-95b6-2278217cde81"
    },
    {
        "name": "天神社",
        "prefectureName": "宮城県",
        "cityName": "刈田郡蔵王町",
        "streetName": "大字塩沢字大山１８番地",
        "latitude": 38.09302868,
        "longitude": 140.68100859,
        "id": "fe324988-1955-4644-a869-519c9b678646"
    },
    {
        "name": "天神社",
        "prefectureName": "宮城県",
        "cityName": "黒川郡大郷町",
        "streetName": "羽生字天神畑９番地",
        "latitude": 38.43391686,
        "longitude": 141.02469465,
        "id": "dd362779-baf2-43ca-ad88-a475f2a73c07"
    },
    {
        "name": "天神社",
        "prefectureName": "宮城県",
        "cityName": "柴田郡川崎町",
        "streetName": "大字川内字天神前１２６番地",
        "latitude": 38.20746912,
        "longitude": 140.63812878,
        "id": "b99850f1-e178-4626-81d5-e452e90769ab"
    },
    {
        "name": "天神社",
        "prefectureName": "宮城県",
        "cityName": "宮城郡松島町",
        "streetName": "初原字宮下１６番地",
        "latitude": 38.40326636,
        "longitude": 141.05392688,
        "id": "6b8a9241-d95d-4a52-9fae-473906350a31"
    },
    {
        "name": "天神社",
        "prefectureName": "宮城県",
        "cityName": "黒川郡大和町",
        "streetName": "鶴巣太田字川原田４９番地",
        "latitude": 38.38622609,
        "longitude": 140.9499779,
        "id": "6674f181-86f0-4ed1-bd6b-b9cb134fb4db"
    },
    {
        "name": "天神社",
        "prefectureName": "宮城県",
        "cityName": "柴田郡川崎町",
        "streetName": "大字小野字裏山１５番地の２",
        "latitude": 38.1779531,
        "longitude": 140.6432716,
        "id": "072dc14e-b8fd-43d4-8049-4e84c0a85ee2"
    },
    {
        "name": "天神社",
        "prefectureName": "宮城県",
        "cityName": "角田市",
        "streetName": "角田字町１６６番地",
        "latitude": 37.97439605,
        "longitude": 140.777615,
        "id": "b4c0979c-5f28-4753-83ac-fbbad64a8554"
    },
    {
        "name": "天神社",
        "prefectureName": "宮城県",
        "cityName": "大崎市",
        "streetName": "松山次橋字次橋５３番地",
        "latitude": 38.51283834,
        "longitude": 141.02759526,
        "id": "2e53d238-393e-48b1-a4d9-68c301419588"
    },
    {
        "name": "天神社",
        "prefectureName": "宮城県",
        "cityName": "石巻市",
        "streetName": "馬鞍字台３２番地",
        "latitude": 38.4344851,
        "longitude": 141.3028892,
        "id": "323c540d-1787-4611-b76e-3b0e8465c4dc"
    },
    {
        "name": "太平神社",
        "prefectureName": "宮城県",
        "cityName": "白石市",
        "streetName": "大平中目字太平山１２番地",
        "latitude": 37.98283777,
        "longitude": 140.61155073,
        "id": "8c207db6-7606-45e6-b73f-3352e677ab4d"
    },
    {
        "name": "姥神社",
        "prefectureName": "宮城県",
        "cityName": "仙台市宮城野区",
        "streetName": "宮千代１丁目４番５号",
        "latitude": 38.266111,
        "longitude": 140.9098261,
        "id": "9554298e-bd7a-4c34-9f67-2450986a1f10"
    },
    {
        "name": "姫宮神社",
        "prefectureName": "宮城県",
        "cityName": "黒川郡大和町",
        "streetName": "落合報恩寺字乳母神１５番地",
        "latitude": 38.43806416,
        "longitude": 140.95267495,
        "id": "428092d1-f3e4-4507-aad4-2119ab9b96af"
    },
    {
        "name": "子松神社",
        "prefectureName": "宮城県",
        "cityName": "大崎市",
        "streetName": "古川新田字鹿島西８２番地",
        "latitude": 38.60283044,
        "longitude": 140.91524845,
        "id": "27a78288-edf8-4449-bf85-b6ab47e494b0"
    },
    {
        "name": "子眉嶺神社",
        "prefectureName": "宮城県",
        "cityName": "角田市",
        "streetName": "高倉字沢田２１５番地",
        "latitude": 37.99825912,
        "longitude": 140.73967251,
        "id": "b745986d-00e2-4fd8-bea3-ac1b3ff5423e"
    },
    {
        "name": "宇佐八幡神社",
        "prefectureName": "宮城県",
        "cityName": "大崎市",
        "streetName": "鳴子温泉字南山７６番地",
        "latitude": 38.74303426,
        "longitude": 140.71671622,
        "id": "ea34b3b0-b2dd-4b23-a5f1-484b03351e3b"
    },
    {
        "name": "宇佐八幡神社",
        "prefectureName": "宮城県",
        "cityName": "仙台市泉区",
        "streetName": "根白石字舘下３６番地",
        "latitude": 38.34850337,
        "longitude": 140.79862738,
        "id": "bf299a96-5bdb-47ff-84b1-3a55df2c8344"
    },
    {
        "name": "宇岐須神社",
        "prefectureName": "宮城県",
        "cityName": "加美郡加美町",
        "streetName": "下新田字上古川９７番地",
        "latitude": 38.5717617,
        "longitude": 140.8547479,
        "id": "093250f7-27d9-482a-971d-58f0a8f4a9c1"
    },
    {
        "name": "安福河伯神社",
        "prefectureName": "宮城県",
        "cityName": "亘理郡亘理町",
        "streetName": "逢隈田沢字堰下２２０番地",
        "latitude": 38.07637688,
        "longitude": 140.84255201,
        "id": "99166d91-c1f5-426c-8b5f-16bdc1cf3b0b"
    },
    {
        "name": "宝龍神社",
        "prefectureName": "宮城県",
        "cityName": "大崎市",
        "streetName": "田尻大沢字油坂２１番地",
        "latitude": 38.58981909,
        "longitude": 141.08691231,
        "id": "cddec6f8-129c-436f-a606-c3b33b3eed7b"
    },
    {
        "name": "宮城県護国神社",
        "prefectureName": "宮城県",
        "cityName": "仙台市青葉区",
        "streetName": "川内１番地",
        "latitude": 38.25229614,
        "longitude": 140.85597679,
        "id": "0c04c571-3dbe-4464-ade7-c8a5791b8a05"
    },
    {
        "name": "宮城野八幡神社",
        "prefectureName": "宮城県",
        "cityName": "仙台市宮城野区",
        "streetName": "銀杏町７番３７号",
        "latitude": 38.26299173,
        "longitude": 140.90705717,
        "id": "dd6772f8-e782-451b-b017-7eee7081493e"
    },
    {
        "name": "富松稲荷神社",
        "prefectureName": "宮城県",
        "cityName": "大崎市",
        "streetName": "古川上埣字四ツ谷２３番地",
        "latitude": 38.58669121,
        "longitude": 140.94831338,
        "id": "c6ac4699-176f-42a3-8234-78c1e359c5bf"
    },
    {
        "name": "尊久老稲荷神社",
        "prefectureName": "宮城県",
        "cityName": "亘理郡亘理町",
        "streetName": "長瀞字坂下１６５番地",
        "latitude": 38.02176628,
        "longitude": 140.8493236,
        "id": "9281641d-e329-4ead-b9d8-a5abe4ac5f4b"
    },
    {
        "name": "小倉神社",
        "prefectureName": "宮城県",
        "cityName": "仙台市青葉区",
        "streetName": "大倉字宮前１番地",
        "latitude": 38.31709596,
        "longitude": 140.70666629,
        "id": "f01af05b-a172-46a7-b731-88dde7e8bbdf"
    },
    {
        "name": "小田原八幡神社",
        "prefectureName": "宮城県",
        "cityName": "仙台市宮城野区",
        "streetName": "小田原弓ノ町２１番地１",
        "latitude": 38.266111,
        "longitude": 140.9098261,
        "id": "9f6f9537-62e4-4e6a-81aa-99185e0c5365"
    },
    {
        "name": "尾崎神社",
        "prefectureName": "宮城県",
        "cityName": "石巻市",
        "streetName": "渡波字本網１番地",
        "latitude": 38.3888265,
        "longitude": 141.36426803,
        "id": "7332a621-1127-4772-b22d-d6f8959f6832"
    },
    {
        "name": "尾崎神社",
        "prefectureName": "宮城県",
        "cityName": "本吉郡南三陸町",
        "streetName": "歌津字尾崎１番地",
        "latitude": 38.69133948,
        "longitude": 141.55942567,
        "id": "1903dc6e-6f7b-49ff-816a-d13a4536b2d8"
    },
    {
        "name": "山祇神社",
        "prefectureName": "宮城県",
        "cityName": "石巻市",
        "streetName": "北上町女川字幼５２番地の２",
        "latitude": 38.57568324,
        "longitude": 141.40175716,
        "id": "52737bfc-4ed2-4378-a848-6ee84377460a"
    },
    {
        "name": "山祗神社",
        "prefectureName": "宮城県",
        "cityName": "東松島市",
        "streetName": "新田字落合６８番地の１",
        "latitude": 38.41745556,
        "longitude": 141.14399574,
        "id": "a0446692-7322-4a97-8189-e7cf7ade90a9"
    },
    {
        "name": "山祗神社",
        "prefectureName": "宮城県",
        "cityName": "牡鹿郡女川町",
        "streetName": "宮ケ崎字宮ケ崎６０番地の１",
        "latitude": 38.4466696,
        "longitude": 141.45342285,
        "id": "a02f2c62-ff26-407a-b958-3139b6b01285"
    },
    {
        "name": "山神社",
        "prefectureName": "宮城県",
        "cityName": "栗原市",
        "streetName": "若柳字上畑岡大森９３番地",
        "latitude": 38.7313759,
        "longitude": 141.08971693,
        "id": "998a6c36-87b4-4572-a606-b3417fec2630"
    },
    {
        "name": "山神社",
        "prefectureName": "宮城県",
        "cityName": "遠田郡美里町",
        "streetName": "牛飼字斉ノ台３７番地",
        "latitude": 38.55585064,
        "longitude": 141.05937615,
        "id": "e4df1504-c6fd-4915-834c-a0c14f0f8dfd"
    },
    {
        "name": "山神社",
        "prefectureName": "宮城県",
        "cityName": "栗原市",
        "streetName": "若柳字川南下大目７５番地の１",
        "latitude": 38.77148392,
        "longitude": 141.13259472,
        "id": "3d77432d-b741-4aae-b957-55c9f455b47e"
    },
    {
        "name": "山神社",
        "prefectureName": "宮城県",
        "cityName": "栗原市",
        "streetName": "栗駒桜田山神下１０６番地",
        "latitude": 38.79589047,
        "longitude": 140.98502362,
        "id": "975c98c6-10f0-4ef7-8e21-44c294afbdfa"
    },
    {
        "name": "山神社",
        "prefectureName": "宮城県",
        "cityName": "亘理郡亘理町",
        "streetName": "吉田字流１４６番地の３８８",
        "latitude": 38.00308664,
        "longitude": 140.8925406,
        "id": "786b9236-c923-4c2b-8635-e8c461f5bf7e"
    },
    {
        "name": "山神社",
        "prefectureName": "宮城県",
        "cityName": "遠田郡涌谷町",
        "streetName": "下郡字竹花２４番地",
        "latitude": 38.56940531,
        "longitude": 141.12217155,
        "id": "a96725ca-e6fe-4e14-bbdc-43ebf9bc3899"
    },
    {
        "name": "山神社",
        "prefectureName": "宮城県",
        "cityName": "栗原市",
        "streetName": "一迫字清水目南沢１番地",
        "latitude": 38.75195853,
        "longitude": 140.90353591,
        "id": "3b25acba-5bb8-4eb1-890c-f83d1d01823d"
    },
    {
        "name": "山神社",
        "prefectureName": "宮城県",
        "cityName": "栗原市",
        "streetName": "鶯沢南郷野山２７番地",
        "latitude": 38.80556753,
        "longitude": 140.8793309,
        "id": "82408ba9-105b-4de4-ab5f-c9ddb9ad9aa9"
    },
    {
        "name": "山神社",
        "prefectureName": "宮城県",
        "cityName": "栗原市",
        "streetName": "一迫北沢十文字６０番地",
        "latitude": 38.76558142,
        "longitude": 140.89180589,
        "id": "058d4a3f-8cce-4a9a-adfc-e2f6f8108fd2"
    },
    {
        "name": "岩倉神社",
        "prefectureName": "宮城県",
        "cityName": "気仙沼市",
        "streetName": "本吉町菖蒲沢１１８番地",
        "latitude": 38.78551292,
        "longitude": 141.47946002,
        "id": "9812d635-c954-471d-9372-1bf6eed793d6"
    },
    {
        "name": "嶋館神社",
        "prefectureName": "宮城県",
        "cityName": "柴田郡大河原町",
        "streetName": "字千塚前７０番地",
        "latitude": 38.0659244,
        "longitude": 140.73486673,
        "id": "194a0757-a65b-4c02-93a2-4b225339e564"
    },
    {
        "name": "川口神社",
        "prefectureName": "宮城県",
        "cityName": "亘理郡亘理町",
        "streetName": "荒浜字明神西１９０番地の１",
        "latitude": 38.05114,
        "longitude": 140.90433812,
        "id": "89ee6f81-c1b2-4f08-adf5-6b8463ba1acd"
    },
    {
        "name": "平八幡神社",
        "prefectureName": "宮城県",
        "cityName": "気仙沼市",
        "streetName": "川原崎６６番地",
        "latitude": 38.90944139,
        "longitude": 141.54717436,
        "id": "34b8af57-d210-4351-b0ca-a6ca9649d8d8"
    },
    {
        "name": "平田神社",
        "prefectureName": "宮城県",
        "cityName": "仙台市宮城野区",
        "streetName": "原町２丁目１番３７号",
        "latitude": 38.26620783,
        "longitude": 140.90277117,
        "id": "b712bcb7-6046-4413-9fb5-c0d0da2477f9"
    },
    {
        "name": "平野神社",
        "prefectureName": "宮城県",
        "cityName": "栗原市",
        "streetName": "若柳字川北新町１０６番地の１",
        "latitude": 38.77148392,
        "longitude": 141.13259472,
        "id": "6a1a1604-9ddc-4bcd-9c8d-4c3aa1d60a1f"
    },
    {
        "name": "広原神社",
        "prefectureName": "宮城県",
        "cityName": "加美郡加美町",
        "streetName": "菜切谷字山道２３番地の１",
        "latitude": 38.59063909,
        "longitude": 140.85988525,
        "id": "719c197c-98f1-4d34-8523-24f35dc77dbd"
    },
    {
        "name": "庭足神社",
        "prefectureName": "宮城県",
        "cityName": "牡鹿郡女川町",
        "streetName": "竹浦字月浜３４番地",
        "latitude": 38.4454472,
        "longitude": 141.4430212,
        "id": "50e561a0-dc7b-440e-a306-0f2365069f93"
    },
    {
        "name": "廣幡八幡神社",
        "prefectureName": "宮城県",
        "cityName": "石巻市",
        "streetName": "小船越字町屋敷５５番地",
        "latitude": 38.49767146,
        "longitude": 141.27088024,
        "id": "712bd181-18b1-47fc-a6fd-8a015ef8d4fb"
    },
    {
        "name": "御前姫神社",
        "prefectureName": "宮城県",
        "cityName": "遠田郡涌谷町",
        "streetName": "猪岡短台字大谷地５４番地",
        "latitude": 38.55645776,
        "longitude": 141.22299844,
        "id": "7a742173-c726-4ca3-8825-8b22331ad8b1"
    },
    {
        "name": "御崎神社",
        "prefectureName": "宮城県",
        "cityName": "気仙沼市",
        "streetName": "唐桑町崎浜７番地",
        "latitude": 38.89297302,
        "longitude": 141.65337097,
        "id": "81085a32-b448-4ea5-bb07-65ea21c9777a"
    },
    {
        "name": "御嶽神社",
        "prefectureName": "宮城県",
        "cityName": "栗原市",
        "streetName": "鶯沢袋持添２６番地",
        "latitude": 38.80346683,
        "longitude": 140.95405067,
        "id": "e21cbdc9-6a5e-41d4-a7c9-7c9e215fbdcf"
    },
    {
        "name": "御嶽神社",
        "prefectureName": "宮城県",
        "cityName": "栗原市",
        "streetName": "栗駒菱沼御嶽１６番地",
        "latitude": 38.80213835,
        "longitude": 141.01490545,
        "id": "a00be273-2d11-4850-9e53-be3a01b17677"
    },
    {
        "name": "御嶽神社",
        "prefectureName": "宮城県",
        "cityName": "栗原市",
        "streetName": "瀬峰蔵王８５番地",
        "latitude": 38.6529137,
        "longitude": 141.04252033,
        "id": "50a5429e-e4ff-44d2-8c81-4dc40f364c17"
    },
    {
        "name": "御嶽神社",
        "prefectureName": "宮城県",
        "cityName": "栗原市",
        "streetName": "花山字本沢久保４８番地",
        "latitude": 38.79171292,
        "longitude": 140.84644028,
        "id": "fb3acd07-c335-44b0-b700-52709908d7b8"
    },
    {
        "name": "御嶽神社",
        "prefectureName": "宮城県",
        "cityName": "気仙沼市",
        "streetName": "本吉町下川内１番地",
        "latitude": 38.79733656,
        "longitude": 141.48894762,
        "id": "bd78c841-e396-48eb-a7e3-5962c1a7900e"
    },
    {
        "name": "御賀八幡神社",
        "prefectureName": "宮城県",
        "cityName": "栗原市",
        "streetName": "若柳有賀字八幡８２番地",
        "latitude": 38.80491022,
        "longitude": 141.10536807,
        "id": "59da2177-7b7b-4eb3-84e9-e36695e5a213"
    },
    {
        "name": "志呂庫神社",
        "prefectureName": "宮城県",
        "cityName": "大崎市",
        "streetName": "松山長尾字大天馬西１４番地",
        "latitude": 38.51159436,
        "longitude": 141.06850551,
        "id": "c5383f62-0a84-477c-8162-bf28cbe9b802"
    },
    {
        "name": "志波姫神社",
        "prefectureName": "宮城県",
        "cityName": "栗原市",
        "streetName": "高清水五輪４４番地の４",
        "latitude": 38.6652206,
        "longitude": 141.00402165,
        "id": "d7bea2ba-0eca-4bd5-b8dc-2edad80ad87d"
    },
    {
        "name": "志波姫神社",
        "prefectureName": "宮城県",
        "cityName": "大崎市",
        "streetName": "古川桜ノ目字高谷地２０５番地",
        "latitude": 38.59880383,
        "longitude": 140.9477379,
        "id": "1301f9ca-0710-4b60-83a8-4939d2764d26"
    },
    {
        "name": "志波姫神社",
        "prefectureName": "宮城県",
        "cityName": "栗原市",
        "streetName": "志波姫八樟新田１２６番地",
        "latitude": 38.7432851,
        "longitude": 141.05362329,
        "id": "81a874f7-2fbb-4509-9d63-69b6c6f48230"
    },
    {
        "name": "志波彦神社鹽竈神社",
        "prefectureName": "宮城県",
        "cityName": "塩竈市",
        "streetName": "一森山１番１号",
        "latitude": 38.31905534,
        "longitude": 141.01362482,
        "id": "5ba84be0-52de-44f6-884c-368ea218c719"
    },
    {
        "name": "愛宕神社",
        "prefectureName": "宮城県",
        "cityName": "栗原市",
        "streetName": "若柳字大林町裏２１８番地",
        "latitude": 38.787356,
        "longitude": 141.09081446,
        "id": "5ff96266-8dab-4cd6-ba6b-cce434d37a5e"
    },
    {
        "name": "愛宕神社",
        "prefectureName": "宮城県",
        "cityName": "栗原市",
        "streetName": "金成沢辺館下７８番地",
        "latitude": 38.81037812,
        "longitude": 141.07504312,
        "id": "732376f7-6e3f-4b76-a6f5-26231c7a363f"
    },
    {
        "name": "愛宕神社",
        "prefectureName": "宮城県",
        "cityName": "登米市",
        "streetName": "中田町上沼字弥勒寺寺山２番地の１",
        "latitude": 38.720559,
        "longitude": 141.21155836,
        "id": "8eb9c7f4-44b1-43b4-94c7-78c49d3473ed"
    },
    {
        "name": "愛宕神社",
        "prefectureName": "宮城県",
        "cityName": "伊具郡丸森町",
        "streetName": "字渕上１８番地",
        "latitude": 37.91075968,
        "longitude": 140.77337715,
        "id": "6ab90670-4988-4875-9952-0c44b2ec8446"
    },
    {
        "name": "愛宕神社",
        "prefectureName": "宮城県",
        "cityName": "大崎市",
        "streetName": "古川桑針字横道下３６番地",
        "latitude": 38.55312809,
        "longitude": 141.00592409,
        "id": "7466d8be-ca15-42c2-95b0-f6eccd0a1f85"
    },
    {
        "name": "愛宕神社",
        "prefectureName": "宮城県",
        "cityName": "登米市",
        "streetName": "豊里町寿崎２６番地",
        "latitude": 38.58253897,
        "longitude": 141.24708428,
        "id": "85d20b09-6fca-4251-9959-2d266293d21f"
    },
    {
        "name": "愛宕神社",
        "prefectureName": "宮城県",
        "cityName": "登米市",
        "streetName": "中田町石森字白地２２６番地",
        "latitude": 38.720559,
        "longitude": 141.21155836,
        "id": "d24e354d-e469-4eaf-8ccb-378c9678aca5"
    },
    {
        "name": "愛宕神社",
        "prefectureName": "宮城県",
        "cityName": "宮城郡松島町",
        "streetName": "手樽字三浦９１番地",
        "latitude": 38.3801309,
        "longitude": 141.0672435,
        "id": "66fb4a12-3a24-4b19-bbde-d5426ee42ff0"
    },
    {
        "name": "愛宕神社",
        "prefectureName": "宮城県",
        "cityName": "仙台市太白区",
        "streetName": "向山４丁目１７番１号",
        "latitude": 38.24573322,
        "longitude": 140.87520594,
        "id": "5c06422f-7755-4942-897e-110e8aa30aed"
    },
    {
        "name": "愛宕神社",
        "prefectureName": "宮城県",
        "cityName": "栗原市",
        "streetName": "若柳字川南二又３２３番地",
        "latitude": 38.77148392,
        "longitude": 141.13259472,
        "id": "313b2545-744d-4882-a47d-12112f30d3eb"
    },
    {
        "name": "愛宕神社",
        "prefectureName": "宮城県",
        "cityName": "登米市",
        "streetName": "迫町森字西表１６７番地",
        "latitude": 38.68914175,
        "longitude": 141.18839224,
        "id": "55a96916-e593-44e7-89e7-47fa91866ed0"
    },
    {
        "name": "愛宕神社",
        "prefectureName": "宮城県",
        "cityName": "刈田郡蔵王町",
        "streetName": "大字平沢字立目場１２３番地",
        "latitude": 38.10298412,
        "longitude": 140.69648401,
        "id": "7fd5d3e9-1557-4e6a-a65c-153904c648f9"
    },
    {
        "name": "愛宕神社",
        "prefectureName": "宮城県",
        "cityName": "仙台市青葉区",
        "streetName": "八幡１丁目４番３号",
        "latitude": 38.26940246,
        "longitude": 140.85145995,
        "id": "997a5084-21f3-4665-9b90-e9e052f95632"
    },
    {
        "name": "愛宕神社",
        "prefectureName": "宮城県",
        "cityName": "刈田郡七ヶ宿町",
        "streetName": "字浦山４１番地",
        "latitude": 37.992913,
        "longitude": 140.4419842,
        "id": "403015bf-9bdf-49cb-b206-5440d836277f"
    },
    {
        "name": "愛宕神社",
        "prefectureName": "宮城県",
        "cityName": "大崎市",
        "streetName": "松山金谷字前沢５９番地",
        "latitude": 38.50675308,
        "longitude": 141.06306179,
        "id": "bd868aec-3a5c-44a9-b48c-43478c91ee6d"
    },
    {
        "name": "愛宕神社",
        "prefectureName": "宮城県",
        "cityName": "栗原市",
        "streetName": "栗駒芋埣小山崎２番地",
        "latitude": 38.83940325,
        "longitude": 141.01562297,
        "id": "64b4e8f1-3a65-4093-8454-f615e153f977"
    },
    {
        "name": "愛宕神社",
        "prefectureName": "宮城県",
        "cityName": "石巻市",
        "streetName": "広渕字鹿添２１６番地",
        "latitude": 38.4344851,
        "longitude": 141.3028892,
        "id": "9196168f-c34c-4559-9e7d-028ae2dfe1ee"
    },
    {
        "name": "愛宕神社",
        "prefectureName": "宮城県",
        "cityName": "角田市",
        "streetName": "横倉字馬場内５６番地",
        "latitude": 37.9770625,
        "longitude": 140.7819895,
        "id": "9928f8a7-8664-4f86-b034-a7e2a50b228c"
    },
    {
        "name": "愛宕神社",
        "prefectureName": "宮城県",
        "cityName": "栗原市",
        "streetName": "築館字太田西原１１番地",
        "latitude": 38.7500697,
        "longitude": 141.0136772,
        "id": "5f3dd50b-9391-4897-bf68-e73afa63123d"
    },
    {
        "name": "愛宕神社",
        "prefectureName": "宮城県",
        "cityName": "登米市",
        "streetName": "登米町小島西針田６７番地",
        "latitude": 38.64572624,
        "longitude": 141.25419194,
        "id": "a15f6bb9-6ffb-446d-a623-5656404fc29a"
    },
    {
        "name": "愛宕神社",
        "prefectureName": "宮城県",
        "cityName": "塩竈市",
        "streetName": "泉ケ岡１１番７号",
        "latitude": 38.31619449,
        "longitude": 141.01376948,
        "id": "86c4c3f1-0604-47b3-ba0b-13ee21bf4249"
    },
    {
        "name": "愛宕神社",
        "prefectureName": "宮城県",
        "cityName": "岩沼市",
        "streetName": "下野郷字上中筋７６番地",
        "latitude": 38.11065039,
        "longitude": 140.88742746,
        "id": "82fc79e3-7420-41d3-8a3b-85c3a939a146"
    },
    {
        "name": "愛宕神社",
        "prefectureName": "宮城県",
        "cityName": "伊具郡丸森町",
        "streetName": "大内字中山８９番地",
        "latitude": 37.86444929,
        "longitude": 140.82478005,
        "id": "b2aad83b-81ed-4cae-990f-3ecb7e4b57b5"
    },
    {
        "name": "愛宕神社",
        "prefectureName": "宮城県",
        "cityName": "角田市",
        "streetName": "笠島字八神１０番地",
        "latitude": 37.98495489,
        "longitude": 140.73721531,
        "id": "ae8771d5-e936-46f0-bd22-80c764330ae0"
    },
    {
        "name": "愛宕神社",
        "prefectureName": "宮城県",
        "cityName": "栗原市",
        "streetName": "栗駒文字葛峰前５８番地",
        "latitude": 38.83940325,
        "longitude": 141.01562297,
        "id": "f07d15ad-ade1-4ee9-9c88-6bc5fa5d4167"
    },
    {
        "name": "愛宕神社",
        "prefectureName": "宮城県",
        "cityName": "石巻市",
        "streetName": "広渕字新田１３４番地",
        "latitude": 38.45916813,
        "longitude": 141.19299401,
        "id": "1d0fad29-8ff9-46ad-9428-e37675ff8681"
    },
    {
        "name": "愛宕神社",
        "prefectureName": "宮城県",
        "cityName": "伊具郡丸森町",
        "streetName": "大内字田林１３番地",
        "latitude": 37.90498032,
        "longitude": 140.81055991,
        "id": "c8704a0f-68e6-42f9-8611-23a87bab8666"
    },
    {
        "name": "愛宕神社",
        "prefectureName": "宮城県",
        "cityName": "栗原市",
        "streetName": "一迫字萩生３５番地",
        "latitude": 38.74774264,
        "longitude": 140.9109547,
        "id": "6b45564a-da53-4384-984c-d03aff7e0c26"
    },
    {
        "name": "愛宕神社",
        "prefectureName": "宮城県",
        "cityName": "石巻市",
        "streetName": "須江字澤田６１番地",
        "latitude": 38.47609226,
        "longitude": 141.23938639,
        "id": "71e7383e-f22a-42b8-a605-b374456c1dbd"
    },
    {
        "name": "愛宕神社",
        "prefectureName": "宮城県",
        "cityName": "伊具郡丸森町",
        "streetName": "舘矢間舘山字大門３６番地の８",
        "latitude": 37.9114317,
        "longitude": 140.7655279,
        "id": "1832d0be-c664-4a58-89dd-ca2e8cda25ff"
    },
    {
        "name": "愛宕神社",
        "prefectureName": "宮城県",
        "cityName": "東松島市",
        "streetName": "大字牛網字鷹の巣山３番地",
        "latitude": 38.4261672,
        "longitude": 141.210244,
        "id": "63e5a790-6708-41d5-ad4b-e7dd6267ec91"
    },