[
    {
        "name": "一之矢神社",
        "prefectureName": "福島県",
        "cityName": "いわき市",
        "streetName": "内郷御台境町六反田５０番地",
        "latitude": 37.05280099,
        "longitude": 140.86792777,
        "id": "370a71cc-1789-4d37-bda9-97009b1ca8d0"
    },
    {
        "name": "一宮八幡神社",
        "prefectureName": "福島県",
        "cityName": "いわき市",
        "streetName": "好間町今新田字宮下３５番地",
        "latitude": 37.06607463,
        "longitude": 140.87965946,
        "id": "87de5527-4a3b-4cb0-96ee-07e021b638d6"
    },
    {
        "name": "七所神社",
        "prefectureName": "福島県",
        "cityName": "郡山市",
        "streetName": "田村町小川字田中４０４番地",
        "latitude": 37.35424317,
        "longitude": 140.41974138,
        "id": "dce01d7b-2fe5-42ba-9e89-b5ae8cdbcc13"
    },
    {
        "name": "七社宮神社",
        "prefectureName": "福島県",
        "cityName": "福島市",
        "streetName": "渡利字七社宮１３番地",
        "latitude": 37.7608973,
        "longitude": 140.4746944,
        "id": "f16f84a1-2f62-4889-bd86-39510f4d82d0"
    },
    {
        "name": "三ツ石稲荷神社",
        "prefectureName": "福島県",
        "cityName": "二本松市",
        "streetName": "上川崎字三ツ石５５番地",
        "latitude": 37.60593669,
        "longitude": 140.4877277,
        "id": "bf457f65-2a57-4760-913c-50b0f6759cd5"
    },
    {
        "name": "三光稲荷神社",
        "prefectureName": "福島県",
        "cityName": "西白河郡矢吹町",
        "streetName": "大池２４４番地",
        "latitude": 37.21639694,
        "longitude": 140.33306628,
        "id": "f2e6d2f5-27a2-4568-bfc5-837616308ef9"
    },
    {
        "name": "三吉神社",
        "prefectureName": "福島県",
        "cityName": "伊達郡国見町",
        "streetName": "大字石母田字大清水６番地",
        "latitude": 37.88730996,
        "longitude": 140.54595921,
        "id": "ce11f20a-b765-45ac-badf-9ce8a54983a6"
    },
    {
        "name": "三吉神社",
        "prefectureName": "福島県",
        "cityName": "伊達市",
        "streetName": "梁川町白根字中倉８２番地",
        "latitude": 37.84626587,
        "longitude": 140.65916583,
        "id": "4bdb70a6-1bf5-4223-9f39-0a04b229d2f7"
    },
    {
        "name": "三吉稲荷神社",
        "prefectureName": "福島県",
        "cityName": "須賀川市",
        "streetName": "今泉字町内１６４番地",
        "latitude": 37.32753364,
        "longitude": 140.27228147,
        "id": "3d015ed5-71c4-4d57-b068-651c5fb36745"
    },
    {
        "name": "三島八幡神社",
        "prefectureName": "福島県",
        "cityName": "いわき市",
        "streetName": "鹿島町下蔵持字戸ノ内１０２番地",
        "latitude": 36.99210832,
        "longitude": 140.91635812,
        "id": "6ee798eb-75fe-4c06-9b4d-01203dd6dcc1"
    },
    {
        "name": "三島八幡神社",
        "prefectureName": "福島県",
        "cityName": "いわき市",
        "streetName": "平北白土字西ノ内３１番地",
        "latitude": 37.05371322,
        "longitude": 140.91063125,
        "id": "095f5598-fb74-492f-9abf-ca203d632d37"
    },
    {
        "name": "三島神社",
        "prefectureName": "福島県",
        "cityName": "福島市",
        "streetName": "岡島字上川原１番地",
        "latitude": 37.7608973,
        "longitude": 140.4746944,
        "id": "47006bbe-290a-4b2e-973a-45947df92172"
    },
    {
        "name": "三島神社",
        "prefectureName": "福島県",
        "cityName": "伊達市",
        "streetName": "月舘町上手渡字井戸上山１９番地",
        "latitude": 37.73605903,
        "longitude": 140.60980661,
        "id": "846a7837-eb30-4644-a48d-c8a1d9ac1345"
    },
    {
        "name": "三島神社",
        "prefectureName": "福島県",
        "cityName": "いわき市",
        "streetName": "久之浜町田之網字横内９３番地",
        "latitude": 37.12165804,
        "longitude": 140.99587117,
        "id": "4d2af155-dbf5-4bec-a2b4-634d832dc694"
    },
    {
        "name": "三島神社",
        "prefectureName": "福島県",
        "cityName": "会津若松市",
        "streetName": "一箕町大字八幡字三島３０番地",
        "latitude": 37.50903977,
        "longitude": 139.95456499,
        "id": "a2732f07-6a7c-48ce-9552-97c8b02d925e"
    },
    {
        "name": "三島神社",
        "prefectureName": "福島県",
        "cityName": "東白川郡棚倉町",
        "streetName": "大字山際字屋敷前２９３番地",
        "latitude": 37.01576134,
        "longitude": 140.34776788,
        "id": "8ced4a2f-45b3-42ff-a56d-524a1cbe59dd"
    },
    {
        "name": "三島神社",
        "prefectureName": "福島県",
        "cityName": "河沼郡柳津町",
        "streetName": "大字細八字宮ノ上乙１７６１番地",
        "latitude": 37.54169133,
        "longitude": 139.7321573,
        "id": "60a8c977-c746-436a-ac0e-28d575f8f99c"
    },
    {
        "name": "三島神社",
        "prefectureName": "福島県",
        "cityName": "伊達市",
        "streetName": "中畑４４番地",
        "latitude": 37.82084475,
        "longitude": 140.50399302,
        "id": "405304d8-0c52-4daf-b52e-2259f185e47e"
    },
    {
        "name": "三島神社",
        "prefectureName": "福島県",
        "cityName": "河沼郡柳津町",
        "streetName": "大字冑中字宮ノ上４７６番地",
        "latitude": 37.5260649,
        "longitude": 139.7195008,
        "id": "9a904365-0648-4749-af9d-a14ebd6d1df6"
    },
    {
        "name": "三島神社",
        "prefectureName": "福島県",
        "cityName": "喜多方市",
        "streetName": "熱塩加納町宮川字三島山３０４９番地ノイ",
        "latitude": 37.7271162,
        "longitude": 139.81025013,
        "id": "82cba433-4222-481a-8be9-a0d214792e10"
    },
    {
        "name": "三島神社",
        "prefectureName": "福島県",
        "cityName": "喜多方市",
        "streetName": "岩月町宮津字清水上４６４５番地",
        "latitude": 37.6511299,
        "longitude": 139.8747084,
        "id": "0d96cf9d-7b9b-4f27-9954-34a5a16af97b"
    },
    {
        "name": "三島神社",
        "prefectureName": "福島県",
        "cityName": "南会津郡南会津町",
        "streetName": "大桃字居平２１８番地",
        "latitude": 37.11138245,
        "longitude": 139.45464981,
        "id": "4f33c81d-080b-4b39-b1bb-d9e92c5a9234"
    },
    {
        "name": "三島神社",
        "prefectureName": "福島県",
        "cityName": "福島市",
        "streetName": "飯坂町東湯野字三島９番地",
        "latitude": 37.7608973,
        "longitude": 140.4746944,
        "id": "ed088dcd-084e-4e62-b270-379367023620"
    },
    {
        "name": "三島神社",
        "prefectureName": "福島県",
        "cityName": "郡山市",
        "streetName": "字西ノ内３７番地",
        "latitude": 37.4005451,
        "longitude": 140.360055,
        "id": "fc349eb4-6069-48fa-b42b-529dde285c44"
    },
    {
        "name": "三島神社",
        "prefectureName": "福島県",
        "cityName": "二本松市",
        "streetName": "矢ノ戸２６１番地",
        "latitude": 37.59559613,
        "longitude": 140.47437957,
        "id": "df13e38b-205a-4d9c-b9ca-822b4d4e1d87"
    },
    {
        "name": "三島神社",
        "prefectureName": "福島県",
        "cityName": "南相馬市",
        "streetName": "原町区桜井町２丁目２４２番地",
        "latitude": 37.62308395,
        "longitude": 140.94147993,
        "id": "0a4d0978-d73c-4567-959c-667c4617cba7"
    },
    {
        "name": "三島神社",
        "prefectureName": "福島県",
        "cityName": "耶麻郡猪苗代町",
        "streetName": "大字堅田字宮前１３０８番地",
        "latitude": 37.53586245,
        "longitude": 140.10874952,
        "id": "211e6e7a-7edb-4b48-8721-883f9cfe2b64"
    },
    {
        "name": "三島神社",
        "prefectureName": "福島県",
        "cityName": "大沼郡三島町",
        "streetName": "大字桑原字居平１５０番地",
        "latitude": 37.46507189,
        "longitude": 139.63942461,
        "id": "3bc31bbd-1cc8-4909-a321-1d9975c8bdce"
    },
    {
        "name": "三島神社",
        "prefectureName": "福島県",
        "cityName": "喜多方市",
        "streetName": "熱塩加納町米岡字大六天丁１６００番地",
        "latitude": 37.7271162,
        "longitude": 139.81025013,
        "id": "ef60df6a-5f60-4bc6-8600-f8adf153a30e"
    },
    {
        "name": "三島神社",
        "prefectureName": "福島県",
        "cityName": "南会津郡南会津町",
        "streetName": "長野字下川原１９５０番地",
        "latitude": 37.21804097,
        "longitude": 139.82827011,
        "id": "33765b7a-34a3-458c-9ca0-78c0620d2a8a"
    },
    {
        "name": "三島神社",
        "prefectureName": "福島県",
        "cityName": "福島市",
        "streetName": "成川字台２０番地",
        "latitude": 37.73996252,
        "longitude": 140.44051529,
        "id": "67ce8225-ea22-4dd2-8e42-60530c441d29"
    },
    {
        "name": "三島神社",
        "prefectureName": "福島県",
        "cityName": "二本松市",
        "streetName": "木藤次郎内８３番地",
        "latitude": 37.58256344,
        "longitude": 140.43557587,
        "id": "c084b629-1eee-43d4-ba55-abb15bcd6b1b"
    },
    {
        "name": "三島神社",
        "prefectureName": "福島県",
        "cityName": "いわき市",
        "streetName": "小川町三島字仲屋敷１１９番地",
        "latitude": 37.12424575,
        "longitude": 140.86863472,
        "id": "24b95f19-0629-4f58-8d65-2590b97270fb"
    },
    {
        "name": "三島神社",
        "prefectureName": "福島県",
        "cityName": "南相馬市",
        "streetName": "原町区本町１丁目１番地",
        "latitude": 37.64042728,
        "longitude": 140.95700573,
        "id": "04711fb1-852d-4616-92b2-c5f4ce47ca1f"
    },
    {
        "name": "三島神社",
        "prefectureName": "福島県",
        "cityName": "大沼郡三島町",
        "streetName": "大字宮下字中田１５３３番地",
        "latitude": 37.47029369,
        "longitude": 139.64565416,
        "id": "f7b03508-841c-43bc-9195-97e76a2909de"
    },
    {
        "name": "三島神社",
        "prefectureName": "福島県",
        "cityName": "河沼郡会津坂下町",
        "streetName": "大字御池田字小池１０２番地",
        "latitude": 37.57362169,
        "longitude": 139.84045661,
        "id": "d0714348-2045-4829-a16e-8f3c80af4f28"
    },
    {
        "name": "三島神社",
        "prefectureName": "福島県",
        "cityName": "喜多方市",
        "streetName": "上三宮町上三宮字池田１６５５番地",
        "latitude": 37.68950795,
        "longitude": 139.8601776,
        "id": "bb450384-7b2e-497c-8f62-8beffedc9a51"
    },
    {
        "name": "三島神社",
        "prefectureName": "福島県",
        "cityName": "南会津郡南会津町",
        "streetName": "糸沢字岩渕３０４９番地",
        "latitude": 37.11472062,
        "longitude": 139.71389418,
        "id": "e041a809-68a3-44e5-ae0c-5db7089a9820"
    },
    {
        "name": "三島神社",
        "prefectureName": "福島県",
        "cityName": "福島市",
        "streetName": "瀬上町字荒町１３番地",
        "latitude": 37.7608973,
        "longitude": 140.4746944,
        "id": "2cc36138-5c6d-4697-8ebb-05c59fcb0bf8"
    },
    {
        "name": "三島神社",
        "prefectureName": "福島県",
        "cityName": "二本松市",
        "streetName": "下川崎字宮３８番地",
        "latitude": 37.6341337,
        "longitude": 140.49985328,
        "id": "e1dcc18b-edb8-4ab0-88a1-0e8356d51f53"
    },
    {
        "name": "三島神社",
        "prefectureName": "福島県",
        "cityName": "喜多方市",
        "streetName": "塩川町新江木字新江田１３００番地",
        "latitude": 37.59491794,
        "longitude": 139.88969777,
        "id": "75e65859-c855-4dd3-8513-839fc17e0b19"
    },
    {
        "name": "三島神社",
        "prefectureName": "福島県",
        "cityName": "西白河郡中島村",
        "streetName": "大字吉岡字宮ノ上１番地",
        "latitude": 37.12971438,
        "longitude": 140.36232553,
        "id": "7a220fba-ebdf-4ea3-b786-f561f23e0bd7"
    },
    {
        "name": "三島神社",
        "prefectureName": "福島県",
        "cityName": "会津若松市",
        "streetName": "大戸町大字上三寄字上ノ台丙５８２番地",
        "latitude": 37.4947606,
        "longitude": 139.9298124,
        "id": "0fb7a194-f2c0-4752-8075-5f7318b4ef35"
    },
    {
        "name": "三島神社",
        "prefectureName": "福島県",
        "cityName": "大沼郡昭和村",
        "streetName": "大字小野川字後沢４６３番地",
        "latitude": 37.32588665,
        "longitude": 139.68904101,
        "id": "cc74fb9a-2f14-416e-a9b9-1a38e94376dc"
    },
    {
        "name": "三島神社",
        "prefectureName": "福島県",
        "cityName": "喜多方市",
        "streetName": "塩川町小府根字利根川１２９番地",
        "latitude": 37.61715423,
        "longitude": 139.89504088,
        "id": "da04c8c2-4c34-4cac-9674-5e401070ac37"
    },
    {
        "name": "三嶽神社",
        "prefectureName": "福島県",
        "cityName": "須賀川市",
        "streetName": "小中字上ミ４４番地",
        "latitude": 37.27964145,
        "longitude": 140.23418734,
        "id": "0fc15f55-92f1-493e-b893-7bc567923cd8"
    },
    {
        "name": "三方山神神社",
        "prefectureName": "福島県",
        "cityName": "相馬郡新地町",
        "streetName": "谷地小屋字新地１０５番地",
        "latitude": 37.87607028,
        "longitude": 140.91601567,
        "id": "747cf927-c50f-4f63-a935-00697e16ffaa"
    },
    {
        "name": "三柱神社",
        "prefectureName": "福島県",
        "cityName": "白河市",
        "streetName": "向寺１０１番地",
        "latitude": 37.13486925,
        "longitude": 140.22212192,
        "id": "76eef9c5-d655-417a-9948-715fdaf4f75b"
    },
    {
        "name": "三柱神社",
        "prefectureName": "福島県",
        "cityName": "東白川郡棚倉町",
        "streetName": "大字上手沢字古屋敷５５番地",
        "latitude": 37.0299047,
        "longitude": 140.3796478,
        "id": "95916517-6950-486f-88b1-79423a5e4dd9"
    },
    {
        "name": "三柱神社",
        "prefectureName": "福島県",
        "cityName": "郡山市",
        "streetName": "喜久田町大字堀之内字外左エ門段１番地２３号",
        "latitude": 37.4005451,
        "longitude": 140.360055,
        "id": "1205e2da-be9f-4a12-99f2-f952a288b10d"
    },
    {
        "name": "三歳神社",
        "prefectureName": "福島県",
        "cityName": "いわき市",
        "streetName": "平鯨岡字田中山１０番地",
        "latitude": 37.0655916,
        "longitude": 140.90179867,
        "id": "2da176be-ac9b-4a7e-a9f7-20d34707c9e7"
    },
    {
        "name": "三河稲荷神社",
        "prefectureName": "福島県",
        "cityName": "福島市",
        "streetName": "三河南町２１番１号",
        "latitude": 37.7608973,
        "longitude": 140.4746944,
        "id": "11e9149a-b272-49bb-8839-119335941994"
    },
    {
        "name": "三渡神社",
        "prefectureName": "福島県",
        "cityName": "郡山市",
        "streetName": "西田町高柴字峠森１２８番地",
        "latitude": 37.46136357,
        "longitude": 140.46298382,
        "id": "9490600a-419c-4fad-97fb-e726081647f5"
    },
    {
        "name": "三渡神社",
        "prefectureName": "福島県",
        "cityName": "田村郡小野町",
        "streetName": "大字湯沢字中平１４１番地",
        "latitude": 37.286839,
        "longitude": 140.6262796,
        "id": "e35c4b2c-eff3-41cb-8962-9863cbbe878f"
    },
    {
        "name": "三渡神社",
        "prefectureName": "福島県",
        "cityName": "郡山市",
        "streetName": "中田町駒板字表２３７番地",
        "latitude": 37.39120434,
        "longitude": 140.52267089,
        "id": "7ccc8787-fe9f-4753-9eae-9d50905aa7f0"
    },
    {
        "name": "三渡神社",
        "prefectureName": "福島県",
        "cityName": "二本松市",
        "streetName": "杉沢字宮ノ前２０番地",
        "latitude": 37.51051052,
        "longitude": 140.57408511,
        "id": "b25160b6-74ba-4211-8d07-0f8efdc7c169"
    },
    {
        "name": "三渡神社",
        "prefectureName": "福島県",
        "cityName": "二本松市",
        "streetName": "永田字積内１１７番地",
        "latitude": 37.59708065,
        "longitude": 140.40241423,
        "id": "d89da48b-b828-4493-b7de-caac04a62930"
    },
    {
        "name": "三渡神社",
        "prefectureName": "福島県",
        "cityName": "郡山市",
        "streetName": "安原町字安原７７番地",
        "latitude": 37.39962187,
        "longitude": 140.41218186,
        "id": "979a3d44-c394-4930-bc6f-8d6fd89f14a2"
    },
    {
        "name": "三渡神社",
        "prefectureName": "福島県",
        "cityName": "田村市",
        "streetName": "常葉町関本字上野２１５番地",
        "latitude": 37.41549519,
        "longitude": 140.65353332,
        "id": "5756381c-2f69-4160-beeb-a6c9ee42f0c5"
    },
    {
        "name": "三渡神社",
        "prefectureName": "福島県",
        "cityName": "二本松市",
        "streetName": "箕輪１丁目２９５番地",
        "latitude": 37.56739162,
        "longitude": 140.38547263,
        "id": "6c12f2fc-3e23-47b8-b71c-9b9efe90ddf7"
    },
    {
        "name": "三渡神社",
        "prefectureName": "福島県",
        "cityName": "二本松市",
        "streetName": "戸沢字大六天２番地２",
        "latitude": 37.56766143,
        "longitude": 140.57835437,
        "id": "08f104d4-b265-46d4-804d-8a95cf0f36b9"
    },
    {
        "name": "三渡神社",
        "prefectureName": "福島県",
        "cityName": "田村市",
        "streetName": "船引町荒和田字二ツ宮３２１番地",
        "latitude": 37.47385836,
        "longitude": 140.53904228,
        "id": "c6099e32-8826-4e25-a806-29fed07bac64"
    },
    {
        "name": "三渡神社",
        "prefectureName": "福島県",
        "cityName": "田村市",
        "streetName": "船引町長外路字大黒内乙１２９番地",
        "latitude": 37.44107425,
        "longitude": 140.57505511,
        "id": "5e55521a-5637-4e3e-8d4d-cf94ba57ac8d"
    },
    {
        "name": "三渡神社",
        "prefectureName": "福島県",
        "cityName": "二本松市",
        "streetName": "油井字鶴巻９９番地",
        "latitude": 37.5849298,
        "longitude": 140.4310263,
        "id": "b0485f04-bb47-44f7-9e2f-ed7496ed1dd3"
    },
    {
        "name": "三渡神社",
        "prefectureName": "福島県",
        "cityName": "郡山市",
        "streetName": "中田町木目沢字表４２５番地",
        "latitude": 37.37170824,
        "longitude": 140.43103477,
        "id": "211edb89-df84-4aff-8085-8f0148e36784"
    },
    {
        "name": "三渡神社",
        "prefectureName": "福島県",
        "cityName": "本宮市",
        "streetName": "白岩字馬場３９９番地",
        "latitude": 37.5131529,
        "longitude": 140.3938761,
        "id": "fc59e9c5-d260-4f98-ad61-2823a80942d8"
    },
    {
        "name": "三渡神社",
        "prefectureName": "福島県",
        "cityName": "田村郡小野町",
        "streetName": "大字吉野辺字伊達内１９５番地",
        "latitude": 37.32783711,
        "longitude": 140.61267411,
        "id": "8ebc5f04-d452-49ea-97a8-74d7000f8d07"
    },
    {
        "name": "三谷渡神社",
        "prefectureName": "福島県",
        "cityName": "いわき市",
        "streetName": "平上片寄字矢田ノ目１３９番地",
        "latitude": 37.07916867,
        "longitude": 140.92350363,
        "id": "01ac9b70-3a47-45a5-879a-461af6691e8e"
    },
    {
        "name": "三輪神社",
        "prefectureName": "福島県",
        "cityName": "田村市",
        "streetName": "船引町笹山字寺屋敷４６０番地",
        "latitude": 37.45797681,
        "longitude": 140.5331214,
        "id": "91fd6149-d30f-478b-95aa-4ecbd985421f"
    },
    {
        "name": "上作稲荷神社",
        "prefectureName": "福島県",
        "cityName": "田村市",
        "streetName": "船引町今泉字枦内１１１番地",
        "latitude": 37.44107425,
        "longitude": 140.57505511,
        "id": "8ed1d2fc-bb46-42e1-a0c8-bee9b81a3a30"
    },
    {
        "name": "上川神社",
        "prefectureName": "福島県",
        "cityName": "田村市",
        "streetName": "大越町下大越字根木志１５４番地３",
        "latitude": 37.39568892,
        "longitude": 140.62737572,
        "id": "b667ca6c-eb9e-44bd-96ca-fea86c4f9649"
    },
    {
        "name": "中島神社",
        "prefectureName": "福島県",
        "cityName": "二本松市",
        "streetName": "下川崎字観音山２１番地２",
        "latitude": 37.62465161,
        "longitude": 140.51029428,
        "id": "82d73822-0240-45f7-8034-a29faf8256d8"
    },
    {
        "name": "中村神社",
        "prefectureName": "福島県",
        "cityName": "郡山市",
        "streetName": "片平町字木宮４２番地",
        "latitude": 37.41422303,
        "longitude": 140.32254222,
        "id": "d6f9453f-ae37-4a21-84b2-fa38c384d3dd"
    },
    {
        "name": "中津川神社",
        "prefectureName": "福島県",
        "cityName": "郡山市",
        "streetName": "中田町中津川字五斗蒔２９４番地",
        "latitude": 37.35157105,
        "longitude": 140.50954784,
        "id": "b1dc9c92-aade-4336-ba6a-ef44acb6248b"
    },
    {
        "name": "久来石神社",
        "prefectureName": "福島県",
        "cityName": "岩瀬郡鏡石町",
        "streetName": "城ノ内１８６番地",
        "latitude": 37.252591,
        "longitude": 140.3433887,
        "id": "2200955c-a46e-4e74-acdd-bfe40b436e8c"
    },
    {
        "name": "久須斯神社",
        "prefectureName": "福島県",
        "cityName": "田村郡三春町",
        "streetName": "大字実沢字薬師道９６の２番地",
        "latitude": 37.49780854,
        "longitude": 140.54890148,
        "id": "a2ae1996-02c7-4c3d-979b-318bf6d07e55"
    },
    {
        "name": "乙宿禰神社",
        "prefectureName": "福島県",
        "cityName": "郡山市",
        "streetName": "逢瀬町夏出字中の平２番地",
        "latitude": 37.44945705,
        "longitude": 140.27583662,
        "id": "6faa5175-da38-4de9-9b30-dbcfcdac2a60"
    },
    {
        "name": "九瀧神社",
        "prefectureName": "福島県",
        "cityName": "伊達市",
        "streetName": "梁川町舟生字明神前４３番地",
        "latitude": 37.89959372,
        "longitude": 140.65923364,
        "id": "40dd8342-bc9e-4a07-9076-ccb352b66157"
    },
    {
        "name": "九生滝神社",
        "prefectureName": "福島県",
        "cityName": "石川郡平田村",
        "streetName": "大字九生滝字平堂内４１９番地",
        "latitude": 37.221785,
        "longitude": 140.5758784,
        "id": "b9acad86-ffdd-4d77-99c0-024b5b6db081"
    },
    {
        "name": "亀山神社",
        "prefectureName": "福島県",
        "cityName": "双葉郡広野町",
        "streetName": "大字折木字亀ケ崎１４５番地",
        "latitude": 37.19386224,
        "longitude": 140.95892575,
        "id": "6ecf8575-94bb-4e95-b64a-39655158b6f7"
    },
    {
        "name": "亀岡神社",
        "prefectureName": "福島県",
        "cityName": "伊達市",
        "streetName": "霊山町掛田字西裏１３番地",
        "latitude": 37.78285645,
        "longitude": 140.59472295,
        "id": "b12d1683-e071-43a7-985f-063f92eed13b"
    },
    {
        "name": "亀賀森神社",
        "prefectureName": "福島県",
        "cityName": "郡山市",
        "streetName": "三穂田町富岡字亀賀森１番地",
        "latitude": 37.34900889,
        "longitude": 140.26264818,
        "id": "ca61106c-ce35-4d72-9c07-1b3881112ae0"
    },
    {
        "name": "二俣神社",
        "prefectureName": "福島県",
        "cityName": "いわき市",
        "streetName": "小川町下小川字梅ノ作５３番地の１",
        "latitude": 37.10557297,
        "longitude": 140.87416326,
        "id": "141ab04d-fe10-48a3-a657-5d8953678759"
    },
    {
        "name": "二宮神社",
        "prefectureName": "福島県",
        "cityName": "相馬市",
        "streetName": "赤木字二宮１４０番地",
        "latitude": 37.75604737,
        "longitude": 140.93279516,
        "id": "0c9a9fae-1d11-4c8d-a34f-8a6e5f03ccf8"
    },
    {
        "name": "二宮神社",
        "prefectureName": "福島県",
        "cityName": "郡山市",
        "streetName": "島２丁目３９番１８号",
        "latitude": 37.39742565,
        "longitude": 140.34317377,
        "id": "c2fe8f2b-9b9e-4659-915c-838ec83b4179"
    },
    {
        "name": "二屋神社",
        "prefectureName": "福島県",
        "cityName": "いわき市",
        "streetName": "小川町上小川字植ノ内３２番地",
        "latitude": 37.1357886,
        "longitude": 140.85537113,
        "id": "d8708582-c026-4568-b252-acd886e645b8"
    },
    {
        "name": "二本松神社",
        "prefectureName": "福島県",
        "cityName": "二本松市",
        "streetName": "本町１丁目６１番地",
        "latitude": 37.59249015,
        "longitude": 140.43455344,
        "id": "3cc93467-cdb2-459d-8280-14bdfc2083a8"
    },
    {
        "name": "二柱神社",
        "prefectureName": "福島県",
        "cityName": "田村市",
        "streetName": "都路町古道字京久保１２４番地",
        "latitude": 37.39198566,
        "longitude": 140.77479487,
        "id": "c28c07cc-9698-4220-899b-7d2615c4201d"
    },
    {
        "name": "二柱神社",
        "prefectureName": "福島県",
        "cityName": "福島市",
        "streetName": "南矢野目字谷地５６番地",
        "latitude": 37.7608973,
        "longitude": 140.4746944,
        "id": "b8669901-d6e0-47b5-93b8-90c6f3d0b526"
    },
    {
        "name": "二柱神社",
        "prefectureName": "福島県",
        "cityName": "二本松市",
        "streetName": "杉田仲之内９７番地",
        "latitude": 37.56308159,
        "longitude": 140.41194795,
        "id": "557546ae-a423-4e26-afd6-015372c8334d"
    },
    {
        "name": "二柱神社",
        "prefectureName": "福島県",
        "cityName": "東白川郡棚倉町",
        "streetName": "大字寺山字守崎１１５番地",
        "latitude": 36.98207767,
        "longitude": 140.40508647,
        "id": "6bbd4801-e84e-4b0b-8c15-975bf1ee5726"
    },
    {
        "name": "二渡神社",
        "prefectureName": "福島県",
        "cityName": "郡山市",
        "streetName": "田村町徳定字蚕沢１０３番地",
        "latitude": 37.35387024,
        "longitude": 140.37552806,
        "id": "f265772b-d3ff-4aff-b43d-811506653fb8"
    },
    {
        "name": "二渡神社",
        "prefectureName": "福島県",
        "cityName": "二本松市",
        "streetName": "屋戸７５番地の１",
        "latitude": 37.5849298,
        "longitude": 140.4310263,
        "id": "cb791b12-2ff5-49a2-b7c8-5f23dd8a0e9c"
    },
    {
        "name": "二渡神社",
        "prefectureName": "福島県",
        "cityName": "大沼郡会津美里町",
        "streetName": "冨川字惣右エ門作７２５番地",
        "latitude": 37.4598674,
        "longitude": 139.8411142,
        "id": "e8530a17-bed6-49db-b176-c7619050143c"
    },
    {
        "name": "二羽渡神社",
        "prefectureName": "福島県",
        "cityName": "相馬郡新地町",
        "streetName": "小川字二羽渡４６番地",
        "latitude": 37.876362,
        "longitude": 140.9194459,
        "id": "a9c35e88-4fce-4849-b71b-74def6a31159"
    },
    {
        "name": "二荒山神社",
        "prefectureName": "福島県",
        "cityName": "郡山市",
        "streetName": "富久山町北小泉字屋敷内１３６番地",
        "latitude": 37.42414217,
        "longitude": 140.42038338,
        "id": "57742641-6f54-4a8e-b815-4535df68e188"
    },
    {
        "name": "二荒山神社",
        "prefectureName": "福島県",
        "cityName": "南会津郡只見町",
        "streetName": "大字塩ノ岐字下八乙女５３５番地",
        "latitude": 37.3488057,
        "longitude": 139.3161043,
        "id": "508acc70-42ed-4256-abb0-98db03525ebc"
    },
    {
        "name": "二荒山神社",
        "prefectureName": "福島県",
        "cityName": "南会津郡南会津町",
        "streetName": "大原字居平３１８番地",
        "latitude": 37.2004027,
        "longitude": 139.7738871,
        "id": "b412dc49-c6e4-43bd-8f12-48ab547328a7"
    },
    {
        "name": "二荒山神社",
        "prefectureName": "福島県",
        "cityName": "南会津郡南会津町",
        "streetName": "八総字鹿ノ坂甲３９９番地",
        "latitude": 37.2004027,
        "longitude": 139.7738871,
        "id": "6b3a0ba7-fc99-478b-9b5a-211dd6add533"
    },
    {
        "name": "二荒山神社",
        "prefectureName": "福島県",
        "cityName": "喜多方市",
        "streetName": "関柴町下柴字石堂２３９４番地",
        "latitude": 37.67511729,
        "longitude": 139.92253607,
        "id": "46f42f7a-282f-4d59-aaa6-1eb3fee9df9b"
    },
    {
        "name": "二荒山神社",
        "prefectureName": "福島県",
        "cityName": "南会津郡南会津町",
        "streetName": "湯ノ花字滝沢山己８０９番地の２",
        "latitude": 37.2004027,
        "longitude": 139.7738871,
        "id": "7eb656fe-814a-480a-8542-a51a4a085130"
    },
    {
        "name": "二荒山神社",
        "prefectureName": "福島県",
        "cityName": "郡山市",
        "streetName": "荒井町字三百成１７０番地",
        "latitude": 37.4005451,
        "longitude": 140.360055,
        "id": "569f25db-f385-4f62-9a3f-2edd3bf3a855"
    },
    {
        "name": "二荒山神社",
        "prefectureName": "福島県",
        "cityName": "南会津郡南会津町",
        "streetName": "大橋字宇和田４５３番地",
        "latitude": 37.21687042,
        "longitude": 139.52851391,
        "id": "243ea3d1-8e5e-48c4-8a3b-8aa0f49dad09"
    },
    {
        "name": "二荒山神社",
        "prefectureName": "福島県",
        "cityName": "耶麻郡猪苗代町",
        "streetName": "大字千代田字ドウフケ１６番地",
        "latitude": 37.5577815,
        "longitude": 140.1047463,
        "id": "0c2a8aef-c656-44e9-89db-d5a4064423a0"
    },
    {
        "name": "二荒山神社",
        "prefectureName": "福島県",
        "cityName": "南会津郡南会津町",
        "streetName": "糸沢字宮ノ原２３６４番地",
        "latitude": 37.12705264,
        "longitude": 139.71872937,
        "id": "a7db3725-7f72-47c9-bae3-70d163d4d61b"
    },
    {
        "name": "二荒山神社",
        "prefectureName": "福島県",
        "cityName": "南会津郡南会津町",
        "streetName": "糸沢字森前４８４番地",
        "latitude": 37.14768128,
        "longitude": 139.73392713,
        "id": "533ae25d-2a37-4841-a354-1678b2f506ba"
    },
    {
        "name": "二荒山神社",
        "prefectureName": "福島県",
        "cityName": "南会津郡只見町",
        "streetName": "大字布沢字宮ノ上２５５８番地",
        "latitude": 37.3488057,
        "longitude": 139.3161043,
        "id": "0c51fe2c-a4c0-40ac-a541-ad1a4aba7168"
    },
    {
        "name": "二荒山神社",
        "prefectureName": "福島県",
        "cityName": "南会津郡下郷町",
        "streetName": "大字沢田字屋敷続甲９４５番地",
        "latitude": 37.2556158,
        "longitude": 139.8721507,
        "id": "8fd9bbc1-b97a-439e-a18b-b3a6a888e9bb"
    },
    {
        "name": "二荒山神社",
        "prefectureName": "福島県",
        "cityName": "南会津郡只見町",
        "streetName": "大字楢戸字廻戸１２２７番地",
        "latitude": 37.3488057,
        "longitude": 139.3161043,
        "id": "1b845e20-0592-404b-bb45-c329e245311b"
    },
    {
        "name": "二荒神社",
        "prefectureName": "福島県",
        "cityName": "大沼郡金山町",
        "streetName": "大字越川字上ノ平８７６番地",
        "latitude": 37.4535895,
        "longitude": 139.5245228,
        "id": "f62c40a1-1421-4604-9d01-067f24868513"
    },
    {
        "name": "二荒神社",
        "prefectureName": "福島県",
        "cityName": "大沼郡会津美里町",
        "streetName": "西本甲１０８９番地",
        "latitude": 37.4598674,
        "longitude": 139.8411142,
        "id": "9c013b02-5dd9-4492-aa76-b515d6e60235"
    },
    {
        "name": "二荒神社",
        "prefectureName": "福島県",
        "cityName": "大沼郡金山町",
        "streetName": "大字八町字居平６７０番地",
        "latitude": 37.4535895,
        "longitude": 139.5245228,
        "id": "be1b4604-40dd-4f74-9ab0-204d9a380638"
    },
    {
        "name": "二荒神社",
        "prefectureName": "福島県",
        "cityName": "いわき市",
        "streetName": "平下山口字三島５番地",
        "latitude": 37.0207249,
        "longitude": 140.93517469,
        "id": "4d3f8b44-54e9-4099-8dee-73718fe1dd44"
    },
    {
        "name": "二荒神社",
        "prefectureName": "福島県",
        "cityName": "いわき市",
        "streetName": "平上高久字植田郷１５９番地",
        "latitude": 37.03599443,
        "longitude": 140.9247441,
        "id": "0d37a867-73b6-46d5-8f0a-a7d27364c452"
    },
    {
        "name": "二階堂神社",
        "prefectureName": "福島県",
        "cityName": "須賀川市",
        "streetName": "宮先町７８番地",
        "latitude": 37.28964359,
        "longitude": 140.37447076,
        "id": "693270e1-8eb5-46da-a584-0e7fc259b480"
    },
    {
        "name": "五柱神社",
        "prefectureName": "福島県",
        "cityName": "二本松市",
        "streetName": "市海道１０９番地",
        "latitude": 37.58907939,
        "longitude": 140.43470912,
        "id": "b050da30-8a0d-47a1-821f-d95c53a1b2ef"
    },
    {
        "name": "五柱神社",
        "prefectureName": "福島県",
        "cityName": "二本松市",
        "streetName": "本町１丁目１５７番地",
        "latitude": 37.59246246,
        "longitude": 140.4382253,
        "id": "cbca354d-22a0-4480-b6ba-c3e86a6c3c8a"
    },
    {
        "name": "五社八幡神社",
        "prefectureName": "福島県",
        "cityName": "双葉郡川内村",
        "streetName": "大字下川内字五社森３番地",
        "latitude": 37.3376485,
        "longitude": 140.8092416,
        "id": "3212880f-8961-4cfb-97bb-db85ef36e95d"
    },
    {
        "name": "五社稲荷神社",
        "prefectureName": "福島県",
        "cityName": "二本松市",
        "streetName": "竹田１丁目１６２番地",
        "latitude": 37.59725372,
        "longitude": 140.4442745,
        "id": "9737b31f-9b49-47cc-ab80-962a8e59e52e"
    },
    {
        "name": "五竜神社",
        "prefectureName": "福島県",
        "cityName": "西白河郡矢吹町",
        "streetName": "大字柿之内字屋敷１７番地",
        "latitude": 37.2012767,
        "longitude": 140.3386081,
        "id": "7a6b91c1-ad60-4d5f-bbcd-cda78c5d6e39"
    },
    {
        "name": "五霊神社",
        "prefectureName": "福島県",
        "cityName": "いわき市",
        "streetName": "平鎌田字岸１３８番地",
        "latitude": 37.05666256,
        "longitude": 140.90658446,
        "id": "69dbe0c4-7b84-4c97-a38c-c5df4f791b6c"
    },
    {
        "name": "五霊神社",
        "prefectureName": "福島県",
        "cityName": "南会津郡下郷町",
        "streetName": "大字豊成字頓平５７７９番地",
        "latitude": 37.25195733,
        "longitude": 139.85884352,
        "id": "4fd742b3-225c-4c6e-b410-571a7c2a7f63"
    },
    {
        "name": "五靈神社",
        "prefectureName": "福島県",
        "cityName": "会津若松市",
        "streetName": "北会津町真宮字村中１０２３番地",
        "latitude": 37.5095355,
        "longitude": 139.86684853,
        "id": "18aaa4a5-790b-4cad-9d0b-165ac370f830"
    },
    {
        "name": "五龍地神社",
        "prefectureName": "福島県",
        "cityName": "白河市",
        "streetName": "表郷中野字中才ノ内１１２番地",
        "latitude": 37.05661917,
        "longitude": 140.29718777,
        "id": "a69d8711-203d-45cb-b206-fc44ff415329"
    },
    {
        "name": "井田川神社",
        "prefectureName": "福島県",
        "cityName": "南相馬市",
        "streetName": "小高区井田川字西廹８７番地",
        "latitude": 37.52803593,
        "longitude": 141.02857593,
        "id": "43f75960-02fc-4352-a107-366237da3fdf"
    },
    {
        "name": "仁井田神社",
        "prefectureName": "福島県",
        "cityName": "須賀川市",
        "streetName": "仁井田字八幡前１３番地１４番地",
        "latitude": 37.32883525,
        "longitude": 140.32630955,
        "id": "c0de6769-0bef-4fe5-9c48-ff7e59cf7ccd"
    },
    {
        "name": "仁田神社",
        "prefectureName": "福島県",
        "cityName": "福島市",
        "streetName": "仁井田字北中１７番地の１",
        "latitude": 37.74950311,
        "longitude": 140.43739864,
        "id": "4b5bb9d2-8e50-4e75-9224-5ab733619169"
    },
    {
        "name": "今泉神社",
        "prefectureName": "福島県",
        "cityName": "田村市",
        "streetName": "船引町今泉字砂田２７５番地",
        "latitude": 37.42479888,
        "longitude": 140.60441481,
        "id": "398ae469-6a0f-4533-b6c3-2f26eb1e4175"
    },
    {
        "name": "伊佐須美神社",
        "prefectureName": "福島県",
        "cityName": "会津若松市",
        "streetName": "神指町大字南四合字深川乙５９番地",
        "latitude": 37.4947606,
        "longitude": 139.9298124,
        "id": "2a0a40e4-ba6d-4bc6-ad4e-c10728128725"
    },
    {
        "name": "伊佐須美神社",
        "prefectureName": "福島県",
        "cityName": "喜多方市",
        "streetName": "上三宮町吉川字相ノ沢６０５４番地",
        "latitude": 37.6651993,
        "longitude": 139.84348836,
        "id": "d925a4d2-b7d3-4408-8158-33e4add41e0e"
    },
    {
        "name": "伊佐須美神社",
        "prefectureName": "福島県",
        "cityName": "大沼郡会津美里町",
        "streetName": "米田字村西乙１４２０番地",
        "latitude": 37.49537742,
        "longitude": 139.820337,
        "id": "2e24aa34-7126-476c-85a0-c0cc51aaf5e8"
    },
    {
        "name": "伊佐須美神社",
        "prefectureName": "福島県",
        "cityName": "大沼郡会津美里町",
        "streetName": "字宮林甲４３７７番地１",
        "latitude": 37.45637051,
        "longitude": 139.84027278,
        "id": "eb6f1d99-9d0b-48bc-bb04-460247434139"
    },
    {
        "name": "伊勢両宮神社",
        "prefectureName": "福島県",
        "cityName": "いわき市",
        "streetName": "勿来町四沢伊勢林１番地",
        "latitude": 36.88787636,
        "longitude": 140.78945182,
        "id": "19757ca3-62d8-42b8-8b9f-ef02d86406fb"
    },
    {
        "name": "伊勢神社",
        "prefectureName": "福島県",
        "cityName": "南相馬市",
        "streetName": "原町区下江井字北向２１９番地",
        "latitude": 37.58216111,
        "longitude": 141.00770952,
        "id": "28f8bc97-b65e-4f34-a379-936d4da2c990"
    },
    {
        "name": "伊勢神社",
        "prefectureName": "福島県",
        "cityName": "喜多方市",
        "streetName": "山都町木幡字上ノ原丙１０４２番地",
        "latitude": 37.65336238,
        "longitude": 139.77837045,
        "id": "3cacbb3b-0b8f-4fcf-aec2-95962dd984ed"
    },
    {
        "name": "伊勢神社",
        "prefectureName": "福島県",
        "cityName": "南会津郡南会津町",
        "streetName": "八総字大久保甲１０９５番地",
        "latitude": 37.2004027,
        "longitude": 139.7738871,
        "id": "00a0aeca-0043-45ac-aacd-19c75fd51bcd"
    },
    {
        "name": "伊勢神社",
        "prefectureName": "福島県",
        "cityName": "喜多方市",
        "streetName": "山都町相川字上ノ山乙６７番地の１",
        "latitude": 37.6817762,
        "longitude": 139.79045387,
        "id": "a396062f-48b6-4f3d-890d-e59d72c98b82"
    },
    {
        "name": "伊勢神社",
        "prefectureName": "福島県",
        "cityName": "南会津郡下郷町",
        "streetName": "大字栄富字上ハ平丁３６４番地",
        "latitude": 37.2556158,
        "longitude": 139.8721507,
        "id": "41024c1f-bd72-4e8e-8a63-75e824829506"
    },
    {
        "name": "伊勢神社",
        "prefectureName": "福島県",
        "cityName": "会津若松市",
        "streetName": "大戸町大字大川字瀬戸山甲２０５番地",
        "latitude": 37.4947606,
        "longitude": 139.9298124,
        "id": "3511ec07-29e1-4552-b757-c23193d512c0"
    },
    {
        "name": "伊勢神社",
        "prefectureName": "福島県",
        "cityName": "郡山市",
        "streetName": "湖南町横沢字内野３１１５番地",
        "latitude": 37.4005451,
        "longitude": 140.360055,
        "id": "5dcc0f22-398f-4c69-a156-454c7d578b64"
    },
    {
        "name": "伊勢神社",
        "prefectureName": "福島県",
        "cityName": "会津若松市",
        "streetName": "門田町大字面川字花坂９２番地",
        "latitude": 37.44340199,
        "longitude": 139.91458233,
        "id": "160b8d40-ccf5-4e61-a87e-94d7af2f3fdb"
    },
    {
        "name": "伊勢神社",
        "prefectureName": "福島県",
        "cityName": "喜多方市",
        "streetName": "山都町小舟寺字舟山丙５７８番地",
        "latitude": 37.6428858,
        "longitude": 139.77281591,
        "id": "8ae893cf-2a64-4326-91b6-e4046df78378"
    },
    {
        "name": "伊勢神社",
        "prefectureName": "福島県",
        "cityName": "喜多方市",
        "streetName": "山都町木幡字善徳谷地丁２６７６番地",
        "latitude": 37.6428858,
        "longitude": 139.77281591,
        "id": "4e2d25ad-926f-4c7d-aadf-9c4217bc7962"
    },
    {
        "name": "伊夜彦神社",
        "prefectureName": "福島県",
        "cityName": "大沼郡金山町",
        "streetName": "大字横田字中丸１６４番地",
        "latitude": 37.4535895,
        "longitude": 139.5245228,
        "id": "9d325550-3fdb-4346-a196-1efff8831b12"
    },
    {
        "name": "伊夜彦神社",
        "prefectureName": "福島県",
        "cityName": "河沼郡柳津町",
        "streetName": "大字四ツ谷字家ノ上５６２番地",
        "latitude": 37.5260649,
        "longitude": 139.7195008,
        "id": "9a157a9c-4ecb-4abd-aac7-d9428aa65e31"
    },
    {
        "name": "伊夜日子神社",
        "prefectureName": "福島県",
        "cityName": "耶麻郡猪苗代町",
        "streetName": "大字千代田乙１３番地",
        "latitude": 37.5577815,
        "longitude": 140.1047463,
        "id": "0e9b4090-af27-44b6-9f23-777b70d49f24"
    },
    {
        "name": "伊夜比古神社",
        "prefectureName": "福島県",
        "cityName": "河沼郡柳津町",
        "streetName": "大字牧沢字居平４９３番地",
        "latitude": 37.44223765,
        "longitude": 139.71703983,
        "id": "0f6d0d33-7d9d-4fe7-8c80-e1d39e48b245"
    },
    {
        "name": "伊夜比古神社",
        "prefectureName": "福島県",
        "cityName": "河沼郡柳津町",
        "streetName": "大字四ツ谷字家廻１４２６番地",
        "latitude": 37.41800215,
        "longitude": 139.72877548,
        "id": "5b4fdd98-bc8d-4a9b-840a-473e2922d428"
    },
    {
        "name": "伊夜比古神社",
        "prefectureName": "福島県",
        "cityName": "河沼郡柳津町",
        "streetName": "大字湯八木沢字居平１３２４番地",
        "latitude": 37.46101828,
        "longitude": 139.69721895,
        "id": "1d85a106-07ba-4b24-8905-2ef862096269"
    },
    {
        "name": "伊夜比古神社",
        "prefectureName": "福島県",
        "cityName": "河沼郡柳津町",
        "streetName": "大字牧沢字勝負平１７４２番地",
        "latitude": 37.5260649,
        "longitude": 139.7195008,
        "id": "85127467-8837-4650-90c2-97edce7b8584"
    },
    {
        "name": "伊弥日子神社",
        "prefectureName": "福島県",
        "cityName": "南会津郡南会津町",
        "streetName": "富山字古林１０９９番地",
        "latitude": 37.2004027,
        "longitude": 139.7738871,
        "id": "e2de4286-9b3e-4971-b3a4-ba1ed995a3a6"
    },
    {
        "name": "伊波止和気神社",
        "prefectureName": "福島県",
        "cityName": "石川郡古殿町",
        "streetName": "大字田口字戸神２６９番地",
        "latitude": 37.10144022,
        "longitude": 140.52823453,
        "id": "d747e4ca-ec1c-4774-870e-550f4ba739af"
    },
    {
        "name": "伊豆原山神社",
        "prefectureName": "福島県",
        "cityName": "耶麻郡西会津町",
        "streetName": "下谷字宮ノ後丙２４１番地",
        "latitude": 37.54455222,
        "longitude": 139.66765842,
        "id": "cce33531-27c3-4be2-8ce9-9d9970158478"
    },
    {
        "name": "伊豆神社",
        "prefectureName": "福島県",
        "cityName": "伊達郡川俣町",
        "streetName": "大字鶴沢字稲荷林２７番地",
        "latitude": 37.6650298,
        "longitude": 140.5982412,
        "id": "2ab63187-7d18-4514-87c3-b2cff38f4a07"
    },
    {
        "name": "伊豆神社",
        "prefectureName": "福島県",
        "cityName": "大沼郡三島町",
        "streetName": "大字浅岐字若林５５９番地の１",
        "latitude": 37.42100736,
        "longitude": 139.63981873,
        "id": "9183ac17-7956-425b-ae3f-0f5baf0b443b"
    },
    {
        "name": "伊豆神社",
        "prefectureName": "福島県",
        "cityName": "伊達郡川俣町",
        "streetName": "大字東福沢字古内山２５番地",
        "latitude": 37.6650298,
        "longitude": 140.5982412,
        "id": "3c4dbebf-e08c-4911-b916-17a19b6d2729"
    },
    {
        "name": "伊豆神社",
        "prefectureName": "福島県",
        "cityName": "二本松市",
        "streetName": "木幡字問屋５２２番地",
        "latitude": 37.61752549,
        "longitude": 140.55780433,
        "id": "b301bd93-2a13-4063-897c-a01d5daff507"
    },
    {
        "name": "伊豆神社",
        "prefectureName": "福島県",
        "cityName": "会津若松市",
        "streetName": "大戸町大字大川字上村分乙２２８番地",
        "latitude": 37.4947606,
        "longitude": 139.9298124,
        "id": "3f54a5b3-32d4-4526-bc56-d64ea6dc244d"
    },
    {
        "name": "伊豆神社",
        "prefectureName": "福島県",
        "cityName": "大沼郡三島町",
        "streetName": "大字間方字宮田８５６番地",
        "latitude": 37.39910887,
        "longitude": 139.61413362,
        "id": "1bd28dd0-ec1c-4a2b-bc50-368e5b42c769"
    },
    {
        "name": "伊豆神社",
        "prefectureName": "福島県",
        "cityName": "会津若松市",
        "streetName": "湊町大字静潟字浜甲２２３番地",
        "latitude": 37.45857174,
        "longitude": 140.04715903,
        "id": "95328525-d43b-4922-9ba2-63914aec188a"
    },
    {
        "name": "伊豆神社",
        "prefectureName": "福島県",
        "cityName": "喜多方市",
        "streetName": "山都町字廣葎田２３８６番地",
        "latitude": 37.64221355,
        "longitude": 139.76952461,
        "id": "948397ba-b1a2-430e-a8f6-39f186ebefe9"
    },
    {
        "name": "伊豆神社",
        "prefectureName": "福島県",
        "cityName": "田村市",
        "streetName": "常葉町常葉字石蒔田１２３番地",
        "latitude": 37.43708158,
        "longitude": 140.65675669,
        "id": "cb51645a-a8da-4149-a977-ec9daaf8fd26"
    },
    {
        "name": "伊豆神社",
        "prefectureName": "福島県",
        "cityName": "耶麻郡西会津町",
        "streetName": "奥川大字元島字寺林３５５番地",
        "latitude": 37.5874281,
        "longitude": 139.6492911,
        "id": "8303b9c0-dacd-4ed7-b41c-4f29308cfed4"
    },
    {
        "name": "伊豆神社",
        "prefectureName": "福島県",
        "cityName": "耶麻郡西会津町",
        "streetName": "尾野本字宮西甲５８４番地",
        "latitude": 37.58750882,
        "longitude": 139.65366851,
        "id": "58978b49-415a-4a19-bf83-8ce9b27b99b4"
    },
    {
        "name": "伊豆神社",
        "prefectureName": "福島県",
        "cityName": "喜多方市",
        "streetName": "松山町鳥見山字北屋敷１７５６番地",
        "latitude": 37.67520174,
        "longitude": 139.87180778,
        "id": "07522e4a-1538-461b-89b9-a0b0904d84e7"
    },
    {
        "name": "伊豆神社",
        "prefectureName": "福島県",
        "cityName": "耶麻郡西会津町",
        "streetName": "奥川大字飯里字上ノ平６６０番地",
        "latitude": 37.5874281,
        "longitude": 139.6492911,
        "id": "ba0f1098-fc44-44fa-9351-9594d8686b90"
    },
    {
        "name": "伊豆神社",
        "prefectureName": "福島県",
        "cityName": "耶麻郡西会津町",
        "streetName": "登世島字丸山甲２２２５番地",
        "latitude": 37.5874281,
        "longitude": 139.6492911,
        "id": "62766f38-c216-4948-8444-f6e4d32d6737"
    },
    {
        "name": "伊豆神社",
        "prefectureName": "福島県",
        "cityName": "福島市",
        "streetName": "小田字日向山１０番地",
        "latitude": 37.71051573,
        "longitude": 140.43303654,
        "id": "45b7145f-3b77-4742-bc0f-fddb8d765f7c"
    },
    {
        "name": "伊豆神社",
        "prefectureName": "福島県",
        "cityName": "大沼郡三島町",
        "streetName": "大字川井字居平１６６番地",
        "latitude": 37.47611848,
        "longitude": 139.66180219,
        "id": "6918850b-deac-4f24-b9c0-629a842019bd"
    },
    {
        "name": "伊達神社",
        "prefectureName": "福島県",
        "cityName": "伊達市",
        "streetName": "保原町柱田字宮ノ内２５番地",
        "latitude": 37.80544541,
        "longitude": 140.5718574,
        "id": "419b8215-03f6-407f-a91f-18cbaefec6eb"
    },
    {
        "name": "住吉神社",
        "prefectureName": "福島県",
        "cityName": "伊達市",
        "streetName": "梁川町粟野字後塚原５１番地",
        "latitude": 37.85054597,
        "longitude": 140.57631082,
        "id": "c1bf39dc-b716-4641-9ae0-ff69cefec72d"
    },
    {
        "name": "住吉神社",
        "prefectureName": "福島県",
        "cityName": "伊達市",
        "streetName": "霊山町山野川字下寺２３番地",
        "latitude": 37.78285645,
        "longitude": 140.59472295,
        "id": "73b28263-463f-4c18-aae5-1bd130e57b0f"
    },
    {
        "name": "住吉神社",
        "prefectureName": "福島県",
        "cityName": "二本松市",
        "streetName": "小沢字菖蒲沢８９番地",
        "latitude": 37.61234438,
        "longitude": 140.49331588,
        "id": "6d4914d9-532c-419b-85d4-e6cb36b413b5"
    },
    {
        "name": "住吉神社",
        "prefectureName": "福島県",
        "cityName": "大沼郡昭和村",
        "streetName": "大字松山字居平２５９番地",
        "latitude": 37.335494,
        "longitude": 139.6107296,
        "id": "fcc980dc-d07d-46c5-acb6-56e51669e8f6"
    },
    {
        "name": "住吉神社",
        "prefectureName": "福島県",
        "cityName": "伊達郡川俣町",
        "streetName": "字竹ノ内７番地",
        "latitude": 37.66736285,
        "longitude": 140.60060762,
        "id": "5fcc7362-ea69-4937-8a4e-3f0a5967d819"
    },
    {
        "name": "住吉神社",
        "prefectureName": "福島県",
        "cityName": "田村市",
        "streetName": "常葉町西向字下ノ内４０８番地",
        "latitude": 37.46115864,
        "longitude": 140.6229222,
        "id": "1f02594b-7413-4cf5-88f2-23df7db54098"
    },
    {
        "name": "住吉神社",
        "prefectureName": "福島県",
        "cityName": "会津若松市",
        "streetName": "北会津町大字和合甲１４６番地",
        "latitude": 37.5095355,
        "longitude": 139.86684853,
        "id": "fa3629ed-88d4-425c-a42b-b1e1632e8e63"
    },
    {
        "name": "住吉神社",
        "prefectureName": "福島県",
        "cityName": "田村市",
        "streetName": "常葉町常葉字山田作３５番地の１",
        "latitude": 37.42239944,
        "longitude": 140.62852107,
        "id": "1cc658cc-7036-4966-8085-2599791a3839"
    },
    {
        "name": "住吉神社",
        "prefectureName": "福島県",
        "cityName": "会津若松市",
        "streetName": "大戸町大字小谷字沢入１０８２番地",
        "latitude": 37.4947606,
        "longitude": 139.9298124,
        "id": "ea2663cf-76ff-4f2b-8f4e-7326362bae0d"
    },
    {
        "name": "住吉神社",
        "prefectureName": "福島県",
        "cityName": "西白河郡矢吹町",
        "streetName": "大字明新字子柄７０番地",
        "latitude": 37.2012767,
        "longitude": 140.3386081,
        "id": "a3eae3a8-d973-473c-91ef-7cc46540b1f4"
    },
    {
        "name": "住吉神社",
        "prefectureName": "福島県",
        "cityName": "東白川郡棚倉町",
        "streetName": "大字岡田字入沢１５６番地",
        "latitude": 37.01459947,
        "longitude": 140.43171062,
        "id": "cce13593-8709-42e0-aa2e-cbc4b49bf7b2"
    },
    {
        "name": "住吉神社",
        "prefectureName": "福島県",
        "cityName": "会津若松市",
        "streetName": "神指町大字北四合字宮ノ後乙１４３６番地",
        "latitude": 37.4947606,
        "longitude": 139.9298124,
        "id": "e42d6c2d-a158-4b15-9515-e17bd4943cab"
    },
    {
        "name": "住吉神社",
        "prefectureName": "福島県",
        "cityName": "喜多方市",
        "streetName": "高郷町上郷字谷地甲４４８番地",
        "latitude": 37.6162433,
        "longitude": 139.72328556,
        "id": "750fb716-5530-4209-a1e7-6ebe9d1b2bb6"
    },
    {
        "name": "住吉神社",
        "prefectureName": "福島県",
        "cityName": "西白河郡矢吹町",
        "streetName": "大字堤字神ノ内２２６番地の２",
        "latitude": 37.2012767,
        "longitude": 140.3386081,
        "id": "9fcd479f-a3a8-414a-94b7-99ce71c314ab"
    },
    {
        "name": "住吉神社",
        "prefectureName": "福島県",
        "cityName": "会津若松市",
        "streetName": "材木町１丁目１０番１３号",
        "latitude": 37.48717792,
        "longitude": 139.91015606,
        "id": "fe289389-7c8b-4f2c-892e-bdab49629d78"
    },
    {
        "name": "住吉神社",
        "prefectureName": "福島県",
        "cityName": "二本松市",
        "streetName": "太田字本城山７３番地",
        "latitude": 37.59226654,
        "longitude": 140.53857906,
        "id": "b8bb1da2-49ce-4557-a119-2c989b862860"
    },
    {
        "name": "住吉神社",
        "prefectureName": "福島県",
        "cityName": "耶麻郡西会津町",
        "streetName": "野沢字牧乙５５４番地",
        "latitude": 37.58235309,
        "longitude": 139.62784095,
        "id": "960af37c-8338-4295-a9d7-21ff38a9e678"
    },
    {
        "name": "住吉神社",
        "prefectureName": "福島県",
        "cityName": "福島市",
        "streetName": "飯野町大久保字南町３３番地",
        "latitude": 37.66172628,
        "longitude": 140.54704559,
        "id": "c80a9652-ab8c-467a-82e0-a655ed1550c6"
    },
    {
        "name": "住吉神社",
        "prefectureName": "福島県",
        "cityName": "西白河郡矢吹町",
        "streetName": "大字大畑字住吉１番地",
        "latitude": 37.2012767,
        "longitude": 140.3386081,
        "id": "05c0dfc3-4c7f-4ad0-8c34-8df90c63ed10"
    },
    {
        "name": "住吉神社",
        "prefectureName": "福島県",
        "cityName": "大沼郡金山町",
        "streetName": "大字越川字杉ノ下１６９４番地",
        "latitude": 37.4535895,
        "longitude": 139.5245228,
        "id": "dfec788f-2471-4f0c-98fa-ad391bb21ef3"
    },
    {
        "name": "住吉神社",
        "prefectureName": "福島県",
        "cityName": "喜多方市",
        "streetName": "岩月町大都字林ノ下４３０４番地",
        "latitude": 37.6511299,
        "longitude": 139.8747084,
        "id": "4cfcca62-f166-4613-9f61-3f158c3f10e2"
    },
    {
        "name": "住吉神社",
        "prefectureName": "福島県",
        "cityName": "福島市",
        "streetName": "大波字住吉３７番地",
        "latitude": 37.7576861,
        "longitude": 140.56376538,
        "id": "ad26f310-35e0-4828-b339-4f95620867fe"
    },
    {
        "name": "住吉神社",
        "prefectureName": "福島県",
        "cityName": "いわき市",
        "streetName": "内郷高坂町三本杉３１番地",
        "latitude": 37.04123495,
        "longitude": 140.85271597,
        "id": "ef74e264-a35b-4779-889f-972c07b946d0"
    },
    {
        "name": "住吉神社",
        "prefectureName": "福島県",
        "cityName": "いわき市",
        "streetName": "小名浜住吉字住吉１番地",
        "latitude": 36.9747124,
        "longitude": 140.8830495,
        "id": "c1eb7c0a-dcd1-4300-b3c7-384bf7738a9e"
    },
    {
        "name": "住吉神社",
        "prefectureName": "福島県",
        "cityName": "いわき市",
        "streetName": "平上荒川字堀ノ内９５番地",
        "latitude": 37.03652889,
        "longitude": 140.888662,
        "id": "7ae7c1f5-e61b-4b7d-9f14-7131175bfb3e"
    },
    {
        "name": "住吉神社",
        "prefectureName": "福島県",
        "cityName": "河沼郡柳津町",
        "streetName": "大字大成沢字前田甲３２２番地",
        "latitude": 37.5260649,
        "longitude": 139.7195008,
        "id": "1c487ae4-ce55-4073-ba6a-c849b45d6bab"
    },
    {
        "name": "佐牟乃神社",
        "prefectureName": "福島県",
        "cityName": "喜多方市",
        "streetName": "字山ノ神２４１０番地",
        "latitude": 37.65842079,
        "longitude": 139.87926878,
        "id": "efe31c80-60c8-4ce5-bd09-6b12d95662de"
    },
    {
        "name": "佐良志奈神社",
        "prefectureName": "福島県",
        "cityName": "耶麻郡磐梯町",
        "streetName": "大字更科字宮西３２２１番地",
        "latitude": 37.5621179,
        "longitude": 139.9888127,
        "id": "03051874-063f-4fe7-bff0-39fb1f14c3cc"
    },
    {
        "name": "佐麻久嶺神社",
        "prefectureName": "福島県",
        "cityName": "いわき市",
        "streetName": "平中山字宮下８１番地",
        "latitude": 37.03556609,
        "longitude": 140.91264544,
        "id": "d9c13c94-9f66-48b3-9f9e-af8ee63984ee"
    },
    {
        "name": "保土原神社",
        "prefectureName": "福島県",
        "cityName": "須賀川市",
        "streetName": "保土原字上屋敷３０番地",
        "latitude": 37.25128193,
        "longitude": 140.30507017,
        "id": "46a0b410-8754-4210-bf42-a0aebd749a13"
    },
    {
        "name": "倉神社",
        "prefectureName": "福島県",
        "cityName": "耶麻郡西会津町",
        "streetName": "宝坂大字屋敷字谷地１２１６番地",
        "latitude": 37.5874281,
        "longitude": 139.6492911,
        "id": "f08bf842-97cf-4e38-8936-27ab7f01f32e"
    },
    {
        "name": "優婆神社",
        "prefectureName": "福島県",
        "cityName": "福島市",
        "streetName": "笹谷字三本木１６番地",
        "latitude": 37.7608973,
        "longitude": 140.4746944,
        "id": "c995384e-e97d-48de-a5e8-43e48e55d78e"
    },
    {
        "name": "優婆神社",
        "prefectureName": "福島県",
        "cityName": "郡山市",
        "streetName": "湖南町福良字松西３７６５番地",
        "latitude": 37.4005451,
        "longitude": 140.360055,
        "id": "61e04606-76d6-4478-8b6b-31a36cd3c637"
    },
    {
        "name": "兜神社",
        "prefectureName": "福島県",
        "cityName": "いわき市",
        "streetName": "内郷御厩町清水１６４番地",
        "latitude": 37.0441969,
        "longitude": 140.87626329,
        "id": "b38f9b43-f06c-4b02-8222-6e0579c158fd"
    },
    {
        "name": "八乙女神社",
        "prefectureName": "福島県",
        "cityName": "南会津郡下郷町",
        "streetName": "大字三ツ井字桑窪丙４９２番地",
        "latitude": 37.2556158,
        "longitude": 139.8721507,
        "id": "9af4bb27-2098-4701-8f50-4f94f3e979e4"
    },
    {
        "name": "八乙女神社",
        "prefectureName": "福島県",
        "cityName": "会津若松市",
        "streetName": "町北町大字始字見島５２番地",
        "latitude": 37.52449029,
        "longitude": 139.9233813,
        "id": "c64dc61b-2631-4801-b5af-a19a04a544eb"
    },
    {
        "name": "八劔神社",
        "prefectureName": "福島県",
        "cityName": "二本松市",
        "streetName": "丑子内１１０番地",
        "latitude": 37.5849298,
        "longitude": 140.4310263,
        "id": "102cf218-0f1e-42e6-a2e0-0948ea1a290b"
    },
    {
        "name": "八劔神社",
        "prefectureName": "福島県",
        "cityName": "いわき市",
        "streetName": "平下高久字馬場３００番地",
        "latitude": 37.02989895,
        "longitude": 140.95033038,
        "id": "27ca5dcc-adc0-4ee0-ba7d-c0b698bfac0b"
    },
    {
        "name": "八坂神社",
        "prefectureName": "福島県",
        "cityName": "伊達郡川俣町",
        "streetName": "大字東福沢字柏崎５０番地",
        "latitude": 37.6650298,
        "longitude": 140.5982412,
        "id": "95db0cca-4999-432d-9aa9-f47ba1af7b1b"
    },
    {
        "name": "八坂神社",
        "prefectureName": "福島県",
        "cityName": "田村市",
        "streetName": "船引町大倉字日向２８７番地",
        "latitude": 37.50477233,
        "longitude": 140.57372697,
        "id": "773fe302-31a6-4039-8b6c-530890ffc94d"
    },
    {
        "name": "八坂神社",
        "prefectureName": "福島県",
        "cityName": "二本松市",
        "streetName": "永田２丁目２１０番地",
        "latitude": 37.60183272,
        "longitude": 140.39461741,
        "id": "56a1827a-9e71-4ec5-a4d5-7b10b734e395"
    },
    {
        "name": "八坂神社",
        "prefectureName": "福島県",
        "cityName": "二本松市",
        "streetName": "冠木９７番地の１",
        "latitude": 37.58491346,
        "longitude": 140.44606365,
        "id": "1b25e88c-bf8d-4be4-b50d-872205724313"
    },
    {
        "name": "八坂神社",
        "prefectureName": "福島県",
        "cityName": "二本松市",
        "streetName": "上川崎字椚山１５６番地",
        "latitude": 37.61124469,
        "longitude": 140.50502313,
        "id": "49d3e87a-5a87-452e-89d6-1959ff34837f"
    },
    {
        "name": "八坂神社",
        "prefectureName": "福島県",
        "cityName": "西白河郡矢吹町",
        "streetName": "大字中野目字天王屋敷１７番地",
        "latitude": 37.2012767,
        "longitude": 140.3386081,
        "id": "eb91df0f-6a76-48a7-9fb5-27cd5d4320b1"
    },
    {
        "name": "八坂神社",
        "prefectureName": "福島県",
        "cityName": "いわき市",
        "streetName": "三和町差塩字道添１０５番地",
        "latitude": 37.0504212,
        "longitude": 140.887684,
        "id": "cc7173e6-1303-43c7-b1f5-798a4762339b"
    },
    {
        "name": "八坂神社",
        "prefectureName": "福島県",
        "cityName": "いわき市",
        "streetName": "平四ツ波字笹目田１番地",
        "latitude": 37.08187872,
        "longitude": 140.90505304,
        "id": "34d53829-2730-4d60-afac-9fbcf7acbdcb"
    },
    {
        "name": "八坂神社",
        "prefectureName": "福島県",
        "cityName": "南相馬市",
        "streetName": "原町区石神字北明内１０９番地",
        "latitude": 37.64437888,
        "longitude": 140.93297488,
        "id": "2a21ca29-84f5-4e34-8daf-d7386d48bfde"
    },
    {
        "name": "八坂神社",
        "prefectureName": "福島県",
        "cityName": "南相馬市",
        "streetName": "鹿島区南柚木字堤田２３２番地",
        "latitude": 37.73782787,
        "longitude": 140.96942625,
        "id": "d7a84a4e-b076-4281-9de0-b3d9efb942ed"
    },
    {
        "name": "八坂神社",
        "prefectureName": "福島県",
        "cityName": "相馬市",
        "streetName": "南飯渕字明神２１７番地",
        "latitude": 37.79945452,
        "longitude": 140.93341795,
        "id": "2b56daf2-530a-4883-8b74-d499feb4f6fd"
    },
    {
        "name": "八坂神社",
        "prefectureName": "福島県",
        "cityName": "伊達郡川俣町",
        "streetName": "山木屋字天王山２番地１",
        "latitude": 37.6650298,
        "longitude": 140.5982412,
        "id": "d952d26a-a150-420e-8ce0-a251721ddbc0"
    },
    {
        "name": "八坂神社",
        "prefectureName": "福島県",
        "cityName": "二本松市",
        "streetName": "松岡１９２番地",
        "latitude": 37.59108747,
        "longitude": 140.4316843,
        "id": "c046b7c9-6ebd-42d1-9d28-f31391ac95bb"
    },
    {
        "name": "八坂神社",
        "prefectureName": "福島県",
        "cityName": "安達郡大玉村",
        "streetName": "玉井字相ノ沢１３番地",
        "latitude": 37.5343753,
        "longitude": 140.3710361,
        "id": "3874c019-d41a-43fb-830b-abe1b6a465ca"
    },
    {
        "name": "八坂神社",
        "prefectureName": "福島県",
        "cityName": "東白川郡塙町",
        "streetName": "大字常世北野字日林３５８番地",
        "latitude": 36.97849605,
        "longitude": 140.43820836,
        "id": "a9550db4-d0b3-4960-849f-d09bb4e42944"
    },
    {
        "name": "八坂神社",
        "prefectureName": "福島県",
        "cityName": "須賀川市",
        "streetName": "森宿字中新田５０番地",
        "latitude": 37.31026867,
        "longitude": 140.35637688,
        "id": "57401405-692f-4697-9a92-204e6f3d0686"
    },
    {
        "name": "八坂神社",
        "prefectureName": "福島県",
        "cityName": "いわき市",
        "streetName": "平豊間字榎町１９７番地",
        "latitude": 36.99286761,
        "longitude": 140.96766967,
        "id": "3e48a3a3-33b0-4b55-a0ba-b9837a09fef1"
    },
    {
        "name": "八坂神社",
        "prefectureName": "福島県",
        "cityName": "南相馬市",
        "streetName": "鹿島区角川原字前川原１２５番地",
        "latitude": 37.72667805,
        "longitude": 140.92951645,
        "id": "4cc1ee64-f147-4cee-812b-335bf6f4817a"
    },
    {
        "name": "八坂神社",
        "prefectureName": "福島県",
        "cityName": "二本松市",
        "streetName": "上長折字箱石１４３番地",
        "latitude": 37.5849298,
        "longitude": 140.4310263,
        "id": "a49e14cf-7173-47b0-9c59-814649d67a77"
    },
    {
        "name": "八坂神社",
        "prefectureName": "福島県",
        "cityName": "石川郡平田村",
        "streetName": "大字西山字手倉２７９番地",
        "latitude": 37.20401744,
        "longitude": 140.56093594,
        "id": "6655d7e7-d3fb-43ed-bd07-9c269d0b9ddb"
    },
    {
        "name": "八坂神社",
        "prefectureName": "福島県",
        "cityName": "いわき市",
        "streetName": "内郷綴町秋山１６７番地",
        "latitude": 37.03354493,
        "longitude": 140.85690203,
        "id": "2bef33ef-71e2-4a36-9fb9-dd34827bf10f"
    },
    {
        "name": "八坂神社",
        "prefectureName": "福島県",
        "cityName": "いわき市",
        "streetName": "平上片寄字堂ノ作１０５番地",
        "latitude": 37.05665666,
        "longitude": 140.89469698,
        "id": "e0da6691-d361-4538-880c-ba3d47c817d2"
    },
    {
        "name": "八坂神社",
        "prefectureName": "福島県",
        "cityName": "いわき市",
        "streetName": "錦町宮ノ前５９番地６０番地",
        "latitude": 36.8994078,
        "longitude": 140.783974,
        "id": "1142daf0-46e3-4658-b062-8e911e7b9320"
    },
    {
        "name": "八坂神社",
        "prefectureName": "福島県",
        "cityName": "南相馬市",
        "streetName": "原町区馬場字糯田２０８番地",
        "latitude": 37.62308395,
        "longitude": 140.94147993,
        "id": "f2f72ede-7519-4289-bb33-267b5b68b6e4"
    },
    {
        "name": "八坂神社",
        "prefectureName": "福島県",
        "cityName": "西白河郡泉崎村",
        "streetName": "大字吉岡字天王山２番地",
        "latitude": 37.1537718,
        "longitude": 140.3032948,
        "id": "27af9593-072e-4463-b1ab-1c456b717034"
    },
    {
        "name": "八坂神社",
        "prefectureName": "福島県",
        "cityName": "東白川郡塙町",
        "streetName": "大字山形字北野内",
        "latitude": 36.9574367,
        "longitude": 140.4095728,
        "id": "de0dd6bf-0f2f-4e99-aff2-d66fd73a952f"
    },
    {
        "name": "八坂神社",
        "prefectureName": "福島県",
        "cityName": "いわき市",
        "streetName": "平字揚土３１番地",
        "latitude": 37.0504212,
        "longitude": 140.887684,
        "id": "7f5e3d87-7c85-4e83-b167-37f4938489bb"
    },
    {
        "name": "八坂神社",
        "prefectureName": "福島県",
        "cityName": "いわき市",
        "streetName": "好間町上好間字今宿１４７番地",
        "latitude": 37.06110145,
        "longitude": 140.83846581,
        "id": "a09a6dbf-2234-4c20-95d5-a7e3330c37e8"
    },
    {
        "name": "八坂神社",
        "prefectureName": "福島県",
        "cityName": "いわき市",
        "streetName": "四倉町下柳生字花ノ木１０３番地",
        "latitude": 37.11011806,
        "longitude": 140.91453365,
        "id": "c354a163-bded-4928-9b05-db18cec129cb"
    },
    {
        "name": "八坂神社",
        "prefectureName": "福島県",
        "cityName": "いわき市",
        "streetName": "小川町上小川字横川５５番地",
        "latitude": 37.16754871,
        "longitude": 140.85249074,
        "id": "38cb8ad4-6716-4097-95b7-dc4fc7fb53e8"
    },
    {
        "name": "八坂神社",
        "prefectureName": "福島県",
        "cityName": "いわき市",
        "streetName": "好間町愛谷字花輪７９番地",
        "latitude": 37.07519849,
        "longitude": 140.87201831,
        "id": "9606da86-adf6-4cc5-89bb-dab2c4cab567"
    },
    {
        "name": "八坂神社",
        "prefectureName": "福島県",
        "cityName": "いわき市",
        "streetName": "鹿島町走熊字宮下５３番地",
        "latitude": 36.99784366,
        "longitude": 140.91194148,
        "id": "c4721cb2-5bd8-4e61-aa00-2668be94e519"
    },
    {
        "name": "八坂神社",
        "prefectureName": "福島県",
        "cityName": "いわき市",
        "streetName": "四倉町駒込字久原２９４番地",
        "latitude": 37.11959444,
        "longitude": 140.89944331,
        "id": "302b0dec-b751-4846-8d61-747739f0459e"
    },
    {
        "name": "八坂神社",
        "prefectureName": "福島県",
        "cityName": "相馬市",
        "streetName": "本笑字西和田１４４番地",
        "latitude": 37.80868178,
        "longitude": 140.94543034,
        "id": "973ea61b-87ba-48fd-b0c6-c55f3da37406"
    },
    {
        "name": "八坂神社",
        "prefectureName": "福島県",
        "cityName": "南相馬市",
        "streetName": "原町区益田字前山１１１番地",
        "latitude": 37.62308395,
        "longitude": 140.94147993,
        "id": "157c5093-cd5b-4a46-bf98-5f1be5d3e0e0"
    },
    {
        "name": "八坂神社",
        "prefectureName": "福島県",
        "cityName": "相馬市",
        "streetName": "成田字大作３０４番地の２",
        "latitude": 37.77779513,
        "longitude": 140.92312537,
        "id": "36e88544-05b2-41de-99da-a8cfc1ac3891"
    },
    {
        "name": "八坂神社",
        "prefectureName": "福島県",
        "cityName": "河沼郡会津坂下町",
        "streetName": "大字八日沢字天王南甲２１３７番地",
        "latitude": 37.5613808,
        "longitude": 139.8217285,
        "id": "6680ec28-4f09-4cfb-955e-809c8e36329e"
    },
    {
        "name": "八坂神社",
        "prefectureName": "福島県",
        "cityName": "喜多方市",
        "streetName": "上三宮町三谷字天王山５９５５番地",
        "latitude": 37.6511299,
        "longitude": 139.8747084,
        "id": "260113c4-1ad5-48a6-b7fc-25e55156100b"
    },
    {
        "name": "八坂神社",
        "prefectureName": "福島県",
        "cityName": "白河市",
        "streetName": "表郷河東田字天王下２２１番地",
        "latitude": 37.05661917,
        "longitude": 140.29718777,
        "id": "cc96bde5-a73c-4886-ab91-88dc5480d395"
    },
    {
        "name": "八坂神社",
        "prefectureName": "福島県",
        "cityName": "いわき市",
        "streetName": "小川町上小川字大坂７７番地",
        "latitude": 37.1389327,
        "longitude": 140.85624043,
        "id": "625ba425-69c0-4e37-8d2e-95b43e4bd839"
    },
    {
        "name": "八坂神社",
        "prefectureName": "福島県",
        "cityName": "いわき市",
        "streetName": "好間町大利字道内１４８番地",
        "latitude": 37.0787176,
        "longitude": 140.80372423,
        "id": "ca6588a1-a576-4682-be18-acc3580a30d1"
    },
    {
        "name": "八坂神社",
        "prefectureName": "福島県",
        "cityName": "いわき市",
        "streetName": "鹿島町御代字赤坂３２番地の３",
        "latitude": 36.98087074,
        "longitude": 140.90218374,
        "id": "2a62da38-126e-4912-bfa7-f0c256e0264e"
    },
    {
        "name": "八坂神社",
        "prefectureName": "福島県",
        "cityName": "いわき市",
        "streetName": "四倉町山田小湊字小湊１６５番地",
        "latitude": 37.1159123,
        "longitude": 140.93091763,
        "id": "f93a30be-fb5c-49ef-aa67-e01002c2e98c"
    },
    {
        "name": "八坂神社",
        "prefectureName": "福島県",
        "cityName": "いわき市",
        "streetName": "平上神谷字上９の３番地",
        "latitude": 37.0674835,
        "longitude": 140.91528583,
        "id": "047363e9-4f49-4e64-97eb-0788e44c8854"
    },
    {
        "name": "八坂神社",
        "prefectureName": "福島県",
        "cityName": "南相馬市",
        "streetName": "小高区水谷字武州８６番地",
        "latitude": 37.56871749,
        "longitude": 140.98536428,
        "id": "40c4b2a1-e637-4006-81a2-7cea3e817b0f"
    },
    {
        "name": "八坂神社",
        "prefectureName": "福島県",
        "cityName": "相馬郡飯舘村",
        "streetName": "松塚字松塚１２２番地",
        "latitude": 37.6791901,
        "longitude": 140.7352475,
        "id": "96ccf975-564b-4585-a6ff-f5272abd1435"
    },
    {
        "name": "八坂神社",
        "prefectureName": "福島県",
        "cityName": "相馬市",
        "streetName": "程田字朝日前３３３番地",
        "latitude": 37.78731742,
        "longitude": 140.94734229,
        "id": "f248b5ef-77d9-480a-99e6-d57f2ccd80a7"
    },
    {
        "name": "八坂神社",
        "prefectureName": "福島県",
        "cityName": "福島市",
        "streetName": "松川町字天王原７番地",
        "latitude": 37.65503663,
        "longitude": 140.48515938,
        "id": "27064611-b3a1-499d-9cb3-9212689a738f"
    },
    {
        "name": "八坂神社",
        "prefectureName": "福島県",
        "cityName": "二本松市",
        "streetName": "上川崎字下種田５８番地",
        "latitude": 37.5849298,
        "longitude": 140.4310263,
        "id": "947ecc48-f3b6-4898-b43e-0a2ec31ffd0a"
    },
    {
        "name": "八坂神社",
        "prefectureName": "福島県",
        "cityName": "いわき市",
        "streetName": "四倉町上仁井田字松葉１２０番地",
        "latitude": 37.09558795,
        "longitude": 140.97584344,
        "id": "e291debb-7e81-4c71-ad6d-26bd7b38d975"
    },
    {
        "name": "八坂神社",
        "prefectureName": "福島県",
        "cityName": "いわき市",
        "streetName": "小川町柴原字宮ノ脇３８番地",
        "latitude": 37.13827184,
        "longitude": 140.86472029,
        "id": "e2af4608-1888-4194-9d8f-01dcc6305855"
    },
    {
        "name": "八坂神社",
        "prefectureName": "福島県",
        "cityName": "いわき市",
        "streetName": "常磐下湯長谷町古舘７８番地",
        "latitude": 36.99073097,
        "longitude": 140.84734844,
        "id": "261ef121-be4d-47eb-9bd3-2d766d70c08e"
    },
    {
        "name": "八坂神社",
        "prefectureName": "福島県",
        "cityName": "いわき市",
        "streetName": "小名浜字下明神町４９番地",
        "latitude": 36.95074964,
        "longitude": 140.90828491,
        "id": "8df00d30-ed2b-4562-932d-9749ab19bada"
    },
    {
        "name": "八坂神社",
        "prefectureName": "福島県",
        "cityName": "いわき市",
        "streetName": "常磐水野谷町錦沢２４９番地",
        "latitude": 37.00796898,
        "longitude": 140.84756757,
        "id": "935689c0-9f89-4fcf-a9a4-14ddd3282fcd"
    },
    {
        "name": "八坂神社",
        "prefectureName": "福島県",
        "cityName": "相馬市",
        "streetName": "玉野字中山１番地",
        "latitude": 37.76962776,
        "longitude": 140.71150963,
        "id": "d89a27e3-6cd0-44d3-8006-8e7cc2b8c794"
    },
    {
        "name": "八坂神社",
        "prefectureName": "福島県",
        "cityName": "二本松市",
        "streetName": "上川崎字西ノ内１５７番地",
        "latitude": 37.5849298,
        "longitude": 140.4310263,
        "id": "bfd5b061-2dfd-46a7-b977-6e9cb5ed109f"
    },
    {
        "name": "八坂神社",
        "prefectureName": "福島県",
        "cityName": "二本松市",
        "streetName": "戸沢字月山２３番地",
        "latitude": 37.56766143,
        "longitude": 140.57835437,
        "id": "6f92d26d-faef-4200-bbc0-006e8e929810"
    },
    {
        "name": "八坂神社",
        "prefectureName": "福島県",
        "cityName": "東白川郡棚倉町",
        "streetName": "大字寺山字豊岡５０番地",
        "latitude": 37.0299047,
        "longitude": 140.3796478,
        "id": "a8932d5f-cad0-42cd-a5ef-162b6d7abd6a"
    },
    {
        "name": "八坂神社",
        "prefectureName": "福島県",
        "cityName": "いわき市",
        "streetName": "平菅波字東作１４５番地",
        "latitude": 37.04664108,
        "longitude": 140.94459937,
        "id": "aa78a2ac-3c22-4f49-b7bf-b33cbf45a641"
    },
    {
        "name": "八坂神社",
        "prefectureName": "福島県",
        "cityName": "いわき市",
        "streetName": "常磐藤原町中５４番地",
        "latitude": 36.98993144,
        "longitude": 140.83045371,
        "id": "24c6e267-dbd2-4778-a12f-3d77396f55db"
    },
    {
        "name": "八坂神社",
        "prefectureName": "福島県",
        "cityName": "いわき市",
        "streetName": "小名浜野田字峯岸３０番地",
        "latitude": 36.98285825,
        "longitude": 140.87883581,
        "id": "2cf22ec6-e1b5-4d1e-beb4-0afeeaae864d"
    },
    {
        "name": "八坂神社",
        "prefectureName": "福島県",
        "cityName": "いわき市",
        "streetName": "遠野町入遠野字天王３２３番地・３２３番地の乙",
        "latitude": 37.05381178,
        "longitude": 140.70527595,
        "id": "3351dfbd-3e23-479f-99cd-82b460f94045"
    },
    {
        "name": "八坂神社",
        "prefectureName": "福島県",
        "cityName": "いわき市",
        "streetName": "四倉町塩木字水久保７番地",
        "latitude": 37.0504212,
        "longitude": 140.887684,
        "id": "f3561a4e-42cf-4f81-ad33-8f25a917165c"
    },
    {
        "name": "八坂神社",
        "prefectureName": "福島県",
        "cityName": "南相馬市",
        "streetName": "原町区下渋佐字前屋敷２９４番地",
        "latitude": 37.62308395,
        "longitude": 140.94147993,
        "id": "94ee63d6-2794-473b-ba35-4bce8e242b61"
    },
    {
        "name": "八坂神社",
        "prefectureName": "福島県",
        "cityName": "南相馬市",
        "streetName": "鹿島区南屋形字松本１３９番地の１",
        "latitude": 37.70274881,
        "longitude": 140.9677755,
        "id": "814e18cf-a6cc-4c53-b6e7-d3f3080744d8"
    },
    {
        "name": "八坂神社",
        "prefectureName": "福島県",
        "cityName": "相馬郡飯舘村",
        "streetName": "深谷字二本木７５番地",
        "latitude": 37.6791901,
        "longitude": 140.7352475,
        "id": "d58d2c1c-0bf1-4d08-91b8-50f2f015b306"
    },
    {
        "name": "八坂神社",
        "prefectureName": "福島県",
        "cityName": "双葉郡大熊町",
        "streetName": "大字熊川字八坂２９７番地",
        "latitude": 37.404786,
        "longitude": 140.9831508,
        "id": "681e744d-50df-4309-bf3d-129fe3b5d19a"
    },
    {
        "name": "八坂神社",
        "prefectureName": "福島県",
        "cityName": "双葉郡浪江町",
        "streetName": "大字樋渡字内城４５番地",
        "latitude": 37.494588,
        "longitude": 141.0006566,
        "id": "1ebf0fe7-23cb-46d3-9f5d-b099248409b6"
    },
    {
        "name": "八坂神社",
        "prefectureName": "福島県",
        "cityName": "田村市",
        "streetName": "船引町大倉字北ノ内２８８番地",
        "latitude": 37.50558601,
        "longitude": 140.57053002,
        "id": "de4b93da-635c-44fa-856a-49de57cbeed7"
    },
    {
        "name": "八坂神社",
        "prefectureName": "福島県",
        "cityName": "二本松市",
        "streetName": "上川崎字戸ノ内９番地",
        "latitude": 37.5849298,
        "longitude": 140.4310263,
        "id": "f1e55f97-33e0-4d21-8040-ff596dbcc1f2"
    },
    {
        "name": "八坂神社",
        "prefectureName": "福島県",
        "cityName": "安達郡大玉村",
        "streetName": "玉井字天王下１番地",
        "latitude": 37.54648443,
        "longitude": 140.3501044,
        "id": "ff285ca5-efb1-4d2b-9ece-268516c877bb"
    },
    {
        "name": "八坂神社",
        "prefectureName": "福島県",
        "cityName": "いわき市",
        "streetName": "三和町中三坂字向１４９番地",
        "latitude": 37.0504212,
        "longitude": 140.887684,
        "id": "6650ee27-9c25-4d07-8dbb-a84e1e652ef0"
    },
    {
        "name": "八坂神社",
        "prefectureName": "福島県",
        "cityName": "いわき市",
        "streetName": "平赤井字団粉田１５番地",
        "latitude": 37.09002441,
        "longitude": 140.86218488,
        "id": "19464b9b-88fd-4e4a-8d5e-76f681d1cd05"
    },
    {
        "name": "八坂神社",
        "prefectureName": "福島県",
        "cityName": "いわき市",
        "streetName": "四倉町大森字舘１１３番地",
        "latitude": 37.08773844,
        "longitude": 140.95766825,
        "id": "c86e956a-432c-4331-a6e4-241ae713da1d"
    },
    {
        "name": "八坂神社",
        "prefectureName": "福島県",
        "cityName": "南相馬市",
        "streetName": "原町区大谷字北向１３７番地",
        "latitude": 37.62308395,
        "longitude": 140.94147993,
        "id": "3a4bd45f-51c8-42ec-8ff9-b2532e3cf825"
    },
    {
        "name": "八坂神社",
        "prefectureName": "福島県",
        "cityName": "相馬市",
        "streetName": "小泉字屋敷前３５４番地",
        "latitude": 37.7973429,
        "longitude": 140.9188971,
        "id": "1174215c-97bd-4b70-ba7f-42a59545474a"
    },
    {
        "name": "八坂秋葉神社",
        "prefectureName": "福島県",
        "cityName": "二本松市",
        "streetName": "米沢字羽黒山５番地",
        "latitude": 37.63579425,
        "longitude": 140.48147728,
        "id": "3dbe6484-de4a-4f49-8ddc-8fb7344463a1"
    },
    {
        "name": "八坂稲荷神社",
        "prefectureName": "福島県",
        "cityName": "福島市",
        "streetName": "飯野町大久保字古地上山１番地",
        "latitude": 37.65577375,
        "longitude": 140.53545502,
        "id": "9988092f-52d3-48e2-84c1-c0034fbe47f8"
    },
    {
        "name": "八幡白山神社",
        "prefectureName": "福島県",
        "cityName": "いわき市",
        "streetName": "泉町玉露字定田３４番地",
        "latitude": 36.96050072,
        "longitude": 140.84708056,
        "id": "57465678-002f-431e-8892-831949f749c6"
    },
    {
        "name": "八幡神社",
        "prefectureName": "福島県",
        "cityName": "福島市",
        "streetName": "大森字竹ノ内１０番地",
        "latitude": 37.73112193,
        "longitude": 140.44885628,
        "id": "3a121506-8bac-4198-9068-e0cb23c5518d"
    },
    {
        "name": "八幡神社",
        "prefectureName": "福島県",
        "cityName": "福島市",
        "streetName": "飯坂町湯野字若宮２１番地",
        "latitude": 37.7608973,
        "longitude": 140.4746944,
        "id": "4d04ce26-c21a-405f-9005-529e9b1249d1"
    },
    {
        "name": "八幡神社",
        "prefectureName": "福島県",
        "cityName": "伊達市",
        "streetName": "保原町上保原字高子１３番地",
        "latitude": 37.81996829,
        "longitude": 140.55401397,
        "id": "38c2e246-f784-4c52-ae84-2a12fa07a809"
    },
    {
        "name": "八幡神社",
        "prefectureName": "福島県",
        "cityName": "郡山市",
        "streetName": "田村町守山字三ノ丸５２番地",
        "latitude": 37.3309593,
        "longitude": 140.41393408,
        "id": "6c04bb1e-6db4-449c-a956-545f93bca86a"
    },
    {
        "name": "八幡神社",
        "prefectureName": "福島県",
        "cityName": "田村郡三春町",
        "streetName": "字雁木田１９４番地",
        "latitude": 37.43976643,
        "longitude": 140.48113019,
        "id": "09b9fe43-5488-435e-ab23-93c46e7dccec"
    },
    {
        "name": "八幡神社",
        "prefectureName": "福島県",
        "cityName": "二本松市",
        "streetName": "岩崎４６番地",
        "latitude": 37.56448461,
        "longitude": 140.43080999,
        "id": "a1fc8ad9-852a-4b07-a2fc-3809cc930e1c"
    },
    {
        "name": "八幡神社",
        "prefectureName": "福島県",
        "cityName": "二本松市",
        "streetName": "針道字立石１３７番地",
        "latitude": 37.5849298,
        "longitude": 140.4310263,
        "id": "7458ad96-eb5b-44c6-9ad0-36ad89921738"
    },
    {
        "name": "八幡神社",
        "prefectureName": "福島県",
        "cityName": "東白川郡棚倉町",
        "streetName": "大字逆川字前山２０番地",
        "latitude": 37.0299047,
        "longitude": 140.3796478,
        "id": "3a8f012b-45b2-449d-8613-94c43ef42398"
    },
    {
        "name": "八幡神社",
        "prefectureName": "福島県",
        "cityName": "石川郡石川町",
        "streetName": "大字中野字高ノ内８０番地",
        "latitude": 37.1773934,
        "longitude": 140.42356614,
        "id": "1ef61eb7-940a-4b98-8eed-54ac2b3b9d8b"
    },
    {
        "name": "八幡神社",
        "prefectureName": "福島県",
        "cityName": "いわき市",
        "streetName": "常磐長孫町八幡平７９番地",
        "latitude": 36.97716203,
        "longitude": 140.85574763,
        "id": "5db859fc-367c-4ce4-9ceb-1edaad333ea6"
    },
    {
        "name": "八幡神社",
        "prefectureName": "福島県",
        "cityName": "いわき市",
        "streetName": "四倉町名木字葱作５８番地",
        "latitude": 37.10089768,
        "longitude": 140.95237667,
        "id": "eb218980-84ae-4264-8daa-70d5210e3895"
    },
    {
        "name": "八幡神社",
        "prefectureName": "福島県",
        "cityName": "相馬市",
        "streetName": "石上字寺前３０番地",
        "latitude": 37.82547879,
        "longitude": 140.91898768,
        "id": "eb735abe-5959-4361-9655-cdac2358b8ba"
    },
    {
        "name": "八幡神社",
        "prefectureName": "福島県",
        "cityName": "双葉郡楢葉町",
        "streetName": "大字上繁岡字山根１番地",
        "latitude": 37.2824842,
        "longitude": 140.9933693,
        "id": "53b9cef2-a3a2-4edb-a6c7-271fa75c70f9"
    },
    {
        "name": "八幡神社",
        "prefectureName": "福島県",
        "cityName": "双葉郡浪江町",
        "streetName": "大字津島字中下１１５番地",
        "latitude": 37.494588,
        "longitude": 141.0006566,
        "id": "81d7232d-e457-4bef-8a1f-092d2c86042e"
    },
    {
        "name": "八幡神社",
        "prefectureName": "福島県",
        "cityName": "双葉郡双葉町",
        "streetName": "大字山田字北田２０５番地",
        "latitude": 37.4490589,
        "longitude": 141.0121362,
        "id": "0314c5d3-6f69-46ff-b75e-0cf94b768e3c"
    },
    {
        "name": "八幡神社",
        "prefectureName": "福島県",
        "cityName": "大沼郡会津美里町",
        "streetName": "小沢甲３６４番地の１",
        "latitude": 37.4598674,
        "longitude": 139.8411142,
        "id": "6573b6bc-d306-4820-8932-44ceb0ffe12f"
    },
    {
        "name": "八幡神社",
        "prefectureName": "福島県",
        "cityName": "会津若松市",
        "streetName": "神指町大字中四合字村添丁１００番地",
        "latitude": 37.4947606,
        "longitude": 139.9298124,
        "id": "d679bb99-4c93-40ae-83c8-2a1ef5b29b2d"
    },
    {
        "name": "八幡神社",
        "prefectureName": "福島県",
        "cityName": "会津若松市",
        "streetName": "河東町金田字村前２８番地",
        "latitude": 37.54946826,
        "longitude": 139.93174342,
        "id": "35a4c042-90f0-4c35-8829-495c021339c4"
    },
    {
        "name": "八幡神社",
        "prefectureName": "福島県",
        "cityName": "耶麻郡猪苗代町",
        "streetName": "大字若宮字田茂澤甲２４９５番地",
        "latitude": 37.5577815,
        "longitude": 140.1047463,
        "id": "a39d08b9-82d7-4c9d-99de-ccd385e8224d"
    },
    {
        "name": "八幡神社",
        "prefectureName": "福島県",
        "cityName": "喜多方市",
        "streetName": "塩川町会知字八幡町乙９番地",
        "latitude": 37.59491794,
        "longitude": 139.88969777,
        "id": "ec92b462-de29-4343-a105-d61e1273419a"
    },
    {
        "name": "八幡神社",
        "prefectureName": "福島県",
        "cityName": "南会津郡只見町",
        "streetName": "大字大倉字中地７８３番地",
        "latitude": 37.31161793,
        "longitude": 139.44152409,
        "id": "b556940d-8eb3-4ebd-8f8e-ddc3df522bd6"
    },
    {
        "name": "八幡神社",
        "prefectureName": "福島県",
        "cityName": "福島市",
        "streetName": "泉字泉川９番地",
        "latitude": 37.77782266,
        "longitude": 140.44686591,
        "id": "435bbffd-304d-4ca5-a6e9-abd3f7cc3ad2"
    },
    {
        "name": "八幡神社",
        "prefectureName": "福島県",
        "cityName": "福島市",
        "streetName": "本内字南古舘３９番地",
        "latitude": 37.78508686,
        "longitude": 140.48452594,
        "id": "9370b333-0db8-4369-a272-275bda819a37"
    },
    {
        "name": "八幡神社",
        "prefectureName": "福島県",
        "cityName": "福島市",
        "streetName": "飯坂町字八幡６番地",
        "latitude": 37.83324703,
        "longitude": 140.45026032,
        "id": "7ec60020-3db9-4054-b6d1-85d735d131d5"
    },
    {
        "name": "八幡神社",
        "prefectureName": "福島県",
        "cityName": "伊達市",
        "streetName": "保原町大立目字北屋敷９３番地１",
        "latitude": 37.81996829,
        "longitude": 140.55401397,
        "id": "a66a78ca-adc0-4192-9f03-be5972428ce0"
    },
    {
        "name": "八幡神社",
        "prefectureName": "福島県",
        "cityName": "郡山市",
        "streetName": "喜久田町早稲原字町１２１番地",
        "latitude": 37.45407043,
        "longitude": 140.36504283,
        "id": "4dd2ea9c-1023-4329-a2a6-ff9fa807fc52"
    },
    {
        "name": "八幡神社",
        "prefectureName": "福島県",
        "cityName": "二本松市",
        "streetName": "太田字若宮１番地",
        "latitude": 37.59226654,
        "longitude": 140.53857906,
        "id": "6e220e9d-ec28-4383-b309-af2101bc0193"
    },
    {
        "name": "八幡神社",
        "prefectureName": "福島県",
        "cityName": "二本松市",
        "streetName": "戸沢字立石３番地",
        "latitude": 37.56766143,
        "longitude": 140.57835437,
        "id": "be25ec1d-8278-4b79-90ed-f7235ea1e137"
    },
    {
        "name": "八幡神社",
        "prefectureName": "福島県",
        "cityName": "西白河郡西郷村",
        "streetName": "大字米字米村８番地",
        "latitude": 37.1416095,
        "longitude": 140.1856303,
        "id": "aeb25dbd-5d53-46b7-9d98-576d33e13229"
    },
    {
        "name": "八幡神社",
        "prefectureName": "福島県",
        "cityName": "石川郡石川町",
        "streetName": "大字母畑字東２３８番地",
        "latitude": 37.18762455,
        "longitude": 140.47858902,
        "id": "e16eed9d-018e-4fdf-8e17-e8db98c35912"
    },
    {
        "name": "八幡神社",
        "prefectureName": "福島県",
        "cityName": "いわき市",
        "streetName": "平泉崎字岸１３２番地",
        "latitude": 37.08111106,
        "longitude": 140.94371764,
        "id": "9233478f-e1f3-4298-a9e2-a63cc9f091c0"
    },
    {
        "name": "八幡神社",
        "prefectureName": "福島県",
        "cityName": "いわき市",
        "streetName": "小名浜大原字岸前２５番地",
        "latitude": 36.96812204,
        "longitude": 140.89403775,
        "id": "c868e079-f22b-44a7-9c03-77b8406d2aaa"
    },
    {
        "name": "八幡神社",
        "prefectureName": "福島県",
        "cityName": "いわき市",
        "streetName": "四倉町字地引９９番地の１",
        "latitude": 37.0504212,
        "longitude": 140.887684,
        "id": "15199b49-02ea-49d1-8e6b-840440271d18"
    },
    {
        "name": "八幡神社",
        "prefectureName": "福島県",
        "cityName": "相馬郡新地町",
        "streetName": "谷地小屋字萩崎１１３番地",
        "latitude": 37.876362,
        "longitude": 140.9194459,
        "id": "4da65a47-47e0-4318-8670-f8925bcb2a31"
    },
    {
        "name": "八幡神社",
        "prefectureName": "福島県",
        "cityName": "双葉郡双葉町",
        "streetName": "大字山田字前玉沢４１番地",
        "latitude": 37.4490589,
        "longitude": 141.0121362,
        "id": "b9113874-e2f7-487c-98d2-0fe83efd7bb7"
    },
    {
        "name": "八幡神社",
        "prefectureName": "福島県",
        "cityName": "大沼郡会津美里町",
        "streetName": "沼田字宮窪甲２９１０番地",
        "latitude": 37.4598674,
        "longitude": 139.8411142,
        "id": "6f7cfc2a-32e2-427e-8335-564bd1c5ad1a"
    },
    {
        "name": "八幡神社",
        "prefectureName": "福島県",
        "cityName": "会津若松市",
        "streetName": "神指町大字高久字高久２２４番地１",
        "latitude": 37.54046532,
        "longitude": 139.87782661,
        "id": "f3c42376-7f1b-46bb-9ce5-6caffd4eb973"
    },
    {
        "name": "八幡神社",
        "prefectureName": "福島県",
        "cityName": "会津若松市",
        "streetName": "北会津町大字三伏甲１４６番地",
        "latitude": 37.5095355,
        "longitude": 139.86684853,
        "id": "c4644a42-bb51-46e7-beed-9ed31a203973"
    },
    {
        "name": "八幡神社",
        "prefectureName": "福島県",
        "cityName": "耶麻郡猪苗代町",
        "streetName": "大字若宮字堂名目甲１４９８番地",
        "latitude": 37.5577815,
        "longitude": 140.1047463,
        "id": "7edc860d-2857-41b5-a642-92d717ff24fd"
    },
    {
        "name": "八幡神社",
        "prefectureName": "福島県",
        "cityName": "河沼郡会津坂下町",
        "streetName": "大字新開津字七反田乙５０番地",
        "latitude": 37.5613808,
        "longitude": 139.8217285,
        "id": "c09b6278-f8b1-46e2-9ae6-90ee30e5f6ab"
    },
    {
        "name": "八幡神社",
        "prefectureName": "福島県",
        "cityName": "南会津郡南会津町",
        "streetName": "森戸字八幡林４３２番地",
        "latitude": 37.2004027,
        "longitude": 139.7738871,
        "id": "6c33900e-5162-4a18-837c-e6cda3b421f9"
    },
    {
        "name": "八幡神社",
        "prefectureName": "福島県",
        "cityName": "福島市",
        "streetName": "大森字中町７４番地",
        "latitude": 37.72389194,
        "longitude": 140.43783547,
        "id": "085816e3-7139-403d-971f-a06a56bf568a"
    },
    {
        "name": "八幡神社",
        "prefectureName": "福島県",
        "cityName": "福島市",
        "streetName": "立子山字大石ケ作１番地",
        "latitude": 37.7608973,
        "longitude": 140.4746944,
        "id": "84807644-bac1-4f01-b220-8d5ac40d4d65"
    },
    {
        "name": "八幡神社",
        "prefectureName": "福島県",
        "cityName": "伊達郡国見町",
        "streetName": "大字小坂字堤下１番地",
        "latitude": 37.8768223,
        "longitude": 140.5491872,
        "id": "b57a3685-d394-404a-abab-5ebdb9a409dd"
    },
    {
        "name": "八幡神社",
        "prefectureName": "福島県",
        "cityName": "郡山市",
        "streetName": "田村町下道渡字南作１６８番地",
        "latitude": 37.32805825,
        "longitude": 140.45350062,
        "id": "4db42794-31ce-4c4a-bcf5-519f359ac721"
    },
    {
        "name": "八幡神社",
        "prefectureName": "福島県",
        "cityName": "田村市",
        "streetName": "船引町上移字町２４７番地",
        "latitude": 37.51348455,
        "longitude": 140.66314775,
        "id": "75e2b2b2-7f05-460b-819d-ac6f8d1fa8f6"
    },
    {
        "name": "八幡神社",
        "prefectureName": "福島県",
        "cityName": "二本松市",
        "streetName": "吉倉字広平５９番地１",
        "latitude": 37.5849298,
        "longitude": 140.4310263,
        "id": "71ecc72c-f1de-4734-94b9-b68d2f850d65"
    },
    {
        "name": "八幡神社",
        "prefectureName": "福島県",
        "cityName": "二本松市",
        "streetName": "田沢字板宮１３番地",
        "latitude": 37.5849298,
        "longitude": 140.4310263,
        "id": "035dd387-d129-45ba-80f0-90cc58a7fb25"
    },
    {
        "name": "八幡神社",
        "prefectureName": "福島県",
        "cityName": "二本松市",
        "streetName": "蓬田２５９番地",
        "latitude": 37.59151613,
        "longitude": 140.48373138,
        "id": "25275475-efc1-440a-9917-88a62e86f42d"
    },
    {
        "name": "八幡神社",
        "prefectureName": "福島県",
        "cityName": "白河市",
        "streetName": "八幡山１番地",
        "latitude": 37.09739064,
        "longitude": 140.2297281,
        "id": "f54b8e11-a086-40d9-9244-67736f98eb2b"
    },
    {
        "name": "八幡神社",
        "prefectureName": "福島県",
        "cityName": "西白河郡西郷村",
        "streetName": "大字羽太字牛窪２番地",
        "latitude": 37.19028992,
        "longitude": 140.13473455,
        "id": "0a501375-c9a8-422a-bc25-ff8b79594461"
    },
    {
        "name": "八幡神社",
        "prefectureName": "福島県",
        "cityName": "白河市",
        "streetName": "大信増見字八幡山１６０番地",
        "latitude": 37.20130124,
        "longitude": 140.24324881,
        "id": "61fa9275-0bf6-45ab-a6f6-ba84047f4c62"
    },
    {
        "name": "八幡神社",
        "prefectureName": "福島県",
        "cityName": "東白川郡塙町",
        "streetName": "大字湯岐字八幡山３番地",
        "latitude": 36.9574367,
        "longitude": 140.4095728,
        "id": "e4d32f6e-5669-46e9-bf38-91e9d0a3ef85"
    },
    {
        "name": "八幡神社",
        "prefectureName": "福島県",
        "cityName": "東白川郡鮫川村",
        "streetName": "大字富田字彦次郎４５１番地",
        "latitude": 37.0423436,
        "longitude": 140.5101522,
        "id": "440e36f7-d01f-4ac6-80bc-29ee3121c1f5"
    },
    {
        "name": "八幡神社",
        "prefectureName": "福島県",
        "cityName": "岩瀬郡鏡石町",
        "streetName": "仁井田３６４番地",
        "latitude": 37.252591,
        "longitude": 140.3433887,
        "id": "daa24357-57fc-4df2-9409-80bedb1b645c"
    },
    {
        "name": "八幡神社",
        "prefectureName": "福島県",
        "cityName": "石川郡石川町",
        "streetName": "字和久２６４番地",
        "latitude": 37.1570771,
        "longitude": 140.4467789,
        "id": "b31e5686-4b53-4046-9451-312ef96eaf93"
    },
    {
        "name": "八幡神社",
        "prefectureName": "福島県",
        "cityName": "石川郡玉川村",
        "streetName": "大字岩法寺字宮ノ前７５番地７６番地",
        "latitude": 37.210689,
        "longitude": 140.4089326,
        "id": "535cf35c-135d-464c-8dcf-67de0d4882b1"
    },
    {
        "name": "八幡神社",
        "prefectureName": "福島県",
        "cityName": "石川郡古殿町",
        "streetName": "大字山上字古殿６７番地",
        "latitude": 37.0890924,
        "longitude": 140.5556518,
        "id": "19626ab4-98ab-4bdc-b548-7adcc88f2299"
    },
    {
        "name": "八幡神社",
        "prefectureName": "福島県",
        "cityName": "石川郡古殿町",
        "streetName": "大字鎌田字長光地１７５番地",
        "latitude": 37.08376963,
        "longitude": 140.52052201,
        "id": "507e4f5e-6051-454a-abb0-4d88cb7deb06"
    },
    {
        "name": "八幡神社",
        "prefectureName": "福島県",
        "cityName": "いわき市",
        "streetName": "平馬目字宮下１７３番地",
        "latitude": 37.0504212,
        "longitude": 140.887684,
        "id": "6b1f96b7-a085-412a-9fae-4df509e183f4"
    },
    {
        "name": "八幡神社",
        "prefectureName": "福島県",
        "cityName": "いわき市",
        "streetName": "泉町下川字大剣７８番地",
        "latitude": 37.0504212,
        "longitude": 140.887684,
        "id": "d84cc03e-fa3c-4c77-9b91-9980bc8129d0"
    },
    {
        "name": "八幡神社",
        "prefectureName": "福島県",
        "cityName": "いわき市",
        "streetName": "添野町清水４９番地",
        "latitude": 36.94074584,
        "longitude": 140.80183123,
        "id": "9af15109-8649-4369-a238-5de90cbb0937"
    },
    {
        "name": "八幡神社",
        "prefectureName": "福島県",
        "cityName": "相馬市",
        "streetName": "新沼字一反田２４０番地",
        "latitude": 37.7973429,
        "longitude": 140.9188971,
        "id": "0004e6ee-4a39-4385-874a-8a072997423a"
    },
    {
        "name": "八幡神社",
        "prefectureName": "福島県",
        "cityName": "双葉郡葛尾村",
        "streetName": "大字野川字南仲ノ内７１番地",
        "latitude": 37.5035367,
        "longitude": 140.7644876,
        "id": "59651c5e-0826-47aa-aa38-cb80be77374f"
    },
    {
        "name": "八幡神社",
        "prefectureName": "福島県",
        "cityName": "双葉郡双葉町",
        "streetName": "大字中野字宮脇１１９番地",
        "latitude": 37.4490589,
        "longitude": 141.0121362,
        "id": "f080e973-5b34-4ba3-87c2-a5a009e209dc"
    },
    {
        "name": "八幡神社",
        "prefectureName": "福島県",
        "cityName": "大沼郡会津美里町",
        "streetName": "吉田字村ノ内丙１番地",
        "latitude": 37.4598674,
        "longitude": 139.8411142,
        "id": "8c4fc14d-e8a9-47b0-a348-3d83d1d5afc9"
    },
    {
        "name": "八幡神社",
        "prefectureName": "福島県",
        "cityName": "会津若松市",
        "streetName": "神指町大字高瀬字高瀬２６３５番地",
        "latitude": 37.4947606,
        "longitude": 139.9298124,
        "id": "2457cd7c-e7e2-4e37-88b0-ca7e14daae2c"
    },
    {
        "name": "八幡神社",
        "prefectureName": "福島県",
        "cityName": "耶麻郡磐梯町",
        "streetName": "大字赤枝字西畑山２４４６番地",
        "latitude": 37.5621179,
        "longitude": 139.9888127,
        "id": "3a3ab4da-0e51-44cc-bed4-d48d1967b35e"
    },
    {
        "name": "八幡神社",
        "prefectureName": "福島県",
        "cityName": "耶麻郡猪苗代町",
        "streetName": "大字西舘字宮１番地",
        "latitude": 37.5577815,
        "longitude": 140.1047463,
        "id": "045f3310-6b86-485f-b381-ada58bebe787"
    },
    {
        "name": "八幡神社",
        "prefectureName": "福島県",
        "cityName": "河沼郡会津坂下町",
        "streetName": "大字新開津字村内甲２番地",
        "latitude": 37.5613808,
        "longitude": 139.8217285,
        "id": "e33717df-89f3-4b81-8609-577b61cd6e3d"
    },
    {
        "name": "八幡神社",
        "prefectureName": "福島県",
        "cityName": "南会津郡下郷町",
        "streetName": "大字大松川字森山１８９９番地",
        "latitude": 37.2556158,
        "longitude": 139.8721507,
        "id": "d5c46080-8a38-4c93-8955-531758106fcb"
    },
    {
        "name": "八幡神社",
        "prefectureName": "福島県",
        "cityName": "福島市",
        "streetName": "松川町金沢字宮ノ前４６番地",
        "latitude": 37.65430615,
        "longitude": 140.48515664,
        "id": "6819c72e-d12d-4f40-880e-27c1b88ab6eb"
    },
    {
        "name": "八幡神社",
        "prefectureName": "福島県",
        "cityName": "福島市",
        "streetName": "松川町浅川字若宮５番地",
        "latitude": 37.65430615,
        "longitude": 140.48515664,
        "id": "8ccc52e4-2247-4195-b5d0-96b5adea6997"
    },
    {
        "name": "八幡神社",
        "prefectureName": "福島県",
        "cityName": "福島市",
        "streetName": "立子山字三久保９１番地",
        "latitude": 37.7608973,
        "longitude": 140.4746944,
        "id": "5e9d079a-44af-44fe-9ac0-d6c15c1ba201"
    },
    {
        "name": "八幡神社",
        "prefectureName": "福島県",
        "cityName": "伊達郡国見町",
        "streetName": "大字塚野目字前畑１９番地の１",
        "latitude": 37.8768223,
        "longitude": 140.5491872,
        "id": "07a69dab-ace8-4985-acb7-394fe73b0493"
    },
    {
        "name": "八幡神社",
        "prefectureName": "福島県",
        "cityName": "伊達郡川俣町",
        "streetName": "字寺前２４番地",
        "latitude": 37.6650298,
        "longitude": 140.5982412,
        "id": "2e6a99de-14c4-4cd6-8ef6-22ca2f891f02"
    },
    {
        "name": "八幡神社",
        "prefectureName": "福島県",
        "cityName": "郡山市",
        "streetName": "日和田町字日和田６５番地",
        "latitude": 37.44597475,
        "longitude": 140.38964078,
        "id": "0698aa5f-0f41-43c4-b219-216e9fd5cdfb"
    },
    {
        "name": "八幡神社",
        "prefectureName": "福島県",
        "cityName": "二本松市",
        "streetName": "渋川字木明内４５番地",
        "latitude": 37.63213039,
        "longitude": 140.46569286,
        "id": "926033e2-70ee-42e5-b21f-c90ae92a0b93"
    },
    {
        "name": "八幡神社",
        "prefectureName": "福島県",
        "cityName": "二本松市",
        "streetName": "百目木字町７２番地",
        "latitude": 37.5313172,
        "longitude": 140.61108721,
        "id": "03dd0db2-e686-4c08-a4d2-037c4c92b541"
    },
    {
        "name": "八幡神社",
        "prefectureName": "福島県",
        "cityName": "白河市",
        "streetName": "大和田中内３８番地",
        "latitude": 37.14667159,
        "longitude": 140.26028487,
        "id": "da9ef6b3-1ec4-4534-89f9-693fdb1e8d8c"
    },
    {
        "name": "八幡神社",
        "prefectureName": "福島県",
        "cityName": "東白川郡塙町",
        "streetName": "大字常世北野字八幡２９８番地",
        "latitude": 36.96644733,
        "longitude": 140.431512,
        "id": "3ae34176-9a8c-4348-b927-885c8fcdce9a"
    },
    {
        "name": "八幡神社",
        "prefectureName": "福島県",
        "cityName": "東白川郡鮫川村",
        "streetName": "大字赤坂中野字道少田１６２番地",
        "latitude": 37.0423436,
        "longitude": 140.5101522,
        "id": "ba73c186-cb45-44ae-82a0-2cd120021bc1"
    },
    {
        "name": "八幡神社",
        "prefectureName": "福島県",
        "cityName": "須賀川市",
        "streetName": "下小山田字山田４６７番地",
        "latitude": 37.27958198,
        "longitude": 140.41642312,
        "id": "9c95d2ac-39c0-49e8-986d-927ca0a7c936"
    },
    {
        "name": "八幡神社",
        "prefectureName": "福島県",
        "cityName": "岩瀬郡鏡石町",
        "streetName": "大字鏡田字大池１５４番地",
        "latitude": 37.252591,
        "longitude": 140.3433887,
        "id": "9c6d5bc9-2a34-42ed-ac0b-4cf9ef7cf210"
    },
    {
        "name": "八幡神社",
        "prefectureName": "福島県",
        "cityName": "石川郡石川町",
        "streetName": "大字赤羽字浦２５番地",
        "latitude": 37.13424174,
        "longitude": 140.37790717,
        "id": "542064b6-8cc4-45d0-b8a8-19ab61c5f554"
    },
    {
        "name": "八幡神社",
        "prefectureName": "福島県",
        "cityName": "石川郡玉川村",
        "streetName": "大字川辺字宮ノ前１４８番地の１",
        "latitude": 37.20147349,
        "longitude": 140.40824135,
        "id": "f9838317-831d-401a-8e02-57234ab0bc0b"
    },
    {
        "name": "八幡神社",
        "prefectureName": "福島県",
        "cityName": "いわき市",
        "streetName": "平下高久字八幡２０７番地",
        "latitude": 37.02259445,
        "longitude": 140.96016596,
        "id": "d470ac0f-7a2c-4636-af4b-b6076d394242"
    },
    {
        "name": "八幡神社",
        "prefectureName": "福島県",
        "cityName": "いわき市",
        "streetName": "川部町寺田７２番地",
        "latitude": 36.91383549,
        "longitude": 140.73105037,
        "id": "f0637818-ad6d-4477-8f7d-472b87eaba1d"
    },
    {
        "name": "八幡神社",
        "prefectureName": "福島県",
        "cityName": "相馬市",
        "streetName": "坪田字涼ケ岡５１番地",
        "latitude": 37.77704735,
        "longitude": 140.90975708,
        "id": "70026725-241f-4e64-b2b2-97ebbea8c338"
    },
    {
        "name": "八幡神社",
        "prefectureName": "福島県",
        "cityName": "双葉郡大熊町",
        "streetName": "大字下野上字後山２８７番地",
        "latitude": 37.404786,
        "longitude": 140.9831508,
        "id": "7aa587ef-b50e-4c58-9f8c-fddd09359091"
    },
    {
        "name": "八幡神社",
        "prefectureName": "福島県",
        "cityName": "双葉郡浪江町",
        "streetName": "大字加倉字柴田３２５番地",
        "latitude": 37.494588,
        "longitude": 141.0006566,
        "id": "42bbb650-4b94-458d-b62f-f4eedb3214d8"
    },
    {
        "name": "八幡神社",
        "prefectureName": "福島県",
        "cityName": "会津若松市",
        "streetName": "大戸町大字上三寄字八幡東甲４４２番地",
        "latitude": 37.4947606,
        "longitude": 139.9298124,
        "id": "3f24195c-15e6-4093-aebb-9b6a26870ea2"
    },
    {
        "name": "八幡神社",
        "prefectureName": "福島県",
        "cityName": "会津若松市",
        "streetName": "門田町大字御山字中村甲１５５２番地",
        "latitude": 37.4947606,
        "longitude": 139.9298124,
        "id": "1f115f54-a99e-4cb1-a989-1e415e7067ab"
    },
    {
        "name": "八幡神社",
        "prefectureName": "福島県",
        "cityName": "耶麻郡猪苗代町",
        "streetName": "大字三ツ和字家北６５７番地",
        "latitude": 37.53740832,
        "longitude": 140.07137841,
        "id": "4f39c1ff-4ead-45dc-8b95-8aebd8e6a304"
    },
    {
        "name": "八幡神社",
        "prefectureName": "福島県",
        "cityName": "耶麻郡西会津町",
        "streetName": "奥川大字飯里字宮ノ上２４５１番地",
        "latitude": 37.5874281,
        "longitude": 139.6492911,
        "id": "db2a1c21-8e43-473e-8d4f-d05b3c42b0ef"
    },
    {
        "name": "八幡神社",
        "prefectureName": "福島県",
        "cityName": "喜多方市",
        "streetName": "塩川町大田木字古屋敷４８９番地",
        "latitude": 37.59491794,
        "longitude": 139.88969777,
        "id": "ef6dbfed-0ec6-4873-99b5-33fcf39a068d"
    },
    {
        "name": "八幡神社",
        "prefectureName": "福島県",
        "cityName": "南会津郡南会津町",
        "streetName": "川島字蟹沢１９２４番地",
        "latitude": 37.2004027,
        "longitude": 139.7738871,
        "id": "adeb9765-1e2d-46ee-b864-0c2100db3d4c"
    },
    {
        "name": "八幡神社",
        "prefectureName": "福島県",
        "cityName": "福島市",
        "streetName": "小田字八幡舘１５番地",
        "latitude": 37.71051573,
        "longitude": 140.43303654,
        "id": "23440627-377b-454e-bfd4-363d70f3a224"
    },
    {
        "name": "八幡神社",
        "prefectureName": "福島県",
        "cityName": "福島市",
        "streetName": "立子山字上ノ館１０番地",
        "latitude": 37.7608973,
        "longitude": 140.4746944,
        "id": "8ca2847a-1877-4af9-8f37-9e5bbd86ca01"
    },
    {
        "name": "八幡神社",
        "prefectureName": "福島県",
        "cityName": "伊達郡川俣町",
        "streetName": "小綱木字的場１４番地",
        "latitude": 37.6650298,
        "longitude": 140.5982412,
        "id": "ba1db945-991e-4061-8e5a-d371b67d16ae"
    },
    {
        "name": "八幡神社",
        "prefectureName": "福島県",
        "cityName": "田村郡小野町",
        "streetName": "大字小戸神字葭作１８４番地",
        "latitude": 37.286839,
        "longitude": 140.6262796,
        "id": "d7780048-8867-424f-9678-751ed197166c"
    },