[
    {
        "name": "一山神社",
        "prefectureName": "埼玉県",
        "cityName": "さいたま市中央区",
        "streetName": "本町東４丁目６６５番地",
        "latitude": 35.883956,
        "longitude": 139.6261993,
        "id": "950a93cc-652e-4c4a-8145-ab84479fcd89"
    },
    {
        "name": "一言神社",
        "prefectureName": "埼玉県",
        "cityName": "久喜市",
        "streetName": "栗橋中央１丁目１０４６番地",
        "latitude": 36.12197457,
        "longitude": 139.70796289,
        "id": "683ab61d-4970-4176-a291-73ecf8d0041f"
    },
    {
        "name": "七社神社",
        "prefectureName": "埼玉県",
        "cityName": "熊谷市",
        "streetName": "樋春１０２３番地１",
        "latitude": 36.13281525,
        "longitude": 139.34950307,
        "id": "c79af64c-8f85-4a00-b88c-e60b17ca46b9"
    },
    {
        "name": "七郷神社",
        "prefectureName": "埼玉県",
        "cityName": "川口市",
        "streetName": "戸塚３丁目１３番６号",
        "latitude": 35.87019596,
        "longitude": 139.74755296,
        "id": "9b3ab159-2c5c-4c82-8c31-eb98f999fa35"
    },
    {
        "name": "三ツ木神社",
        "prefectureName": "埼玉県",
        "cityName": "鴻巣市",
        "streetName": "愛の町１６９番地",
        "latitude": 36.09108297,
        "longitude": 139.4722434,
        "id": "e7cb1b13-8602-442d-840d-c27449111684"
    },
    {
        "name": "三光神社",
        "prefectureName": "埼玉県",
        "cityName": "比企郡小川町",
        "streetName": "大字木部４５８番地",
        "latitude": 36.06889989,
        "longitude": 139.2224699,
        "id": "ba86dfa1-e910-4dd3-bf71-e3efe1f9ce45"
    },
    {
        "name": "三宮神社",
        "prefectureName": "埼玉県",
        "cityName": "春日部市",
        "streetName": "上柳１７２０番地",
        "latitude": 35.99816008,
        "longitude": 139.78739458,
        "id": "280acb67-53af-454e-821b-2b50afaecf83"
    },
    {
        "name": "三峰神社",
        "prefectureName": "埼玉県",
        "cityName": "秩父市",
        "streetName": "三峰２９８番地１",
        "latitude": 35.92542688,
        "longitude": 138.93037049,
        "id": "f4db0e53-2c16-4366-baaa-bc9903b13e19"
    },
    {
        "name": "三島愛宕神社",
        "prefectureName": "埼玉県",
        "cityName": "本庄市",
        "streetName": "児玉町高柳１３８番地",
        "latitude": 36.17623641,
        "longitude": 139.11538633,
        "id": "ff26694e-b62e-40b2-896c-9f8f9fae1d66"
    },
    {
        "name": "三島日光神社",
        "prefectureName": "埼玉県",
        "cityName": "川越市",
        "streetName": "大字笠幡１６８９番地",
        "latitude": 35.91671572,
        "longitude": 139.4087781,
        "id": "cfeb85b6-5ceb-4d61-b882-2a92926509d1"
    },
    {
        "name": "三島神社",
        "prefectureName": "埼玉県",
        "cityName": "比企郡鳩山町",
        "streetName": "大字大豆戸７８８番地",
        "latitude": 35.97597937,
        "longitude": 139.3298923,
        "id": "96f4862b-2303-4111-a3f6-8cc3773bbf52"
    },
    {
        "name": "三島神社",
        "prefectureName": "埼玉県",
        "cityName": "秩父郡小鹿野町",
        "streetName": "下小鹿野２１７４番地",
        "latitude": 36.01488451,
        "longitude": 139.01629755,
        "id": "fcc26a59-5b20-4bba-a8f0-c9cdc943f50a"
    },
    {
        "name": "三島神社",
        "prefectureName": "埼玉県",
        "cityName": "さいたま市浦和区",
        "streetName": "瀬ヶ崎２丁目１９５番地",
        "latitude": 35.8616507,
        "longitude": 139.6455012,
        "id": "fbfb8ede-beab-468f-86f5-72268f882533"
    },
    {
        "name": "三島神社",
        "prefectureName": "埼玉県",
        "cityName": "鴻巣市",
        "streetName": "明用１２３番地",
        "latitude": 36.09456262,
        "longitude": 139.46088054,
        "id": "90559158-8dba-43d3-8214-789e1679a8d3"
    },
    {
        "name": "三島神社",
        "prefectureName": "埼玉県",
        "cityName": "熊谷市",
        "streetName": "原島８７７番地",
        "latitude": 36.16392727,
        "longitude": 139.37321927,
        "id": "11946122-fe45-401a-b31e-67cea163cb5d"
    },
    {
        "name": "三島神社",
        "prefectureName": "埼玉県",
        "cityName": "日高市",
        "streetName": "大字下大谷沢１４４番地",
        "latitude": 35.88895331,
        "longitude": 139.38889949,
        "id": "a21b37e0-a0d5-4ae2-8a47-30b016884c75"
    },
    {
        "name": "三嶋神社",
        "prefectureName": "埼玉県",
        "cityName": "大里郡寄居町",
        "streetName": "大字赤浜１９７３番地",
        "latitude": 36.11245874,
        "longitude": 139.26088076,
        "id": "0ec5249b-1da9-4771-b7c7-e55b0ddeed02"
    },
    {
        "name": "三幸神社",
        "prefectureName": "埼玉県",
        "cityName": "熊谷市",
        "streetName": "上中条１２８３番地",
        "latitude": 36.1473119,
        "longitude": 139.3886432,
        "id": "bb6b64c3-4298-4188-8dad-642400b5a44e"
    },
    {
        "name": "三社大神社",
        "prefectureName": "埼玉県",
        "cityName": "越谷市",
        "streetName": "大間野町４丁目１番地",
        "latitude": 35.86330086,
        "longitude": 139.7798838,
        "id": "1b4ce2bd-1d19-4688-b8c7-c70044bdcf99"
    },
    {
        "name": "三社神社",
        "prefectureName": "埼玉県",
        "cityName": "さいたま市岩槻区",
        "streetName": "大字徳力６０番地",
        "latitude": 35.97371581,
        "longitude": 139.71801248,
        "id": "b9152dbb-7e80-44ba-bee6-2f222f14a74b"
    },
    {
        "name": "三箇神社",
        "prefectureName": "埼玉県",
        "cityName": "久喜市",
        "streetName": "菖蒲町三箇８５７番地",
        "latitude": 36.06468262,
        "longitude": 139.60747076,
        "id": "a0542d4b-2077-4c8c-9bfa-ec50c0449c54"
    },
    {
        "name": "三芳野神社",
        "prefectureName": "埼玉県",
        "cityName": "川越市",
        "streetName": "郭町２丁目２５番地１１",
        "latitude": 35.92422296,
        "longitude": 139.49242823,
        "id": "9b9732b7-973f-438e-97ec-f8cef9611249"
    },
    {
        "name": "三角稲荷神社",
        "prefectureName": "埼玉県",
        "cityName": "さいたま市浦和区",
        "streetName": "本太３丁目２７番１号",
        "latitude": 35.86684473,
        "longitude": 139.65271973,
        "id": "c1143feb-f2c0-4482-93be-81a3939d6fb3"
    },
    {
        "name": "三輪神社",
        "prefectureName": "埼玉県",
        "cityName": "入間市",
        "streetName": "大字中神３４５番地",
        "latitude": 35.8177332,
        "longitude": 139.35467987,
        "id": "0023fad0-4580-477a-8caf-b33447e9078c"
    },
    {
        "name": "三輪神社",
        "prefectureName": "埼玉県",
        "cityName": "吉川市",
        "streetName": "大字三輪野江１３７１番地１",
        "latitude": 35.87590058,
        "longitude": 139.88404681,
        "id": "a3966055-2334-46bc-9b7c-13e494b63e6d"
    },
    {
        "name": "三輪神社",
        "prefectureName": "埼玉県",
        "cityName": "飯能市",
        "streetName": "大字高山１５６番地",
        "latitude": 35.93937616,
        "longitude": 139.21936499,
        "id": "b5b92bd3-aba2-4b02-bfee-69362a88ab44"
    },
    {
        "name": "三輪神社",
        "prefectureName": "埼玉県",
        "cityName": "三郷市",
        "streetName": "高州４丁目１３７番地３",
        "latitude": 35.78479602,
        "longitude": 139.88817763,
        "id": "ddd53a09-043c-43b7-bd56-28a32dbb187f"
    },
    {
        "name": "上之村神社",
        "prefectureName": "埼玉県",
        "cityName": "熊谷市",
        "streetName": "上之１６番地",
        "latitude": 36.15588154,
        "longitude": 139.41592316,
        "id": "f7a9a997-e316-4fc5-a178-28ba64773293"
    },
    {
        "name": "上南畑神社",
        "prefectureName": "埼玉県",
        "cityName": "富士見市",
        "streetName": "大字上南畑２９５番地",
        "latitude": 35.85936893,
        "longitude": 139.55985284,
        "id": "86248bef-66b5-425b-b66e-e6a84fbbd176"
    },
    {
        "name": "上小川神社",
        "prefectureName": "埼玉県",
        "cityName": "比企郡小川町",
        "streetName": "大字小川６８番地",
        "latitude": 36.05551721,
        "longitude": 139.26470576,
        "id": "72520ad7-8bc3-4e8f-85ac-ffa6793941c4"
    },
    {
        "name": "上根神社",
        "prefectureName": "埼玉県",
        "cityName": "熊谷市",
        "streetName": "上根５８８番地１",
        "latitude": 36.20893846,
        "longitude": 139.37833303,
        "id": "86933d8f-8386-46da-b324-e0a7fd9fc9ad"
    },
    {
        "name": "上青木氷川神社",
        "prefectureName": "埼玉県",
        "cityName": "川口市",
        "streetName": "上青木２丁目２７番２６号",
        "latitude": 35.8290919,
        "longitude": 139.72540656,
        "id": "816a239b-d289-4848-8ac4-3e702235ff2f"
    },
    {
        "name": "上高野神社",
        "prefectureName": "埼玉県",
        "cityName": "幸手市",
        "streetName": "南２丁目１２番１９号",
        "latitude": 36.06948338,
        "longitude": 139.7123035,
        "id": "81ac389b-15a9-49f2-83ca-0a4854e5d6ff"
    },
    {
        "name": "下忍神社",
        "prefectureName": "埼玉県",
        "cityName": "行田市",
        "streetName": "大字下忍１１６０番地",
        "latitude": 36.11734592,
        "longitude": 139.46519548,
        "id": "1c1c82db-78b2-4e0d-9675-5490b5987930"
    },
    {
        "name": "下新田稲荷神社",
        "prefectureName": "埼玉県",
        "cityName": "三郷市",
        "streetName": "高州１丁目２８９番地",
        "latitude": 35.79305887,
        "longitude": 139.8825888,
        "id": "86ba7dcf-98b3-48a5-b7c1-92b99923deed"
    },
    {
        "name": "下谷神社",
        "prefectureName": "埼玉県",
        "cityName": "春日部市",
        "streetName": "不動院野２１８８番地",
        "latitude": 35.975201,
        "longitude": 139.7523035,
        "id": "5106e0c4-ecca-4c45-a229-6b54cbecc611"
    },
    {
        "name": "下野上神社",
        "prefectureName": "埼玉県",
        "cityName": "秩父郡長瀞町",
        "streetName": "大字野上下郷２０４６番地",
        "latitude": 36.12246546,
        "longitude": 139.11253004,
        "id": "1ef95ad9-f798-4dc0-846e-59993a91ce6c"
    },
    {
        "name": "両神山両神神社",
        "prefectureName": "埼玉県",
        "cityName": "秩父郡小鹿野町",
        "streetName": "両神薄６７８５番地",
        "latitude": 36.01054522,
        "longitude": 138.92628822,
        "id": "6a039b6d-6259-4dd0-a6c6-70bc0bf8d1d0"
    },
    {
        "name": "両神神社",
        "prefectureName": "埼玉県",
        "cityName": "秩父郡小鹿野町",
        "streetName": "両神薄２３０２番地",
        "latitude": 36.0171454,
        "longitude": 139.0085872,
        "id": "d5b172d8-3f6b-431b-b9d8-af33135884da"
    },
    {
        "name": "両神神社",
        "prefectureName": "埼玉県",
        "cityName": "秩父郡小鹿野町",
        "streetName": "両神薄９９９４番地",
        "latitude": 36.02821352,
        "longitude": 138.87888978,
        "id": "452c6e40-beee-445c-bef1-15b4f17799fa"
    },
    {
        "name": "中央神社",
        "prefectureName": "埼玉県",
        "cityName": "北葛飾郡杉戸町",
        "streetName": "大字並塚１０６３番地",
        "latitude": 36.03608625,
        "longitude": 139.76400097,
        "id": "e6b275db-7549-47ef-808d-ce7038367bf5"
    },
    {
        "name": "中尾神社",
        "prefectureName": "埼玉県",
        "cityName": "さいたま市緑区",
        "streetName": "大字中尾２５０６番地",
        "latitude": 35.86627581,
        "longitude": 139.68715007,
        "id": "8d86180d-e442-4c23-8c8d-08652f92ae2f"
    },
    {
        "name": "中山神社",
        "prefectureName": "埼玉県",
        "cityName": "さいたま市見沼区",
        "streetName": "大字中川１４３番地",
        "latitude": 35.90020736,
        "longitude": 139.66375705,
        "id": "ff6cd660-f7a1-4b14-8c9f-07a93f56e86b"
    },
    {
        "name": "中新田愛宕神社",
        "prefectureName": "埼玉県",
        "cityName": "狭山市",
        "streetName": "大字中新田１４５番地",
        "latitude": 35.8529412,
        "longitude": 139.4122129,
        "id": "d99e7238-594b-4076-b433-da21a0453607"
    },
    {
        "name": "中氷川神社",
        "prefectureName": "埼玉県",
        "cityName": "所沢市",
        "streetName": "三ケ島５丁目１６９１番地の１",
        "latitude": 35.78948205,
        "longitude": 139.39763835,
        "id": "4afd638b-101e-4ace-a83c-1c4d0bba8ffa"
    },
    {
        "name": "中氷川神社",
        "prefectureName": "埼玉県",
        "cityName": "所沢市",
        "streetName": "大字山口１８４９番地",
        "latitude": 35.799477,
        "longitude": 139.4687208,
        "id": "373427a5-ca61-4695-89fa-20ef09190f36"
    },
    {
        "name": "中瀬神社",
        "prefectureName": "埼玉県",
        "cityName": "深谷市",
        "streetName": "中瀬６５０番地",
        "latitude": 36.24260577,
        "longitude": 139.27807887,
        "id": "3a174e60-6365-42e3-b5af-d8aa86173eab"
    },
    {
        "name": "中野原稲荷神社",
        "prefectureName": "埼玉県",
        "cityName": "入間市",
        "streetName": "上小谷田１丁目１番５号",
        "latitude": 35.8289795,
        "longitude": 139.37263367,
        "id": "dbe1b7e9-a828-4dae-b522-c74c3d76979b"
    },
    {
        "name": "中野神社",
        "prefectureName": "埼玉県",
        "cityName": "幸手市",
        "streetName": "大字中野８２７番地",
        "latitude": 36.058611,
        "longitude": 139.76082786,
        "id": "158c76a0-2618-48a8-932e-2511acddb712"
    },
    {
        "name": "丸山稲荷神社",
        "prefectureName": "埼玉県",
        "cityName": "狭山市",
        "streetName": "大字青柳２４１番地",
        "latitude": 35.86820646,
        "longitude": 139.44577335,
        "id": "6bb4db25-eca6-4edd-849d-9b8bc5718f97"
    },
    {
        "name": "丹生神社",
        "prefectureName": "埼玉県",
        "cityName": "児玉郡上里町",
        "streetName": "大字勅使河原１３６８番地",
        "latitude": 36.2514873,
        "longitude": 139.1448259,
        "id": "ff6d3bac-756b-4fbf-9c39-48b5232afc7d"
    },
    {
        "name": "丹生神社",
        "prefectureName": "埼玉県",
        "cityName": "児玉郡神川町",
        "streetName": "大字上阿久原１番地１",
        "latitude": 36.15151355,
        "longitude": 139.04921613,
        "id": "5bf7d516-f002-4d6c-9394-f7bc6f145181"
    },
    {
        "name": "丹生神社",
        "prefectureName": "埼玉県",
        "cityName": "児玉郡上里町",
        "streetName": "大字長浜１２９４番地",
        "latitude": 36.24242013,
        "longitude": 139.10498798,
        "id": "adefbf01-45e1-4c12-a0ba-119f1a860f58"
    },
    {
        "name": "久下神社",
        "prefectureName": "埼玉県",
        "cityName": "熊谷市",
        "streetName": "久下８２９番地",
        "latitude": 36.12139306,
        "longitude": 139.41779767,
        "id": "1160e457-e15b-4db0-955f-35cd4f5dd3a9"
    },
    {
        "name": "久伊豆神社",
        "prefectureName": "埼玉県",
        "cityName": "さいたま市岩槻区",
        "streetName": "大字谷下１０２番地",
        "latitude": 35.93199301,
        "longitude": 139.68818392,
        "id": "6f222cd4-2441-4ef9-8001-94b393156a82"
    },
    {
        "name": "久伊豆神社",
        "prefectureName": "埼玉県",
        "cityName": "さいたま市岩槻区",
        "streetName": "大字南下新井９５３番地",
        "latitude": 35.93175515,
        "longitude": 139.72130494,
        "id": "52860a61-2198-4293-bb4e-2cc34df43199"
    },
    {
        "name": "久伊豆神社",
        "prefectureName": "埼玉県",
        "cityName": "白岡市",
        "streetName": "実ケ谷５５３番地１",
        "latitude": 36.00633507,
        "longitude": 139.68019978,
        "id": "d3a9cd35-5609-449b-b774-5e4b4cf9be88"
    },
    {
        "name": "久伊豆神社",
        "prefectureName": "埼玉県",
        "cityName": "越谷市",
        "streetName": "蒲生１丁目７１２番地",
        "latitude": 35.86723723,
        "longitude": 139.80545095,
        "id": "cfc22ca1-4dcb-4b2b-bae2-c1db532261c4"
    },
    {
        "name": "久伊豆神社",
        "prefectureName": "埼玉県",
        "cityName": "行田市",
        "streetName": "大字野６４７番地",
        "latitude": 36.09976085,
        "longitude": 139.4926603,
        "id": "169e6389-eac7-4332-b477-e279b111ad62"
    },
    {
        "name": "久伊豆神社",
        "prefectureName": "埼玉県",
        "cityName": "さいたま市岩槻区",
        "streetName": "宮町２丁目６番５５号",
        "latitude": 35.95920964,
        "longitude": 139.70283127,
        "id": "2f85c4ba-7c22-4568-b625-8c2190ba04ca"
    },
    {
        "name": "久伊豆神社",
        "prefectureName": "埼玉県",
        "cityName": "さいたま市岩槻区",
        "streetName": "大字村国６０６番地",
        "latitude": 35.94153389,
        "longitude": 139.72392661,
        "id": "7bafcc8f-93c9-45e6-bcd5-b356dd837536"
    },
    {
        "name": "久伊豆神社",
        "prefectureName": "埼玉県",
        "cityName": "草加市",
        "streetName": "青柳４丁目２０番１号",
        "latitude": 35.85374194,
        "longitude": 139.8188445,
        "id": "0974e4ff-e339-4da6-8595-845422659ef1"
    },
    {
        "name": "久伊豆神社",
        "prefectureName": "埼玉県",
        "cityName": "越谷市",
        "streetName": "大字砂原１４５５番地",
        "latitude": 35.91586482,
        "longitude": 139.76345452,
        "id": "599e6279-137d-43ac-89bf-af61c1081a04"
    },
    {
        "name": "久伊豆神社",
        "prefectureName": "埼玉県",
        "cityName": "さいたま市岩槻区",
        "streetName": "加倉４丁目１９番３７号",
        "latitude": 35.9429779,
        "longitude": 139.68914716,
        "id": "238f1947-30f4-4042-9b51-360b5d73715e"
    },
    {
        "name": "久伊豆神社",
        "prefectureName": "埼玉県",
        "cityName": "蓮田市",
        "streetName": "大字閏戸３２９２番地",
        "latitude": 36.00608751,
        "longitude": 139.63793235,
        "id": "a5439bb7-6092-4ca6-adc3-eec375940d8c"
    },
    {
        "name": "久伊豆神社",
        "prefectureName": "埼玉県",
        "cityName": "白岡市",
        "streetName": "篠津１７９８番地",
        "latitude": 36.02865488,
        "longitude": 139.65526239,
        "id": "64916169-2fc7-4b80-9974-afd33d77cd68"
    },
    {
        "name": "久伊豆神社",
        "prefectureName": "埼玉県",
        "cityName": "越谷市",
        "streetName": "大字小曽川４３４番地",
        "latitude": 35.92093506,
        "longitude": 139.74995804,
        "id": "76aed07b-893b-486d-b514-61f964d98b11"
    },
    {
        "name": "久伊豆神社",
        "prefectureName": "埼玉県",
        "cityName": "久喜市",
        "streetName": "北青柳１５２３番地",
        "latitude": 36.05314844,
        "longitude": 139.66446322,
        "id": "4de0d62e-c00c-458d-b071-edf82926b70e"
    },
    {
        "name": "久伊豆神社",
        "prefectureName": "埼玉県",
        "cityName": "久喜市",
        "streetName": "菖蒲町台８５５番地の１",
        "latitude": 36.05457068,
        "longitude": 139.62162513,
        "id": "db12c31d-6611-47fd-996b-211897230366"
    },
    {
        "name": "久伊豆神社",
        "prefectureName": "埼玉県",
        "cityName": "八潮市",
        "streetName": "大字鶴ケ曽根１９４１番地",
        "latitude": 35.83356458,
        "longitude": 139.84051842,
        "id": "545f183b-03a2-40ca-9a3b-870840498eed"
    },
    {
        "name": "久伊豆神社",
        "prefectureName": "埼玉県",
        "cityName": "越谷市",
        "streetName": "大字野島２６１番地",
        "latitude": 35.92437279,
        "longitude": 139.74637463,
        "id": "a698600d-2925-4eb7-aa49-36cfa67c9f16"
    },
    {
        "name": "久伊豆神社",
        "prefectureName": "埼玉県",
        "cityName": "さいたま市岩槻区",
        "streetName": "大字真福寺４１４番地",
        "latitude": 35.93549338,
        "longitude": 139.70637332,
        "id": "8739123e-0cfc-46d5-bc42-6855ee84a29c"
    },
    {
        "name": "久伊豆神社",
        "prefectureName": "埼玉県",
        "cityName": "蓮田市",
        "streetName": "大字井沼７５９番地",
        "latitude": 36.02655227,
        "longitude": 139.62735952,
        "id": "725ca082-9058-4bd1-b9cc-8393c4ae069c"
    },
    {
        "name": "久伊豆神社",
        "prefectureName": "埼玉県",
        "cityName": "久喜市",
        "streetName": "除堀４７４番地",
        "latitude": 36.0490856,
        "longitude": 139.63210194,
        "id": "c24213be-35c7-4691-835b-f686fe2cda8b"
    },
    {
        "name": "久伊豆神社",
        "prefectureName": "埼玉県",
        "cityName": "久喜市",
        "streetName": "菖蒲町新堀２３４６番地",
        "latitude": 36.06510746,
        "longitude": 139.6027796,
        "id": "c35fd714-44c1-4f65-87e6-388c66855e62"
    },
    {
        "name": "久伊豆神社",
        "prefectureName": "埼玉県",
        "cityName": "八潮市",
        "streetName": "大字鶴ケ曽根１８２１番地",
        "latitude": 35.828832,
        "longitude": 139.84196845,
        "id": "e7a869c9-5a2b-4ef0-abdf-333e4642336d"
    },
    {
        "name": "久伊豆神社",
        "prefectureName": "埼玉県",
        "cityName": "越谷市",
        "streetName": "大成町１丁目２１５９番地",
        "latitude": 35.89190625,
        "longitude": 139.81599342,
        "id": "98eebdfa-cc63-4a93-a206-b79ad8d03abb"
    },
    {
        "name": "久伊豆神社",
        "prefectureName": "埼玉県",
        "cityName": "越谷市",
        "streetName": "川柳町２丁目１９６番地１",
        "latitude": 35.87007303,
        "longitude": 139.81240865,
        "id": "8a9e5ba8-21db-4046-bb56-3312f9de1924"
    },
    {
        "name": "久伊豆神社",
        "prefectureName": "埼玉県",
        "cityName": "蓮田市",
        "streetName": "大字駒崎２７１番地",
        "latitude": 36.01728599,
        "longitude": 139.62189206,
        "id": "5ccbdcbc-bab3-4e7d-8dbd-3a5e6396de07"
    },
    {
        "name": "久伊豆神社",
        "prefectureName": "埼玉県",
        "cityName": "久喜市",
        "streetName": "菖蒲町新堀６００番地",
        "latitude": 36.06500457,
        "longitude": 139.59643311,
        "id": "6ef42074-36de-4d8b-b33d-1a19a0f93510"
    },
    {
        "name": "久伊豆神社",
        "prefectureName": "埼玉県",
        "cityName": "越谷市",
        "streetName": "越ヶ谷１７００番地",
        "latitude": 35.90178182,
        "longitude": 139.79051691,
        "id": "9a2ef5cc-7bfe-40ee-a36d-57b6fc499be2"
    },
    {
        "name": "久伊豆神社",
        "prefectureName": "埼玉県",
        "cityName": "さいたま市岩槻区",
        "streetName": "大字柏崎７７１番地",
        "latitude": 35.93288234,
        "longitude": 139.69962424,
        "id": "c5613dd5-1989-42b3-8ae7-300d5fac6c9d"
    },
    {
        "name": "久伊豆神社",
        "prefectureName": "埼玉県",
        "cityName": "さいたま市岩槻区",
        "streetName": "大字箕輪６３番地",
        "latitude": 35.96021991,
        "longitude": 139.68069167,
        "id": "6e5cb8ed-177e-419b-bc39-24a76422dece"
    },
    {
        "name": "久伊豆神社",
        "prefectureName": "埼玉県",
        "cityName": "久喜市",
        "streetName": "江面１３４５番地",
        "latitude": 36.05741764,
        "longitude": 139.6536862,
        "id": "f356d30e-9613-4bb8-b368-a198ea569499"
    },
    {
        "name": "久伊豆神社",
        "prefectureName": "埼玉県",
        "cityName": "越谷市",
        "streetName": "大字袋山３４１番地",
        "latitude": 35.9274534,
        "longitude": 139.77471676,
        "id": "33797454-28a5-4e8a-866b-4cb8edd9c5d0"
    },
    {
        "name": "久伊豆神社",
        "prefectureName": "埼玉県",
        "cityName": "行田市",
        "streetName": "大字真名板１３１２番地",
        "latitude": 36.13509623,
        "longitude": 139.52312156,
        "id": "49e0b212-6b70-49d5-bbbb-4f989f45881a"
    },
    {
        "name": "久伊豆神社",
        "prefectureName": "埼玉県",
        "cityName": "蓮田市",
        "streetName": "大字江ケ崎１２０２番地",
        "latitude": 35.99200337,
        "longitude": 139.68649403,
        "id": "e2e145a6-c09e-416c-b1a2-3111ebf858ba"
    },
    {
        "name": "久伊豆神社",
        "prefectureName": "埼玉県",
        "cityName": "蓮田市",
        "streetName": "東３丁目９番１０号",
        "latitude": 35.98168594,
        "longitude": 139.65502649,
        "id": "29597ff7-b894-48e0-adb3-5125ff963e25"
    },
    {
        "name": "久伊豆神社",
        "prefectureName": "埼玉県",
        "cityName": "久喜市",
        "streetName": "北中曽根１４９７番地",
        "latitude": 36.07698671,
        "longitude": 139.63136498,
        "id": "f2c9edbd-00f5-495b-b742-27eabba29b79"
    },
    {
        "name": "久伊豆神社",
        "prefectureName": "埼玉県",
        "cityName": "白岡市",
        "streetName": "野牛６５２番地",
        "latitude": 36.0406057,
        "longitude": 139.66999125,
        "id": "70aa29c7-f18b-4bc9-bb17-59169eff15e7"
    },
    {
        "name": "久伊豆神社",
        "prefectureName": "埼玉県",
        "cityName": "鴻巣市",
        "streetName": "屈巣２３１２番地１",
        "latitude": 36.08606031,
        "longitude": 139.50789539,
        "id": "958b7ae3-d3de-40c6-bd84-caff2b132836"
    },
    {
        "name": "久伊豆神社",
        "prefectureName": "埼玉県",
        "cityName": "行田市",
        "streetName": "大字小見９３５番地",
        "latitude": 36.16192757,
        "longitude": 139.47759184,
        "id": "f977578a-43fb-4aeb-9dc9-242ad6c8ffe1"
    },
    {
        "name": "久伊豆神社",
        "prefectureName": "埼玉県",
        "cityName": "蓮田市",
        "streetName": "大字黒浜１３４６番地",
        "latitude": 35.9943066,
        "longitude": 139.6621051,
        "id": "1f500425-f713-4ced-8bec-a4831dc4b44a"
    },
    {
        "name": "久伊豆神社",
        "prefectureName": "埼玉県",
        "cityName": "さいたま市岩槻区",
        "streetName": "大字黒谷１８５１番地",
        "latitude": 35.92468396,
        "longitude": 139.72497699,
        "id": "136b269c-c650-47d5-95d3-1551c0e07bc6"
    },
    {
        "name": "久伊豆神社",
        "prefectureName": "埼玉県",
        "cityName": "加須市",
        "streetName": "外田ケ谷７４４番地１",
        "latitude": 36.11917096,
        "longitude": 139.53318769,
        "id": "cf1dd638-c661-4d4c-9083-ac8a881642eb"
    },
    {
        "name": "久伊豆神社",
        "prefectureName": "埼玉県",
        "cityName": "鴻巣市",
        "streetName": "北根１２８２番地",
        "latitude": 36.11392452,
        "longitude": 139.52092486,
        "id": "f746864a-fc6e-4b87-93dc-a1b21c21e937"
    },
    {
        "name": "久伊豆神社",
        "prefectureName": "埼玉県",
        "cityName": "行田市",
        "streetName": "桜町２丁目２０番３５号",
        "latitude": 36.14897571,
        "longitude": 139.46802694,
        "id": "b2534ba6-38b9-4713-976e-7905d08fc681"
    },
    {
        "name": "久保島大神社",
        "prefectureName": "埼玉県",
        "cityName": "熊谷市",
        "streetName": "久保島４７１番地",
        "latitude": 36.16242059,
        "longitude": 139.34169941,
        "id": "18a47652-b882-49a4-b593-15620eb1b95a"
    },
    {
        "name": "久保稲荷神社",
        "prefectureName": "埼玉県",
        "cityName": "入間市",
        "streetName": "久保稲荷４丁目３番地２３",
        "latitude": 35.82631367,
        "longitude": 139.39300975,
        "id": "1f6db857-23cb-41a0-aef5-e4e1e5f98625"
    },
    {
        "name": "久米田神社",
        "prefectureName": "埼玉県",
        "cityName": "比企郡吉見町",
        "streetName": "大字久米田１３２番地",
        "latitude": 36.03685573,
        "longitude": 139.44405066,
        "id": "18bc60c7-1f1a-4e71-b196-a4977233a7f4"
    },
    {
        "name": "九万八千神社",
        "prefectureName": "埼玉県",
        "cityName": "日高市",
        "streetName": "大字高麗本郷２５２番地",
        "latitude": 35.88716446,
        "longitude": 139.30963952,
        "id": "d4c8fb19-1b8f-4932-b9bc-3bba21acd6a8"
    },
    {
        "name": "九重神社",
        "prefectureName": "埼玉県",
        "cityName": "川口市",
        "streetName": "大字安行原２０４２番地",
        "latitude": 35.84044175,
        "longitude": 139.76704961,
        "id": "4d3fed3c-9637-42c6-b006-d0fbc0f25ee1"
    },
    {
        "name": "亀井神社",
        "prefectureName": "埼玉県",
        "cityName": "狭山市",
        "streetName": "大字下奥富１４６５番地",
        "latitude": 35.88589304,
        "longitude": 139.42706579,
        "id": "215c4d25-01d9-496e-911e-673aa703e8b3"
    },
    {
        "name": "亀谷神社",
        "prefectureName": "埼玉県",
        "cityName": "所沢市",
        "streetName": "東所沢３丁目３３番８",
        "latitude": 35.80481918,
        "longitude": 139.51674205,
        "id": "371cb28e-85d0-4501-9cd2-b787d5b363bf"
    },
    {
        "name": "二ノ宮神社",
        "prefectureName": "埼玉県",
        "cityName": "春日部市",
        "streetName": "花積１２８番地",
        "latitude": 35.96611441,
        "longitude": 139.71559373,
        "id": "b00ee5b7-9953-4330-aa1d-873cfe371598"
    },
    {
        "name": "二宮神社",
        "prefectureName": "埼玉県",
        "cityName": "川口市",
        "streetName": "大字西立野１１１０番地",
        "latitude": 35.86137172,
        "longitude": 139.74112613,
        "id": "f0ee38c8-94aa-4f7c-9b41-7c0d263fbff2"
    },
    {
        "name": "二本木神社",
        "prefectureName": "埼玉県",
        "cityName": "入間市",
        "streetName": "大字二本木２３０番地",
        "latitude": 35.79820508,
        "longitude": 139.35933004,
        "id": "670b3fc9-58b4-4d8c-8f17-a8a0c4adc2ef"
    },
    {
        "name": "二柱大神社",
        "prefectureName": "埼玉県",
        "cityName": "深谷市",
        "streetName": "榛沢新田１００３番地",
        "latitude": 36.20797717,
        "longitude": 139.21738755,
        "id": "fb8cdafc-8aa8-40cf-81ad-b8baf59719c1"
    },
    {
        "name": "二柱神社",
        "prefectureName": "埼玉県",
        "cityName": "深谷市",
        "streetName": "上手計２１６番地",
        "latitude": 36.2308427,
        "longitude": 139.26006698,
        "id": "8ed27d64-c78d-41fd-bede-4e5dbf246eb1"
    },
    {
        "name": "二柱神社",
        "prefectureName": "埼玉県",
        "cityName": "本庄市",
        "streetName": "下野堂１丁目２１番２号",
        "latitude": 36.25071611,
        "longitude": 139.16652615,
        "id": "3a7de73e-9762-4aa4-976c-b115feb95f9e"
    },
    {
        "name": "二霊神社",
        "prefectureName": "埼玉県",
        "cityName": "春日部市",
        "streetName": "赤崎２４９番地",
        "latitude": 35.975201,
        "longitude": 139.7523035,
        "id": "835ac355-0fda-41d2-90cf-cad53ca11f8a"
    },
    {
        "name": "五所神社",
        "prefectureName": "埼玉県",
        "cityName": "行田市",
        "streetName": "大字白川戸４９６番地",
        "latitude": 36.16088283,
        "longitude": 139.46905393,
        "id": "e051ac08-2cf8-443e-8061-697c7d71ef4c"
    },
    {
        "name": "五所神社",
        "prefectureName": "埼玉県",
        "cityName": "秩父市",
        "streetName": "伊古田６００番地",
        "latitude": 36.04005725,
        "longitude": 139.05752977,
        "id": "f7d87311-3b02-4199-b7bd-932c4ec01a99"
    },
    {
        "name": "五社神社",
        "prefectureName": "埼玉県",
        "cityName": "南埼玉郡宮代町",
        "streetName": "字東９０番地",
        "latitude": 36.00133918,
        "longitude": 139.73134875,
        "id": "55b104f9-0331-41b8-a669-a5948120079d"
    },
    {
        "name": "五社稲荷神社",
        "prefectureName": "埼玉県",
        "cityName": "越谷市",
        "streetName": "大字南荻島３３１４番地",
        "latitude": 35.8912306,
        "longitude": 139.7907373,
        "id": "f6382334-bebe-4e55-9194-0734d34500e7"
    },
    {
        "name": "井上神社",
        "prefectureName": "埼玉県",
        "cityName": "飯能市",
        "streetName": "大字井上３４９番地",
        "latitude": 35.90317784,
        "longitude": 139.24269999,
        "id": "7dd50c67-6e8c-4488-8cd2-ef38cca07659"
    },
    {
        "name": "井椋神社",
        "prefectureName": "埼玉県",
        "cityName": "深谷市",
        "streetName": "畠山９４２番地",
        "latitude": 36.13278067,
        "longitude": 139.26995103,
        "id": "65d71c56-8117-4c55-828c-3d5d832431da"
    },
    {
        "name": "今城青坂稲実池上神社",
        "prefectureName": "埼玉県",
        "cityName": "児玉郡神川町",
        "streetName": "大字関口３８番地",
        "latitude": 36.22146653,
        "longitude": 139.09985022,
        "id": "eed4d332-a8c3-427e-8eb4-2af6048d28d1"
    },
    {
        "name": "今宮神社",
        "prefectureName": "埼玉県",
        "cityName": "秩父市",
        "streetName": "中町１６番１０号",
        "latitude": 35.99492364,
        "longitude": 139.08018034,
        "id": "74ba35b8-41a4-4453-b6b3-0ceba7198769"
    },
    {
        "name": "今宮神社",
        "prefectureName": "埼玉県",
        "cityName": "比企郡ときがわ町",
        "streetName": "大字玉川１１０７番地",
        "latitude": 36.0080394,
        "longitude": 139.30411799,
        "id": "018a6bc5-f663-4b4a-b76c-324728627395"
    },
    {
        "name": "伊勢之宮神社",
        "prefectureName": "埼玉県",
        "cityName": "深谷市",
        "streetName": "西大沼３００番地",
        "latitude": 36.20138725,
        "longitude": 139.27268303,
        "id": "f708e461-a94f-4ffe-8173-ceac333df82b"
    },
    {
        "name": "伊勢大神社",
        "prefectureName": "埼玉県",
        "cityName": "深谷市",
        "streetName": "横瀬３３７番地",
        "latitude": 36.24244973,
        "longitude": 139.25100331,
        "id": "bed83789-7df8-4757-a38f-ddf47fa7cdea"
    },
    {
        "name": "伊勢殿神社",
        "prefectureName": "埼玉県",
        "cityName": "深谷市",
        "streetName": "深谷３９番地の１",
        "latitude": 36.20110699,
        "longitude": 139.2866155,
        "id": "ce34431a-6771-4cb2-85bf-c959709d27c3"
    },
    {
        "name": "伊南理神社",
        "prefectureName": "埼玉県",
        "cityName": "越谷市",
        "streetName": "東町５丁目２５１番地",
        "latitude": 35.87228965,
        "longitude": 139.8350262,
        "id": "4ffd70a1-905e-4e01-bbf4-b2cd5f5c0a4c"
    },
    {
        "name": "伊古乃速御玉姫神社",
        "prefectureName": "埼玉県",
        "cityName": "比企郡滑川町",
        "streetName": "大字伊古１２４２番地",
        "latitude": 36.07419067,
        "longitude": 139.33969779,
        "id": "d2db3754-a426-4ddc-89eb-fd367428bc68"
    },
    {
        "name": "伊夜彦神社",
        "prefectureName": "埼玉県",
        "cityName": "蓮田市",
        "streetName": "大字閏戸９９番地",
        "latitude": 35.99427813,
        "longitude": 139.64644859,
        "id": "768f2d31-b91d-480f-bc91-09dda3d10c48"
    },
    {
        "name": "伊奈利大神社",
        "prefectureName": "埼玉県",
        "cityName": "深谷市",
        "streetName": "山河６３６番地１",
        "latitude": 36.1942844,
        "longitude": 139.23285803,
        "id": "68884190-7e4e-4db3-a7dd-3748504df7c3"
    },
    {
        "name": "伊奈利神社",
        "prefectureName": "埼玉県",
        "cityName": "加須市",
        "streetName": "道目１９２７番地",
        "latitude": 36.1314375,
        "longitude": 139.601722,
        "id": "7588e5da-f129-489c-a84f-03eadb9b6fc4"
    },
    {
        "name": "伊奈利神社",
        "prefectureName": "埼玉県",
        "cityName": "熊谷市",
        "streetName": "原島１３３１番地",
        "latitude": 36.16286061,
        "longitude": 139.36929471,
        "id": "67087c2b-dd7a-416e-a26a-c16186450f9c"
    },
    {
        "name": "伊奈利神社",
        "prefectureName": "埼玉県",
        "cityName": "熊谷市",
        "streetName": "俵瀬４８９番地",
        "latitude": 36.20026564,
        "longitude": 139.43084453,
        "id": "63cac868-eaa6-49db-9a86-3b56a0022b71"
    },
    {
        "name": "伊奈利神社",
        "prefectureName": "埼玉県",
        "cityName": "熊谷市",
        "streetName": "肥塚１７６１番地３",
        "latitude": 36.1473119,
        "longitude": 139.3886432,
        "id": "982b7112-9d2f-4e14-8b53-edab4ee90db3"
    },
    {
        "name": "伊奈利神社",
        "prefectureName": "埼玉県",
        "cityName": "熊谷市",
        "streetName": "大野７５１番地",
        "latitude": 36.21775168,
        "longitude": 139.40808218,
        "id": "583649aa-a325-47b9-a895-e119857810c2"
    },
    {
        "name": "伊奈利神社",
        "prefectureName": "埼玉県",
        "cityName": "加須市",
        "streetName": "大越６５０番地",
        "latitude": 36.18908332,
        "longitude": 139.610575,
        "id": "0df4e84d-6712-46de-a554-1571afb28bab"
    },
    {
        "name": "伊奈利神社",
        "prefectureName": "埼玉県",
        "cityName": "行田市",
        "streetName": "大字利田５８７番地",
        "latitude": 36.11246412,
        "longitude": 139.4817442,
        "id": "41075d3e-b7ff-409c-b463-98764bcf5bd8"
    },
    {
        "name": "伊奈利神社",
        "prefectureName": "埼玉県",
        "cityName": "熊谷市",
        "streetName": "出来島１０番地",
        "latitude": 36.23953228,
        "longitude": 139.34921938,
        "id": "db877493-4bc3-4d2f-93ae-12189123f010"
    },
    {
        "name": "伊奈利神社",
        "prefectureName": "埼玉県",
        "cityName": "加須市",
        "streetName": "大越２８２７番地",
        "latitude": 36.17823251,
        "longitude": 139.62839055,
        "id": "e1e36198-25aa-4ac8-b253-4bb1f9b52782"
    },
    {
        "name": "伊奈利神社",
        "prefectureName": "埼玉県",
        "cityName": "鴻巣市",
        "streetName": "榎戸１丁目１番２７号",
        "latitude": 36.10579655,
        "longitude": 139.44372633,
        "id": "059d14d3-9177-4660-beeb-72b5c8887472"
    },
    {
        "name": "伊奈利神社",
        "prefectureName": "埼玉県",
        "cityName": "羽生市",
        "streetName": "大字中岩瀬７５０番地",
        "latitude": 36.1726285,
        "longitude": 139.5484642,
        "id": "c8558512-211b-4ded-8596-5922abdd90eb"
    },
    {
        "name": "伊奈利神社",
        "prefectureName": "埼玉県",
        "cityName": "熊谷市",
        "streetName": "銀座３丁目４６番地",
        "latitude": 36.1402038,
        "longitude": 139.39713958,
        "id": "eecb4688-a220-4b49-95c7-10af2659ccc7"
    },
    {
        "name": "伊奈利神社",
        "prefectureName": "埼玉県",
        "cityName": "熊谷市",
        "streetName": "仲町４３番地",
        "latitude": 36.14625924,
        "longitude": 139.38349126,
        "id": "e7039dd8-ab31-4958-885b-0919c6ee7302"
    },
    {
        "name": "伊弉諾神社",
        "prefectureName": "埼玉県",
        "cityName": "熊谷市",
        "streetName": "上川上３３番地１",
        "latitude": 36.1473119,
        "longitude": 139.3886432,
        "id": "f4681610-6d9d-4a85-b940-5e52d1479795"
    },
    {
        "name": "伊波比神社",
        "prefectureName": "埼玉県",
        "cityName": "比企郡吉見町",
        "streetName": "大字黒岩３４７番地",
        "latitude": 36.05446473,
        "longitude": 139.44273405,
        "id": "c9978888-82eb-451a-9f5f-faaa25217197"
    },
    {
        "name": "伊草神社",
        "prefectureName": "埼玉県",
        "cityName": "比企郡川島町",
        "streetName": "大字伊草１８２番地",
        "latitude": 35.96711445,
        "longitude": 139.46492228,
        "id": "b9ad6980-5d4a-4910-b038-330d93412d0e"
    },
    {
        "name": "住吉四所神社",
        "prefectureName": "埼玉県",
        "cityName": "入間郡毛呂山町",
        "streetName": "大字葛貫７３５番地１",
        "latitude": 35.92751292,
        "longitude": 139.31597011,
        "id": "349a8ac5-200c-474c-92e9-1a3a5a1b4204"
    },
    {
        "name": "住吉神社",
        "prefectureName": "埼玉県",
        "cityName": "白岡市",
        "streetName": "下大崎１３４０番地",
        "latitude": 36.03966479,
        "longitude": 139.63291027,
        "id": "1e071e5c-e8fd-4464-8fc5-fcd8b10ef339"
    },
    {
        "name": "住吉神社",
        "prefectureName": "埼玉県",
        "cityName": "羽生市",
        "streetName": "大字上新郷３８４２番地",
        "latitude": 36.1726285,
        "longitude": 139.5484642,
        "id": "82b2d298-5e4d-40a5-8a85-b5f7f36be10e"
    },
    {
        "name": "住吉神社",
        "prefectureName": "埼玉県",
        "cityName": "春日部市",
        "streetName": "花積１６４番地１",
        "latitude": 35.96359801,
        "longitude": 139.71674644,
        "id": "763f3a08-7702-41ba-9e2a-9804622de865"
    },
    {
        "name": "住吉神社",
        "prefectureName": "埼玉県",
        "cityName": "久喜市",
        "streetName": "六万部９９２番地",
        "latitude": 36.0621168,
        "longitude": 139.666607,
        "id": "40767b99-155e-4072-924f-5b5861a99665"
    },
    {
        "name": "住吉神社",
        "prefectureName": "埼玉県",
        "cityName": "入間郡越生町",
        "streetName": "大字麦原３８３番地",
        "latitude": 35.9702341,
        "longitude": 139.24500583,
        "id": "20697221-566b-4287-93c1-7d3474a92b6d"
    },
    {
        "name": "住吉神社",
        "prefectureName": "埼玉県",
        "cityName": "入間郡毛呂山町",
        "streetName": "大字滝ノ入１６８０番地２",
        "latitude": 35.9415524,
        "longitude": 139.3159952,
        "id": "2031e661-9db5-4e92-989a-aa22f50917d5"
    },
    {
        "name": "住吉神社",
        "prefectureName": "埼玉県",
        "cityName": "深谷市",
        "streetName": "宮ケ谷戸１８１番地",
        "latitude": 36.20504905,
        "longitude": 139.31596564,
        "id": "4f31c208-4e94-409a-ac18-f9658ea590ce"
    },
    {
        "name": "佐太彦神社",
        "prefectureName": "埼玉県",
        "cityName": "大里郡寄居町",
        "streetName": "大字折原６１５番地",
        "latitude": 36.11341545,
        "longitude": 139.18004031,
        "id": "a65b0c35-568b-47d9-b282-98dd345ac465"
    },
    {
        "name": "佐谷田神社",
        "prefectureName": "埼玉県",
        "cityName": "熊谷市",
        "streetName": "佐谷田３１０番地",
        "latitude": 36.13521605,
        "longitude": 139.41006109,
        "id": "2f57d576-507d-40bf-83a9-94821ebd04de"
    },
    {
        "name": "倉尾神社",
        "prefectureName": "埼玉県",
        "cityName": "秩父郡小鹿野町",
        "streetName": "藤倉３１３５番地",
        "latitude": 36.0654175,
        "longitude": 138.91675161,
        "id": "8226b778-798b-4bdc-a54b-a743d2c182f2"
    },
    {
        "name": "倉常神社",
        "prefectureName": "埼玉県",
        "cityName": "春日部市",
        "streetName": "倉常１１８番地",
        "latitude": 35.975201,
        "longitude": 139.7523035,
        "id": "67c1fced-b9f9-4ccf-b640-37f79146b51d"
    },
    {
        "name": "借宿神社",
        "prefectureName": "埼玉県",
        "cityName": "飯能市",
        "streetName": "大字長沢６番地",
        "latitude": 35.91123383,
        "longitude": 139.23253704,
        "id": "29bd5ef0-3aac-42d1-ae4f-a9abd0b0d97a"
    },
    {
        "name": "元巢神社",
        "prefectureName": "埼玉県",
        "cityName": "比企郡吉見町",
        "streetName": "大字江綱１５０１番地",
        "latitude": 36.02344922,
        "longitude": 139.4531834,
        "id": "94928e4c-5763-48d2-ae2a-51942a94f5df"
    },
    {
        "name": "児泉神社",
        "prefectureName": "埼玉県",
        "cityName": "大里郡寄居町",
        "streetName": "大字今市６９０番地",
        "latitude": 36.10103012,
        "longitude": 139.26853348,
        "id": "fbd3f0dc-5c0c-4838-9cc0-aa3a0302fa9a"
    },
    {
        "name": "児玉神社",
        "prefectureName": "埼玉県",
        "cityName": "児玉郡美里町",
        "streetName": "大字関３７４番地",
        "latitude": 36.19386624,
        "longitude": 139.19404076,
        "id": "93aa57ed-7c4e-4695-b768-72bbb31f1cbb"
    },
    {
        "name": "入西神社",
        "prefectureName": "埼玉県",
        "cityName": "坂戸市",
        "streetName": "大字小山７２番地",
        "latitude": 35.957169,
        "longitude": 139.402906,
        "id": "18f1309c-3923-4b46-91ac-72dee5c0057d"
    },
    {
        "name": "入間野神社",
        "prefectureName": "埼玉県",
        "cityName": "狭山市",
        "streetName": "大字南入曽６４０番地の２",
        "latitude": 35.83596024,
        "longitude": 139.42728699,
        "id": "df4b4ecc-f85d-44a0-9537-518428e8f61e"
    },
    {
        "name": "八剣神社",
        "prefectureName": "埼玉県",
        "cityName": "比企郡ときがわ町",
        "streetName": "大字別所２１番地",
        "latitude": 36.00747718,
        "longitude": 139.26330741,
        "id": "4c658952-4605-44f8-a839-23edc5520d80"
    },
    {
        "name": "八剣神社",
        "prefectureName": "埼玉県",
        "cityName": "秩父郡小鹿野町",
        "streetName": "下小鹿野１３７８番地",
        "latitude": 36.0126069,
        "longitude": 139.02567723,
        "id": "a7bbd741-dce2-47df-b051-c75f1e116931"
    },
    {
        "name": "八合神社",
        "prefectureName": "埼玉県",
        "cityName": "上尾市",
        "streetName": "小泉８丁目９番地１",
        "latitude": 35.97349653,
        "longitude": 139.56385803,
        "id": "c03e5562-c96e-4770-8ceb-f430e4e7ea4c"
    },
    {
        "name": "八和田神社",
        "prefectureName": "埼玉県",
        "cityName": "比企郡小川町",
        "streetName": "大字奈良梨９２９番地",
        "latitude": 36.0566502,
        "longitude": 139.2618365,
        "id": "482ba74a-c38f-4ca8-9f00-619071b57601"
    },
    {
        "name": "八咫神社",
        "prefectureName": "埼玉県",
        "cityName": "川越市",
        "streetName": "大字上寺山４９８番地３",
        "latitude": 35.93573967,
        "longitude": 139.46586649,
        "id": "0185011d-1dec-4180-9918-a28146ebf049"
    },
    {
        "name": "八坂神社",
        "prefectureName": "埼玉県",
        "cityName": "入間市",
        "streetName": "大字仏子９３８番地２",
        "latitude": 35.83848915,
        "longitude": 139.36091511,
        "id": "200d4634-b26b-4dec-a596-3738f7ea6c74"
    },
    {
        "name": "八坂神社",
        "prefectureName": "埼玉県",
        "cityName": "加須市",
        "streetName": "麦倉２５５１番地",
        "latitude": 36.18137164,
        "longitude": 139.65001885,
        "id": "48514461-9ff0-4b16-93e2-f60c952beeec"
    },
    {
        "name": "八坂神社",
        "prefectureName": "埼玉県",
        "cityName": "加須市",
        "streetName": "大越７６１番地",
        "latitude": 36.18426183,
        "longitude": 139.61391658,
        "id": "19637853-a797-48aa-8b1b-5317372c423c"
    },
    {
        "name": "八坂神社",
        "prefectureName": "埼玉県",
        "cityName": "北葛飾郡杉戸町",
        "streetName": "大字大塚９７１番地",
        "latitude": 36.01528874,
        "longitude": 139.78127817,
        "id": "bfd13ed4-8ebc-4a6a-a886-961af804bb3a"
    },
    {
        "name": "八坂神社",
        "prefectureName": "埼玉県",
        "cityName": "熊谷市",
        "streetName": "原島２６２番地",
        "latitude": 36.16724057,
        "longitude": 139.3675696,
        "id": "6f1c6fb9-9943-412c-af6a-7881f5b9958d"
    },
    {
        "name": "八坂神社",
        "prefectureName": "埼玉県",
        "cityName": "秩父市",
        "streetName": "上吉田２８６５番地",
        "latitude": 36.04845199,
        "longitude": 138.9845107,
        "id": "9758c40c-b8d3-413f-9d03-84276e99831b"
    },
    {
        "name": "八坂神社",
        "prefectureName": "埼玉県",
        "cityName": "入間市",
        "streetName": "大字新久９４８番地",
        "latitude": 35.835943,
        "longitude": 139.3911236,
        "id": "21e14b16-0a5a-44b4-ad56-df478ee1e2bc"
    },
    {
        "name": "八坂神社",
        "prefectureName": "埼玉県",
        "cityName": "久喜市",
        "streetName": "栗橋北２丁目１５番１号",
        "latitude": 36.14295269,
        "longitude": 139.70110971,
        "id": "a1693464-9d7d-42a5-af81-6e892c919503"
    },
    {
        "name": "八坂神社",
        "prefectureName": "埼玉県",
        "cityName": "加須市",
        "streetName": "大越１９９１番地",
        "latitude": 36.1815374,
        "longitude": 139.62097722,
        "id": "c9f57bd7-d7a5-41a4-b55e-95b23d9e49bc"
    },
    {
        "name": "八坂神社",
        "prefectureName": "埼玉県",
        "cityName": "坂戸市",
        "streetName": "大字赤尾１６４５番地",
        "latitude": 35.957169,
        "longitude": 139.402906,
        "id": "e858fd00-0cb5-4ebc-89f9-424a8816b5f4"
    },
    {
        "name": "八坂神社",
        "prefectureName": "埼玉県",
        "cityName": "秩父市",
        "streetName": "山田１５９番地の１",
        "latitude": 36.02367867,
        "longitude": 139.11632501,
        "id": "5533d8e0-98f7-4e35-af16-a9d01ee3c732"
    },
    {
        "name": "八坂神社",
        "prefectureName": "埼玉県",
        "cityName": "秩父市",
        "streetName": "栃谷４０４番地",
        "latitude": 36.02733935,
        "longitude": 139.11971342,
        "id": "1ec080af-5ea5-4be0-968c-ae31c7e813e1"
    },
    {
        "name": "八坂神社",
        "prefectureName": "埼玉県",
        "cityName": "川越市",
        "streetName": "大字的場１８７４番地１",
        "latitude": 35.91840498,
        "longitude": 139.43847794,
        "id": "c644fcfb-512b-48b4-9f14-95a5bc1a8a5e"
    },
    {
        "name": "八坂神社",
        "prefectureName": "埼玉県",
        "cityName": "越谷市",
        "streetName": "大成町１丁目７１番地",
        "latitude": 35.89204795,
        "longitude": 139.8177516,
        "id": "efcee833-ef40-4dd2-956b-6847c5d1f051"
    },
    {
        "name": "八坂神社",
        "prefectureName": "埼玉県",
        "cityName": "比企郡吉見町",
        "streetName": "大字北吉見１６４０番地",
        "latitude": 36.04869563,
        "longitude": 139.42775505,
        "id": "5ba93c5b-6bd1-4381-9bd9-9405c8f250ff"
    },
    {
        "name": "八坂神社",
        "prefectureName": "埼玉県",
        "cityName": "日高市",
        "streetName": "大字梅原３４５番地",
        "latitude": 35.9077703,
        "longitude": 139.3390434,
        "id": "7ea2f2b3-0ea8-4ccf-909d-9da480c339f5"
    },
    {
        "name": "八坂神社",
        "prefectureName": "埼玉県",
        "cityName": "加須市",
        "streetName": "細間１１１番地",
        "latitude": 36.1314375,
        "longitude": 139.601722,
        "id": "22770779-9480-420b-9a74-6291468d6b5b"
    },
    {
        "name": "八坂神社",
        "prefectureName": "埼玉県",
        "cityName": "比企郡小川町",
        "streetName": "大字下里２３４８番地",
        "latitude": 36.0566502,
        "longitude": 139.2618365,
        "id": "bbbed829-9eb9-4e61-bed7-12d35981229f"
    },
    {
        "name": "八坂神社",
        "prefectureName": "埼玉県",
        "cityName": "飯能市",
        "streetName": "大字下川崎６０番地甲",
        "latitude": 35.87896504,
        "longitude": 139.36531293,
        "id": "5c3c1e2d-557c-40ac-a3a3-3f799bee6e35"
    },
    {
        "name": "八坂神社",
        "prefectureName": "埼玉県",
        "cityName": "草加市",
        "streetName": "柿木町１６３０番地",
        "latitude": 35.8255741,
        "longitude": 139.8051213,
        "id": "9b0bc428-6ed5-41b0-b57a-56410018c7d1"
    },
    {
        "name": "八坂神社",
        "prefectureName": "埼玉県",
        "cityName": "飯能市",
        "streetName": "大字上赤工７０番地",
        "latitude": 35.87042582,
        "longitude": 139.23871076,
        "id": "f7bb7673-e2e4-4713-bd01-592ea0cafa33"
    },
    {
        "name": "八坂神社",
        "prefectureName": "埼玉県",
        "cityName": "草加市",
        "streetName": "青柳４丁目３５番１号",
        "latitude": 35.85138394,
        "longitude": 139.82114716,
        "id": "52a100e2-7385-441c-a018-fe28a0be5cdf"
    },
    {
        "name": "八坂神社",
        "prefectureName": "埼玉県",
        "cityName": "比企郡ときがわ町",
        "streetName": "大字本郷７１１番地",
        "latitude": 36.01053285,
        "longitude": 139.27593966,
        "id": "9ee324f3-9bf5-4938-8797-07922f5b5a21"
    },
    {
        "name": "八坂神社",
        "prefectureName": "埼玉県",
        "cityName": "深谷市",
        "streetName": "西島５丁目６番１号",
        "latitude": 36.19055226,
        "longitude": 139.27966633,
        "id": "7bd3001f-5404-4b1e-8b3a-02507bb660f1"
    },
    {
        "name": "八坂神社",
        "prefectureName": "埼玉県",
        "cityName": "飯能市",
        "streetName": "大字下直竹１７５番地",
        "latitude": 35.84181723,
        "longitude": 139.27400617,
        "id": "c8b536d8-2357-4e9f-9469-6319cfc3e5cf"
    },
    {
        "name": "八坂神社",
        "prefectureName": "埼玉県",
        "cityName": "春日部市",
        "streetName": "粕壁東４丁目１番１８号",
        "latitude": 35.9796811,
        "longitude": 139.76291908,
        "id": "c921e716-028b-42fa-952e-9e05bca56f63"
    },
    {
        "name": "八坂神社",
        "prefectureName": "埼玉県",
        "cityName": "行田市",
        "streetName": "大字下須戸２８４０番地",
        "latitude": 36.1388956,
        "longitude": 139.4557344,
        "id": "3df80d5a-709a-4af6-a21b-0319520f1a88"
    },
    {
        "name": "八坂神社",
        "prefectureName": "埼玉県",
        "cityName": "入間郡毛呂山町",
        "streetName": "大字西大久保１４６番地",
        "latitude": 35.9415524,
        "longitude": 139.3159952,
        "id": "4c9eb125-c42b-43aa-a871-64b85e372fd6"
    },
    {
        "name": "八坂神社",
        "prefectureName": "埼玉県",
        "cityName": "比企郡鳩山町",
        "streetName": "大字今宿５０３番地２",
        "latitude": 35.96850269,
        "longitude": 139.34121144,
        "id": "3f0479cc-1d57-431e-9304-5c42cfe54a5f"
    },
    {
        "name": "八坂神社",
        "prefectureName": "埼玉県",
        "cityName": "比企郡小川町",
        "streetName": "大字大塚９４番地",
        "latitude": 36.0551531,
        "longitude": 139.25902018,
        "id": "f0317e60-3af5-4d2d-81fa-073dba618ae2"
    },
    {
        "name": "八坂神社",
        "prefectureName": "埼玉県",
        "cityName": "行田市",
        "streetName": "大字和田６８０番地１",
        "latitude": 36.16429847,
        "longitude": 139.45542181,
        "id": "e3e6afab-3fd0-4d2d-b96f-2b199f8981b1"
    },
    {
        "name": "八坂神社",
        "prefectureName": "埼玉県",
        "cityName": "秩父市",
        "streetName": "下吉田３８７４番地",
        "latitude": 36.04193124,
        "longitude": 139.03597614,
        "id": "a46ca87e-3672-4fe0-b758-222be5a9f51e"
    },
    {
        "name": "八宮神社",
        "prefectureName": "埼玉県",
        "cityName": "比企郡小川町",
        "streetName": "大字小川９９１番地",
        "latitude": 36.0566502,
        "longitude": 139.2618365,
        "id": "f826eb93-e709-44a0-8fb8-f346799e79b2"
    },
    {
        "name": "八宮神社",
        "prefectureName": "埼玉県",
        "cityName": "比企郡滑川町",
        "streetName": "大字和泉１５７３番地",
        "latitude": 36.09123031,
        "longitude": 139.32583114,
        "id": "9b3ba869-e2bc-4a7b-91c4-e89e9231e85e"
    },
    {
        "name": "八宮神社",
        "prefectureName": "埼玉県",
        "cityName": "比企郡小川町",
        "streetName": "大字中爪１０３９番地",
        "latitude": 36.06432504,
        "longitude": 139.2960441,
        "id": "4475b4ad-c550-495b-a845-f8b4e37c8b43"
    },
    {
        "name": "八宮神社",
        "prefectureName": "埼玉県",
        "cityName": "比企郡嵐山町",
        "streetName": "大字杉山６７１番地",
        "latitude": 36.0665332,
        "longitude": 139.31528666,
        "id": "916aaa47-9875-4525-8145-fc75b3b8e029"
    },
    {
        "name": "八宮神社",
        "prefectureName": "埼玉県",
        "cityName": "比企郡嵐山町",
        "streetName": "大字廣野９２７番地",
        "latitude": 36.06355869,
        "longitude": 139.32278056,
        "id": "b806041d-34ce-4745-82d1-f2dda7a76c67"
    },
    {
        "name": "八宮神社",
        "prefectureName": "埼玉県",
        "cityName": "比企郡嵐山町",
        "streetName": "大字越畑１４４５番地",
        "latitude": 36.08002319,
        "longitude": 139.3077947,
        "id": "d5364efb-dfda-45dc-ac43-8a2b1bfdfe0b"
    },
    {
        "name": "八宮神社",
        "prefectureName": "埼玉県",
        "cityName": "比企郡嵐山町",
        "streetName": "大字志賀１５１２番地",
        "latitude": 36.0566402,
        "longitude": 139.3205229,
        "id": "a29910c0-5a7a-425a-bf35-dbbd7796e84c"
    },
    {
        "name": "八宮神社",
        "prefectureName": "埼玉県",
        "cityName": "比企郡小川町",
        "streetName": "大字下里９１１番地",
        "latitude": 36.04584396,
        "longitude": 139.28293512,
        "id": "9bdc7e11-c806-4c7b-bed0-5a0830fc27f1"
    },
    {
        "name": "八宮神社",
        "prefectureName": "埼玉県",
        "cityName": "比企郡小川町",
        "streetName": "大字能増２８２番地",
        "latitude": 36.0884659,
        "longitude": 139.28377705,
        "id": "5de20faf-534e-48d0-906a-15f9aa89b04b"
    },
    {
        "name": "八幡大神社",
        "prefectureName": "埼玉県",
        "cityName": "深谷市",
        "streetName": "針ヶ谷２５８番地１",
        "latitude": 36.18644579,
        "longitude": 139.22100918,
        "id": "51d6aa6f-2341-42eb-a288-9ec877b05a84"
    },
    {
        "name": "八幡大神社",
        "prefectureName": "埼玉県",
        "cityName": "秩父市",
        "streetName": "荒川贄川６８５番地",
        "latitude": 35.96375433,
        "longitude": 138.98063901,
        "id": "7b9dd142-b506-4ba5-b8f5-c0d69d2471ba"
    },
    {
        "name": "八幡大神社",
        "prefectureName": "埼玉県",
        "cityName": "大里郡寄居町",
        "streetName": "大字桜沢３８２７番地",
        "latitude": 36.12811345,
        "longitude": 139.20203702,
        "id": "a7f34ee3-4a6c-4cd0-ae25-beff3f09fa73"
    },
    {
        "name": "八幡大神社",
        "prefectureName": "埼玉県",
        "cityName": "熊谷市",
        "streetName": "上須戸８３８番地",
        "latitude": 36.20135088,
        "longitude": 139.39875899,
        "id": "f20d87a9-7165-48e4-91e8-6b894a021b71"
    },
    {
        "name": "八幡大神社",
        "prefectureName": "埼玉県",
        "cityName": "秩父郡東秩父村",
        "streetName": "大字坂本１５４１番地",
        "latitude": 36.05721394,
        "longitude": 139.17771578,
        "id": "ceb3cd65-5512-4555-91dd-c05e9a046586"
    },
    {
        "name": "八幡大神社",
        "prefectureName": "埼玉県",
        "cityName": "秩父郡皆野町",
        "streetName": "大字三沢２８４２番地",
        "latitude": 36.0708478,
        "longitude": 139.0987425,
        "id": "54822206-3af8-436e-8b75-35469878268e"
    },
    {
        "name": "八幡山神社",
        "prefectureName": "埼玉県",
        "cityName": "入間郡越生町",
        "streetName": "大字上谷５１１番地",
        "latitude": 35.98614308,
        "longitude": 139.26206144,
        "id": "a164b57a-1e30-43f2-8044-57b7130ccbe3"
    },
    {
        "name": "八幡山神社",
        "prefectureName": "埼玉県",
        "cityName": "秩父郡東秩父村",
        "streetName": "大字御堂１５３３番地",
        "latitude": 36.0580726,
        "longitude": 139.1945701,
        "id": "2f1dd897-8c89-47dc-88d0-e9447927820c"
    },
    {
        "name": "八幡浅間神社",
        "prefectureName": "埼玉県",
        "cityName": "加須市",
        "streetName": "間口４７９番地",
        "latitude": 36.12806972,
        "longitude": 139.6600553,
        "id": "1c8ad434-72c8-45e0-a3e0-92dab00d37ef"
    },
    {
        "name": "八幡神社",
        "prefectureName": "埼玉県",
        "cityName": "羽生市",
        "streetName": "大字今泉２６５番地",
        "latitude": 36.1726285,
        "longitude": 139.5484642,
        "id": "5e4153d2-3e85-4b42-b839-921282cf9146"
    },
    {
        "name": "八幡神社",
        "prefectureName": "埼玉県",
        "cityName": "加須市",
        "streetName": "阿佐間９９１番地",
        "latitude": 36.13289412,
        "longitude": 139.65816651,
        "id": "e27817dd-d831-421a-8eb5-30b70d85ae32"
    },
    {
        "name": "八幡神社",
        "prefectureName": "埼玉県",
        "cityName": "桶川市",
        "streetName": "大字川田谷１３２９番地",
        "latitude": 35.97858997,
        "longitude": 139.52994381,
        "id": "905b8dd4-b540-4a58-93d5-1ccc4dec261a"
    },
    {
        "name": "八幡神社",
        "prefectureName": "埼玉県",
        "cityName": "春日部市",
        "streetName": "永沼２２８３番地",
        "latitude": 35.97914832,
        "longitude": 139.79903563,
        "id": "9a1b17d6-bbd2-468c-8141-8b254597b171"
    },
    {
        "name": "八幡神社",
        "prefectureName": "埼玉県",
        "cityName": "ふじみ野市",
        "streetName": "駒林８９０番地のイ",
        "latitude": 35.87048089,
        "longitude": 139.53615976,
        "id": "68b2121c-b21d-4b4a-90dc-e3585fb1b68b"
    },
    {
        "name": "八幡神社",
        "prefectureName": "埼玉県",
        "cityName": "入間郡越生町",
        "streetName": "大字津久根２３番地",
        "latitude": 35.9645799,
        "longitude": 139.2940737,
        "id": "0a4656ad-64bd-40d8-8cab-088657d5df5a"
    },
    {
        "name": "八幡神社",
        "prefectureName": "埼玉県",
        "cityName": "入間郡毛呂山町",
        "streetName": "大字川角１２３３番地",
        "latitude": 35.95129868,
        "longitude": 139.33582921,
        "id": "9f642ed0-5d03-46ab-a5ce-fb3730d58e98"
    },
    {
        "name": "八幡神社",
        "prefectureName": "埼玉県",
        "cityName": "東松山市",
        "streetName": "大字宮鼻２１６番地",
        "latitude": 35.99571823,
        "longitude": 139.40765146,
        "id": "3ac7fc8f-a18a-49c1-9f0c-82724f200a4f"
    },
    {
        "name": "八幡神社",
        "prefectureName": "埼玉県",
        "cityName": "熊谷市",
        "streetName": "津田８９７番地",
        "latitude": 36.09892716,
        "longitude": 139.41817132,
        "id": "394bba2d-605d-444e-99e1-f46a52a269a4"
    },
    {
        "name": "八幡神社",
        "prefectureName": "埼玉県",
        "cityName": "深谷市",
        "streetName": "瀬山３９８番地",
        "latitude": 36.14754858,
        "longitude": 139.30900679,
        "id": "08743252-4165-4a9b-8e1d-b2e5483236ae"
    },
    {
        "name": "八幡神社",
        "prefectureName": "埼玉県",
        "cityName": "飯能市",
        "streetName": "大字岩渕７７８番地",
        "latitude": 35.8556833,
        "longitude": 139.3277754,
        "id": "1219c979-2993-4766-8c1a-c128171cbbc9"
    },
    {
        "name": "八幡神社",
        "prefectureName": "埼玉県",
        "cityName": "久喜市",
        "streetName": "所久喜１４５番地",
        "latitude": 36.0616672,
        "longitude": 139.64768661,
        "id": "38845624-fc09-48aa-9f3e-7d2f7202281f"
    },
    {
        "name": "八幡神社",
        "prefectureName": "埼玉県",
        "cityName": "羽生市",
        "streetName": "大字中手子林１０６９番地",
        "latitude": 36.1726285,
        "longitude": 139.5484642,
        "id": "0d0f308d-5790-4ae7-a858-c3b243fcb56b"
    },
    {
        "name": "八幡神社",
        "prefectureName": "埼玉県",
        "cityName": "加須市",
        "streetName": "中ノ目４４３番地１",
        "latitude": 36.1314375,
        "longitude": 139.601722,
        "id": "871bf39b-8cf6-459e-8e69-2b520db580b2"
    },
    {
        "name": "八幡神社",
        "prefectureName": "埼玉県",
        "cityName": "加須市",
        "streetName": "杓子木１４８番地",
        "latitude": 36.1314375,
        "longitude": 139.601722,
        "id": "05844b8e-67a8-4ee1-9950-c92116f1f246"
    },
    {
        "name": "八幡神社",
        "prefectureName": "埼玉県",
        "cityName": "北葛飾郡杉戸町",
        "streetName": "大字杉戸３３２７番地",
        "latitude": 36.025767,
        "longitude": 139.7367086,
        "id": "23b7629a-350b-43a9-a29c-42b6620b3e44"
    },
    {
        "name": "八幡神社",
        "prefectureName": "埼玉県",
        "cityName": "川越市",
        "streetName": "大字鴨田１０７２番地",
        "latitude": 35.9270314,
        "longitude": 139.5203566,
        "id": "539044e5-a336-45d9-b2fb-51bee7c45bae"
    },
    {
        "name": "八幡神社",
        "prefectureName": "埼玉県",
        "cityName": "鴻巣市",
        "streetName": "鎌塚２２０番地",
        "latitude": 36.066072,
        "longitude": 139.5222301,
        "id": "cf2fec8b-8fd2-409e-925e-a13929ba8b47"
    },
    {
        "name": "八幡神社",
        "prefectureName": "埼玉県",
        "cityName": "吉川市",
        "streetName": "大字八子新田１０８８番地",
        "latitude": 35.91704138,
        "longitude": 139.86505773,
        "id": "a7928f47-d3de-41ad-b82e-efb9406026ff"
    },
    {
        "name": "八幡神社",
        "prefectureName": "埼玉県",
        "cityName": "東松山市",
        "streetName": "大字上野本１８１２イの１番地",
        "latitude": 36.0421291,
        "longitude": 139.3999583,
        "id": "c60bec75-4aa7-4ac3-890e-b45cddd40c22"
    },
    {
        "name": "八幡神社",
        "prefectureName": "埼玉県",
        "cityName": "熊谷市",
        "streetName": "野原６６番地",
        "latitude": 36.10395309,
        "longitude": 139.35240969,
        "id": "4d4a3ebd-9406-430c-94e1-bbef988c26e2"
    },
    {
        "name": "八幡神社",
        "prefectureName": "埼玉県",
        "cityName": "熊谷市",
        "streetName": "玉作３４３番地",
        "latitude": 36.1473119,
        "longitude": 139.3886432,
        "id": "4183bf35-3c46-4b52-84d5-f3bca2a68542"
    },
    {
        "name": "八幡神社",
        "prefectureName": "埼玉県",
        "cityName": "深谷市",
        "streetName": "川本明戸１１３番地",
        "latitude": 36.14150229,
        "longitude": 139.30588262,
        "id": "8849f48e-ff1c-4287-8249-d912788d3fe5"
    },
    {
        "name": "八幡神社",
        "prefectureName": "埼玉県",
        "cityName": "深谷市",
        "streetName": "町田１４６番地",
        "latitude": 36.23050921,
        "longitude": 139.24815956,
        "id": "bf095d9d-1862-42d5-82ab-4b2a8e76f95b"
    },
    {
        "name": "八幡神社",
        "prefectureName": "埼玉県",
        "cityName": "秩父郡小鹿野町",
        "streetName": "飯田２７５３番地",
        "latitude": 36.0268744,
        "longitude": 138.96672451,
        "id": "5d55b8bd-d4bd-4837-9bf7-1ea5deaac99d"
    },
    {
        "name": "八幡神社",
        "prefectureName": "埼玉県",
        "cityName": "さいたま市西区",
        "streetName": "大字飯田新田３６７番地",
        "latitude": 35.88692661,
        "longitude": 139.55277168,
        "id": "20de5228-d288-4295-b6d1-1143a6fc6237"
    },
    {
        "name": "八幡神社",
        "prefectureName": "埼玉県",
        "cityName": "さいたま市大宮区",
        "streetName": "大成町１丁目２０３番地",
        "latitude": 35.9064699,
        "longitude": 139.6286486,
        "id": "0390a282-984e-479a-8c9a-b674da00a5b1"
    },
    {
        "name": "八幡神社",
        "prefectureName": "埼玉県",
        "cityName": "久喜市",
        "streetName": "上清久３番地",
        "latitude": 36.07793985,
        "longitude": 139.6569543,
        "id": "8bc7deed-3f4c-46e8-a81f-c2257b9765ac"
    },
    {
        "name": "八幡神社",
        "prefectureName": "埼玉県",
        "cityName": "加須市",
        "streetName": "大越１５３４番地",
        "latitude": 36.18164286,
        "longitude": 139.61845797,
        "id": "23867329-e253-4e8e-b1ae-f1506436f37b"
    },
    {
        "name": "八幡神社",
        "prefectureName": "埼玉県",
        "cityName": "羽生市",
        "streetName": "大字名８０８番地１",
        "latitude": 36.17634712,
        "longitude": 139.53038542,
        "id": "e5afe700-c91f-45a9-bc70-c2f85ba77d40"
    },
    {
        "name": "八幡神社",
        "prefectureName": "埼玉県",
        "cityName": "加須市",
        "streetName": "下崎１２５１番地",
        "latitude": 36.1314375,
        "longitude": 139.601722,
        "id": "e436a599-d119-458f-b87a-8ae0afbc4bda"
    },
    {
        "name": "八幡神社",
        "prefectureName": "埼玉県",
        "cityName": "草加市",
        "streetName": "青柳６丁目５番７号",
        "latitude": 35.850709,
        "longitude": 139.82563017,
        "id": "84dcb24d-d29a-4390-bb72-34ae5ada58ed"
    },
    {
        "name": "八幡神社",
        "prefectureName": "埼玉県",
        "cityName": "富士見市",
        "streetName": "大字水子５０８４番地",
        "latitude": 35.856644,
        "longitude": 139.54924,
        "id": "d9090799-c5d2-4fcd-acef-6d802a227c95"
    },
    {
        "name": "八幡神社",
        "prefectureName": "埼玉県",
        "cityName": "北葛飾郡杉戸町",
        "streetName": "大字倉松１８２番地",
        "latitude": 36.025767,
        "longitude": 139.7367086,
        "id": "f1768e16-fd9e-41b3-84a7-defdb6a96dc0"
    },
    {
        "name": "八幡神社",
        "prefectureName": "埼玉県",
        "cityName": "川越市",
        "streetName": "大字山田字宮下町３４０番地",
        "latitude": 35.9251033,
        "longitude": 139.4857926,
        "id": "9f670eb6-e662-48d4-a55f-35444ce1b957"
    },
    {
        "name": "八幡神社",
        "prefectureName": "埼玉県",
        "cityName": "鴻巣市",
        "streetName": "人形４丁目１番３１号",
        "latitude": 36.05075106,
        "longitude": 139.52082195,
        "id": "b291f7d0-ec4f-412e-9b5e-71c61ad76a9b"
    },
    {
        "name": "八幡神社",
        "prefectureName": "埼玉県",
        "cityName": "坂戸市",
        "streetName": "大字青木４９２番地",
        "latitude": 35.96563794,
        "longitude": 139.43389022,
        "id": "2f175162-def1-4011-8ac6-a21d7320c9e3"
    },
    {
        "name": "八幡神社",
        "prefectureName": "埼玉県",
        "cityName": "東松山市",
        "streetName": "大字石橋２２４０番地",
        "latitude": 36.02654934,
        "longitude": 139.36942379,
        "id": "515ac982-30fc-473d-bba4-fa5d24e9debb"
    },
    {
        "name": "八幡神社",
        "prefectureName": "埼玉県",
        "cityName": "比企郡ときがわ町",
        "streetName": "大字桃木３９９番地",
        "latitude": 36.00364414,
        "longitude": 139.26439914,
        "id": "fcec9859-dd1d-4227-a60c-f48c70b40ee4"
    },
    {
        "name": "八幡神社",
        "prefectureName": "埼玉県",
        "cityName": "熊谷市",
        "streetName": "須賀広２３７番地",
        "latitude": 36.10553917,
        "longitude": 139.34211833,
        "id": "66604f13-9f5c-4bec-852a-2dd0136e57fb"
    },
    {
        "name": "八幡神社",
        "prefectureName": "埼玉県",
        "cityName": "深谷市",
        "streetName": "本田１３８番地",
        "latitude": 36.1267845,
        "longitude": 139.27978674,
        "id": "66101c02-c696-4a8e-bf0e-b31b66254f48"
    },
    {
        "name": "八幡神社",
        "prefectureName": "埼玉県",
        "cityName": "深谷市",
        "streetName": "上野台３１６８番地",
        "latitude": 36.18524432,
        "longitude": 139.27369463,
        "id": "6fa08fa7-917c-40bc-a5b7-9c12a55a4013"
    },
    {
        "name": "八幡神社",
        "prefectureName": "埼玉県",
        "cityName": "日高市",
        "streetName": "大字下高萩新田１０１番地",
        "latitude": 35.91263591,
        "longitude": 139.38228536,
        "id": "e0ab4ef1-6fbe-4697-b1ad-1c98177cc8fd"
    },
    {
        "name": "八幡神社",
        "prefectureName": "埼玉県",
        "cityName": "秩父郡長瀞町",
        "streetName": "大字矢那瀬５６６番地",
        "latitude": 36.1147721,
        "longitude": 139.1099139,
        "id": "ec4cc771-676f-4ebe-88fc-02144c7eb71a"
    },
    {
        "name": "八幡神社",
        "prefectureName": "埼玉県",
        "cityName": "さいたま市見沼区",
        "streetName": "東宮下１丁目７９番地",
        "latitude": 35.93011239,
        "longitude": 139.68062103,
        "id": "9dbc2034-7012-4247-80f2-1ebc3b5ad022"
    },
    {
        "name": "八幡神社",
        "prefectureName": "埼玉県",
        "cityName": "さいたま市見沼区",
        "streetName": "大字膝子６２３番地",
        "latitude": 35.92341886,
        "longitude": 139.68630143,
        "id": "bc4d14be-8990-48bc-990a-b98df6173c39"
    },
    {
        "name": "八幡神社",
        "prefectureName": "埼玉県",
        "cityName": "さいたま市岩槻区",
        "streetName": "本町４丁目８番２３号",
        "latitude": 35.9484081,
        "longitude": 139.69761828,
        "id": "4c6966e9-6bf8-496e-9a2e-eeefec879cb4"
    },
    {
        "name": "八幡神社",
        "prefectureName": "埼玉県",
        "cityName": "蓮田市",
        "streetName": "大字蓮田８１６番地",
        "latitude": 35.9943066,
        "longitude": 139.6621051,
        "id": "59e94cf4-5224-4aa1-ae3c-31f08187a322"
    },
    {
        "name": "八幡神社",
        "prefectureName": "埼玉県",
        "cityName": "所沢市",
        "streetName": "大字南永井４０６番地",
        "latitude": 35.799477,
        "longitude": 139.4687208,
        "id": "960e6cbe-9a01-4808-8a52-d0e082db23e1"
    },
    {
        "name": "八幡神社",
        "prefectureName": "埼玉県",
        "cityName": "久喜市",
        "streetName": "島川２１番地",
        "latitude": 36.0621168,
        "longitude": 139.666607,
        "id": "856e2ed6-af3b-4c08-9133-babe1175f8dc"
    },
    {
        "name": "八幡神社",
        "prefectureName": "埼玉県",
        "cityName": "羽生市",
        "streetName": "大字加羽ケ崎６２７番地",
        "latitude": 36.1726285,
        "longitude": 139.5484642,
        "id": "9e631524-f75a-4b02-864d-e906ebc62e9c"
    },
    {
        "name": "八幡神社",
        "prefectureName": "埼玉県",
        "cityName": "加須市",
        "streetName": "北大桑２４５番地",
        "latitude": 36.1314375,
        "longitude": 139.601722,
        "id": "308e0e3a-f070-453c-807b-8bb25ea654b5"
    },
    {
        "name": "八幡神社",
        "prefectureName": "埼玉県",
        "cityName": "八潮市",
        "streetName": "大字南後谷４２８番地",
        "latitude": 35.8225968,
        "longitude": 139.8391271,
        "id": "c33f5ba4-c188-45df-a646-5bdf708b3a91"
    },
    {
        "name": "八幡神社",
        "prefectureName": "埼玉県",
        "cityName": "富士見市",
        "streetName": "大字下南畑１１４８番地",
        "latitude": 35.86245487,
        "longitude": 139.57014908,
        "id": "f99d713d-c8c2-4a3b-bbf8-4db35f44daa7"
    },
    {
        "name": "八幡神社",
        "prefectureName": "埼玉県",
        "cityName": "北葛飾郡杉戸町",
        "streetName": "大字才羽３５５番地",
        "latitude": 36.025767,
        "longitude": 139.7367086,
        "id": "34b209b7-c37c-4171-8513-fe03c45f40b5"
    },
    {
        "name": "八幡神社",
        "prefectureName": "埼玉県",
        "cityName": "ふじみ野市",
        "streetName": "鶴ケ岡１番地",
        "latitude": 35.86484728,
        "longitude": 139.50337939,
        "id": "afd4c17b-2546-4db3-b4ee-223c84f01983"
    },
    {
        "name": "八幡神社",
        "prefectureName": "埼玉県",
        "cityName": "鴻巣市",
        "streetName": "安養寺１２６番地",
        "latitude": 36.07360421,
        "longitude": 139.51821378,
        "id": "63062ab1-a806-4a70-9968-153e8a4c4759"
    },
    {
        "name": "八幡神社",
        "prefectureName": "埼玉県",
        "cityName": "東松山市",
        "streetName": "松葉町１丁目２５番４号",
        "latitude": 36.04056257,
        "longitude": 139.39819479,
        "id": "a95a05fc-70dd-4ea8-b505-4097251743fd"
    },
    {
        "name": "八幡神社",
        "prefectureName": "埼玉県",
        "cityName": "秩父郡東秩父村",
        "streetName": "大字皆谷１７７番地",
        "latitude": 36.0580726,
        "longitude": 139.1945701,
        "id": "3fd5021a-a525-4834-921e-6c3e73f770d3"
    },
    {
        "name": "八幡神社",
        "prefectureName": "埼玉県",
        "cityName": "比企郡ときがわ町",
        "streetName": "大字番匠６３０番地",
        "latitude": 36.00327262,
        "longitude": 139.28680562,
        "id": "604d63ac-5dd2-4d9f-99e4-d5e664503d8f"
    },
    {
        "name": "八幡神社",
        "prefectureName": "埼玉県",
        "cityName": "熊谷市",
        "streetName": "新堀新田２３６番地",
        "latitude": 36.16820301,
        "longitude": 139.33141929,
        "id": "3e150b26-89a2-4aea-8051-146f5781d594"
    },
    {
        "name": "八幡神社",
        "prefectureName": "埼玉県",
        "cityName": "熊谷市",
        "streetName": "柴１６４番地",
        "latitude": 36.11592147,
        "longitude": 139.32276595,
        "id": "dfdebd98-54ef-43fc-9ea8-0fd8f907bd28"
    },
    {
        "name": "八幡神社",
        "prefectureName": "埼玉県",
        "cityName": "日高市",
        "streetName": "大字森戸新田３１番地",
        "latitude": 35.9077703,
        "longitude": 139.3390434,
        "id": "f4940894-dfa3-4498-bb0d-ee8eae1e1950"
    },
    {
        "name": "八幡神社",
        "prefectureName": "埼玉県",
        "cityName": "蓮田市",
        "streetName": "大字上平野６９２番地",
        "latitude": 36.02580234,
        "longitude": 139.60862859,
        "id": "d4f0fc4a-6030-409d-9e00-abcf1b1a290a"
    },
    {
        "name": "八幡神社",
        "prefectureName": "埼玉県",
        "cityName": "久喜市",
        "streetName": "高柳２０４番地１",
        "latitude": 36.11589965,
        "longitude": 139.68653959,
        "id": "7be20ad3-6d9d-44c5-bdb1-8026d649b9f1"
    },
    {
        "name": "八幡神社",
        "prefectureName": "埼玉県",
        "cityName": "幸手市",
        "streetName": "大字戸島２２９番地",
        "latitude": 36.0513665,
        "longitude": 139.73797717,
        "id": "fe906bcc-e5c8-4562-9293-6f56efc25278"
    },
    {
        "name": "八幡神社",
        "prefectureName": "埼玉県",
        "cityName": "羽生市",
        "streetName": "大字須影１５６８番地",
        "latitude": 36.1726285,
        "longitude": 139.5484642,
        "id": "c913d254-42a8-41e5-9bb5-4c3804d454e0"
    },
    {
        "name": "八幡神社",
        "prefectureName": "埼玉県",
        "cityName": "羽生市",
        "streetName": "大字三田ケ谷２７１番地",
        "latitude": 36.1726285,
        "longitude": 139.5484642,
        "id": "2667f5f4-dec9-4190-8e60-b6527041162d"
    },
    {
        "name": "八幡神社",
        "prefectureName": "埼玉県",
        "cityName": "加須市",
        "streetName": "新井新田３８番地",
        "latitude": 36.12190655,
        "longitude": 139.66098309,
        "id": "7ffc13ec-93bc-44de-968d-3386bfa06d97"
    },
    {
        "name": "八幡神社",
        "prefectureName": "埼玉県",
        "cityName": "八潮市",
        "streetName": "大字八條４０６９番地",
        "latitude": 35.85584445,
        "longitude": 139.83872906,
        "id": "5bf1f9b3-619e-49be-954a-97ee1b527421"
    },
    {
        "name": "八幡神社",
        "prefectureName": "埼玉県",
        "cityName": "北葛飾郡杉戸町",
        "streetName": "大字屏風１１５番地",
        "latitude": 36.04774374,
        "longitude": 139.78186844,
        "id": "8387edcf-376e-4f14-8413-6b28ccba0acb"
    },
    {
        "name": "八幡神社",
        "prefectureName": "埼玉県",
        "cityName": "坂戸市",
        "streetName": "大字北浅羽２６２番地",
        "latitude": 35.97474741,
        "longitude": 139.36313465,
        "id": "7fa7d8b4-6eed-4871-99ca-00f6d547bd61"
    },
    {
        "name": "八幡神社",
        "prefectureName": "埼玉県",
        "cityName": "比企郡小川町",
        "streetName": "大字大塚４２７番地",
        "latitude": 36.05654137,
        "longitude": 139.24948756,
        "id": "74b5a918-debe-467b-beac-0744242c12f3"
    },
    {
        "name": "八幡神社",
        "prefectureName": "埼玉県",
        "cityName": "熊谷市",
        "streetName": "三ヶ尻２９２４番地",
        "latitude": 36.15948385,
        "longitude": 139.31981989,
        "id": "a2be630f-a902-495d-bc64-623d1d284115"
    },
    {
        "name": "八幡神社",
        "prefectureName": "埼玉県",
        "cityName": "熊谷市",
        "streetName": "塩１４２番地１",
        "latitude": 36.10278443,
        "longitude": 139.31743383,
        "id": "517837bc-77fd-4f87-a3e5-b5c206552fd9"
    },
    {
        "name": "八幡神社",
        "prefectureName": "埼玉県",
        "cityName": "飯能市",
        "streetName": "八幡町１２番６号",
        "latitude": 35.85557469,
        "longitude": 139.32034532,
        "id": "3dbb128e-18b8-4b41-befe-d3d91f03fb9d"
    },
    {
        "name": "八幡神社",
        "prefectureName": "埼玉県",
        "cityName": "さいたま市緑区",
        "streetName": "大字大牧１４６９番地",
        "latitude": 35.8710335,
        "longitude": 139.6840224,
        "id": "836b3c55-df34-4fa6-a5e7-15e664ff4bfe"
    },
    {
        "name": "八幡神社",
        "prefectureName": "埼玉県",
        "cityName": "さいたま市見沼区",
        "streetName": "大字南中丸３９０番地",
        "latitude": 35.9352277,
        "longitude": 139.654368,
        "id": "c068f0f4-55a5-45a7-967c-2c6f0422ad89"
    },
    {
        "name": "八幡神社",
        "prefectureName": "埼玉県",
        "cityName": "所沢市",
        "streetName": "三ケ島１丁目２１２番地",
        "latitude": 35.78681329,
        "longitude": 139.41072346,
        "id": "5e0705c6-a09e-45c5-8fb5-c9511e029f69"
    },
    {
        "name": "八幡神社",
        "prefectureName": "埼玉県",
        "cityName": "久喜市",
        "streetName": "佐間５７７番地",
        "latitude": 36.0621168,
        "longitude": 139.666607,
        "id": "8ab9d32e-2df9-4445-a059-36c718a4b224"
    },
    {
        "name": "八幡神社",
        "prefectureName": "埼玉県",
        "cityName": "幸手市",
        "streetName": "大字木立字新切戸西３１０番地１",
        "latitude": 36.0780745,
        "longitude": 139.7258604,
        "id": "abca45bd-a588-4ab3-96ee-330323bea279"
    },
    {
        "name": "八幡神社",
        "prefectureName": "埼玉県",
        "cityName": "羽生市",
        "streetName": "大字日野手新田字惣達７５番地５",
        "latitude": 36.1726285,
        "longitude": 139.5484642,
        "id": "f95fe8af-18d3-415c-8899-843b8c2ca745"
    },
    {
        "name": "八幡神社",
        "prefectureName": "埼玉県",
        "cityName": "八潮市",
        "streetName": "大字大曽根１８番地",
        "latitude": 35.81138753,
        "longitude": 139.83010315,
        "id": "e3d89f95-8ffd-4707-a89a-311198256749"
    },
    {
        "name": "八幡神社",
        "prefectureName": "埼玉県",
        "cityName": "春日部市",
        "streetName": "粕壁東２丁目１６番５７号",
        "latitude": 35.98208639,
        "longitude": 139.76281623,
        "id": "5e87f426-6bf2-4d48-9d47-73d0c9d640d9"
    },
    {
        "name": "八幡神社",
        "prefectureName": "埼玉県",
        "cityName": "北葛飾郡杉戸町",
        "streetName": "大字遠野３３７番地",
        "latitude": 36.05401624,
        "longitude": 139.74617932,
        "id": "1bcfdbbf-097d-45ed-b20c-6e01ccc10ccc"
    },
    {
        "name": "八幡神社",
        "prefectureName": "埼玉県",
        "cityName": "川越市",
        "streetName": "大字下赤坂２００番地",
        "latitude": 35.85660033,
        "longitude": 139.47812911,
        "id": "0472a444-c1f4-42df-8d10-7d408101c978"
    },
    {
        "name": "八幡神社",
        "prefectureName": "埼玉県",
        "cityName": "本庄市",
        "streetName": "児玉町下浅見８７９番地",
        "latitude": 36.20869983,
        "longitude": 139.16432448,
        "id": "d58fffdf-a801-48d8-a6fd-c6817423e232"
    },
    {
        "name": "八幡神社",
        "prefectureName": "埼玉県",
        "cityName": "北葛飾郡松伏町",
        "streetName": "大字大川戸２４１４番地",
        "latitude": 35.9257034,
        "longitude": 139.8152805,
        "id": "e900ae11-e5a9-432b-9d6c-d88cdc5718a0"
    },
    {
        "name": "八幡神社",
        "prefectureName": "埼玉県",
        "cityName": "坂戸市",
        "streetName": "大字東和田１９０番地",
        "latitude": 35.98184069,
        "longitude": 139.38564904,
        "id": "e14c4d33-b6cd-4154-be96-a2d8ce480120"
    },
    {
        "name": "八幡神社",
        "prefectureName": "埼玉県",
        "cityName": "比企郡吉見町",
        "streetName": "大字松崎２５４番地",
        "latitude": 36.06577991,
        "longitude": 139.44589182,
        "id": "0891c56a-4681-44b8-a429-312dd143087f"
    },
    {
        "name": "八幡神社",
        "prefectureName": "埼玉県",
        "cityName": "比企郡小川町",
        "streetName": "大字角山２７７番地",
        "latitude": 36.06318796,
        "longitude": 139.25642567,
        "id": "3974b642-da07-4688-8666-035426665d77"
    },
    {
        "name": "八幡神社",
        "prefectureName": "埼玉県",
        "cityName": "比企郡嵐山町",
        "streetName": "大字鎌形１９９３番地",
        "latitude": 36.02403261,
        "longitude": 139.31149474,
        "id": "32a80808-873f-4e86-9d09-0815751bfb0e"
    },
    {
        "name": "八幡神社",
        "prefectureName": "埼玉県",
        "cityName": "秩父郡東秩父村",
        "streetName": "大字皆谷１３１１番地",
        "latitude": 36.0580726,
        "longitude": 139.1945701,
        "id": "b7d245d9-fb26-4c74-9a58-8e0fde17357f"
    },
    {
        "name": "八幡神社",
        "prefectureName": "埼玉県",
        "cityName": "熊谷市",
        "streetName": "平塚新田５０８番地",
        "latitude": 36.1135097,
        "longitude": 139.37355299,
        "id": "b99b7e9f-ccd0-4e92-b297-d21d79496218"
    },
    {
        "name": "八幡神社",
        "prefectureName": "埼玉県",
        "cityName": "深谷市",
        "streetName": "武蔵野１８６２番地",
        "latitude": 36.13639598,
        "longitude": 139.21420451,
        "id": "412c2a19-c717-4cf7-88ae-d26c147e2a09"
    },
    {
        "name": "八幡神社",
        "prefectureName": "埼玉県",
        "cityName": "さいたま市岩槻区",
        "streetName": "大字尾ケ崎１８２３番地",
        "latitude": 35.9498606,
        "longitude": 139.6941936,
        "id": "db8c8ead-c55f-4623-8b1f-a230cadafd42"
    },
    {
        "name": "八幡神社",
        "prefectureName": "埼玉県",
        "cityName": "所沢市",
        "streetName": "糀谷７８番地",
        "latitude": 35.78798463,
        "longitude": 139.38777806,
        "id": "dca604fa-b536-4297-a79c-d3cb0c4e5c13"
    },
    {
        "name": "八幡神社",
        "prefectureName": "埼玉県",
        "cityName": "久喜市",
        "streetName": "間鎌３３１番地３",
        "latitude": 36.12209928,
        "longitude": 139.69657205,
        "id": "e988c76f-a050-45c8-9a6b-0213a62210a1"
    },
    {
        "name": "八幡神社",
        "prefectureName": "埼玉県",
        "cityName": "幸手市",
        "streetName": "大字内国府間６４０番地",
        "latitude": 36.08891488,
        "longitude": 139.72048818,
        "id": "44c8efe9-66aa-4fe4-a6db-e18301d33098"
    },
    {
        "name": "八幡神社",
        "prefectureName": "埼玉県",
        "cityName": "加須市",
        "streetName": "岡古井６３０番地",
        "latitude": 36.1314375,
        "longitude": 139.601722,
        "id": "c740cb49-6479-4e24-ae75-efe01cbc5989"
    },
    {
        "name": "八幡神社",
        "prefectureName": "埼玉県",
        "cityName": "加須市",
        "streetName": "生出３１５番地",
        "latitude": 36.1314375,
        "longitude": 139.601722,
        "id": "6b16ec0c-19d1-4777-93b9-c8f081b0a936"
    },
    {
        "name": "八幡神社",
        "prefectureName": "埼玉県",
        "cityName": "春日部市",
        "streetName": "粕壁５５９７番地",
        "latitude": 35.98100851,
        "longitude": 139.74212091,
        "id": "265bc31d-fc80-4ea2-9043-856c7d206d61"
    },
    {
        "name": "八幡神社",
        "prefectureName": "埼玉県",
        "cityName": "南埼玉郡宮代町",
        "streetName": "字中島３８２番地",
        "latitude": 36.01795406,
        "longitude": 139.73992257,
        "id": "16be4b26-4170-4cb3-93d0-f5102a74c774"
    },
    {
        "name": "八幡神社",
        "prefectureName": "埼玉県",
        "cityName": "北葛飾郡杉戸町",
        "streetName": "大字下野８９５番地１",
        "latitude": 36.05714286,
        "longitude": 139.70264631,
        "id": "d1580dd3-892b-4aac-ac41-976b25d26c7f"
    },
    {
        "name": "八幡神社",
        "prefectureName": "埼玉県",
        "cityName": "川越市",
        "streetName": "大字小堤２８７番地",
        "latitude": 35.93733765,
        "longitude": 139.4392115,
        "id": "b283cc20-28d0-4800-8c98-559b8ba5ab3b"
    },
    {
        "name": "八幡神社",
        "prefectureName": "埼玉県",
        "cityName": "本庄市",
        "streetName": "児玉町児玉１９８番地",
        "latitude": 36.18899055,
        "longitude": 139.13346731,
        "id": "8e2f0d5b-6984-4830-a79d-30a60e2acd7d"
    },
    {
        "name": "八幡神社",
        "prefectureName": "埼玉県",
        "cityName": "越谷市",
        "streetName": "川柳町３丁目１９１番地",
        "latitude": 35.8912306,
        "longitude": 139.7907373,
        "id": "97b6b13e-562f-4870-b99f-8fc0947081a4"
    },
    {
        "name": "八幡神社",
        "prefectureName": "埼玉県",
        "cityName": "坂戸市",
        "streetName": "大字戸宮６０番地",
        "latitude": 35.957169,
        "longitude": 139.402906,
        "id": "eb8912f2-b77c-45b7-9993-060d9ccc4e03"
    },
    {
        "name": "八幡神社",
        "prefectureName": "埼玉県",
        "cityName": "比企郡鳩山町",
        "streetName": "大字高野倉４５４番地",
        "latitude": 35.99310445,
        "longitude": 139.29972421,
        "id": "d389b68b-c92c-4194-9599-fce1e18407a2"
    },
    {
        "name": "八幡神社",
        "prefectureName": "埼玉県",
        "cityName": "比企郡吉見町",
        "streetName": "大字中曽根３８４番地",
        "latitude": 36.0714485,
        "longitude": 139.44187819,
        "id": "15f17467-1cca-49c6-be4b-8ec743486119"
    },
    {
        "name": "八幡神社",
        "prefectureName": "埼玉県",
        "cityName": "比企郡嵐山町",
        "streetName": "大字遠山２６３番地",
        "latitude": 36.0566402,
        "longitude": 139.3205229,
        "id": "86dcedcb-80aa-40ec-af5f-577dce259f1f"
    },
    {
        "name": "八幡神社",
        "prefectureName": "埼玉県",
        "cityName": "深谷市",
        "streetName": "永田６６４番地",
        "latitude": 36.13807988,
        "longitude": 139.25030484,
        "id": "6a4d8259-e4cb-4aa1-a503-0c27deb6beda"
    },
    {
        "name": "八幡神社",
        "prefectureName": "埼玉県",
        "cityName": "深谷市",
        "streetName": "折之口１２３番地",
        "latitude": 36.15817166,
        "longitude": 139.2754263,
        "id": "e7b184fa-4229-492a-b9a5-967c235730d5"
    },
    {
        "name": "八幡神社",
        "prefectureName": "埼玉県",
        "cityName": "行田市",
        "streetName": "大字持田５７７４番地",
        "latitude": 36.1388956,
        "longitude": 139.4557344,
        "id": "4f9d09d1-9e85-435d-bc72-178821b578e0"
    },
    {
        "name": "八幡神社",
        "prefectureName": "埼玉県",
        "cityName": "所沢市",
        "streetName": "大字久米２４２９番地",
        "latitude": 35.799477,
        "longitude": 139.4687208,
        "id": "4c9141dc-0c49-4eb8-ab0d-7a14457d656e"
    },
    {
        "name": "八幡神社",
        "prefectureName": "埼玉県",
        "cityName": "狭山市",
        "streetName": "入間川３丁目６番１４号",
        "latitude": 35.85684077,
        "longitude": 139.4085937,
        "id": "48bae2f4-5e39-4103-982a-2307a7e7b429"
    },
    {
        "name": "八幡神社",
        "prefectureName": "埼玉県",
        "cityName": "白岡市",
        "streetName": "白岡８８９番地",
        "latitude": 36.01723969,
        "longitude": 139.65654046,
        "id": "44cc55a6-7541-4e04-a65b-df596dde263a"
    },
    {
        "name": "八幡神社",
        "prefectureName": "埼玉県",
        "cityName": "羽生市",
        "streetName": "大字喜右エ門新田１４９８番地",
        "latitude": 36.1726285,
        "longitude": 139.5484642,
        "id": "796c213c-d400-46f8-8365-c2ffce45bbf9"
    },
    {
        "name": "八幡神社",
        "prefectureName": "埼玉県",
        "cityName": "春日部市",
        "streetName": "南３丁目１８番１７号",
        "latitude": 35.97045436,
        "longitude": 139.76269159,
        "id": "79fb69a2-b618-421e-9ceb-01d228679f6e"
    },
    {
        "name": "八幡神社",
        "prefectureName": "埼玉県",
        "cityName": "川越市",
        "streetName": "大字的場５２９番地",
        "latitude": 35.91043394,
        "longitude": 139.43225073,
        "id": "0121f4fa-57d1-4423-b17d-cee689139044"
    },
    {
        "name": "八幡神社",
        "prefectureName": "埼玉県",
        "cityName": "越谷市",
        "streetName": "越ヶ谷２丁目２番１６号",
        "latitude": 35.88937803,
        "longitude": 139.78766539,
        "id": "c3318401-77bc-4b27-843c-5242d043c38b"
    },
    {
        "name": "八幡神社",
        "prefectureName": "埼玉県",
        "cityName": "坂戸市",
        "streetName": "大字坂戸８１８番地",
        "latitude": 35.957169,
        "longitude": 139.402906,
        "id": "bd65f53e-49df-4aaa-b5e9-909ec399130d"
    },
    {
        "name": "八幡神社",
        "prefectureName": "埼玉県",
        "cityName": "入間郡越生町",
        "streetName": "大字大満１０７番地",
        "latitude": 35.9645799,
        "longitude": 139.2940737,
        "id": "a3117eae-a16a-4085-8350-0d9cb192faa2"
    },
    {
        "name": "八幡神社",
        "prefectureName": "埼玉県",
        "cityName": "川口市",
        "streetName": "八幡木１丁目２５番地２",
        "latitude": 35.81776977,
        "longitude": 139.7479964,
        "id": "e795fdce-a64d-4bb3-9981-b1b705dcdcfb"
    },
    {
        "name": "八幡神社",
        "prefectureName": "埼玉県",
        "cityName": "大里郡寄居町",
        "streetName": "大字鉢形１１６８番地",
        "latitude": 36.1184037,
        "longitude": 139.193022,
        "id": "b7196369-b8cf-4b0e-b611-a6fff163a01a"
    },
    {
        "name": "八幡神社",
        "prefectureName": "埼玉県",
        "cityName": "深谷市",
        "streetName": "伊勢方３１６番地１",
        "latitude": 36.20510616,
        "longitude": 139.2627641,
        "id": "5f82a9bc-d0dd-4865-b3e7-60492507d33f"
    },
    {
        "name": "八幡神社",
        "prefectureName": "埼玉県",
        "cityName": "行田市",
        "streetName": "大字中里４１３番地",
        "latitude": 36.1388956,
        "longitude": 139.4557344,
        "id": "152df96c-62b4-48dd-a47f-35497660b655"
    },
    {
        "name": "八幡神社",
        "prefectureName": "埼玉県",
        "cityName": "さいたま市岩槻区",
        "streetName": "大字南辻６８番地",
        "latitude": 35.9498606,
        "longitude": 139.6941936,
        "id": "d186d64b-92da-4846-96a4-00e48aa25c75"
    },
    {
        "name": "八幡神社",
        "prefectureName": "埼玉県",
        "cityName": "入間市",
        "streetName": "大字上谷ケ貫６７９番地",
        "latitude": 35.835943,
        "longitude": 139.3911236,
        "id": "18cdff8a-0051-46cd-979e-aeff62dfcc48"
    },
    {
        "name": "八幡神社",
        "prefectureName": "埼玉県",
        "cityName": "久喜市",
        "streetName": "樋ノ口５０２番地",
        "latitude": 36.04215039,
        "longitude": 139.6495871,
        "id": "ce81e79e-1907-4ced-a619-7f02d8436742"
    },
    {
        "name": "八幡神社",
        "prefectureName": "埼玉県",
        "cityName": "白岡市",
        "streetName": "千駄野１２９番地１",
        "latitude": 36.0116928,
        "longitude": 139.67721102,
        "id": "2e8dce12-14c9-4a03-97c7-2ea00daee162"
    },
    {
        "name": "八幡神社",
        "prefectureName": "埼玉県",
        "cityName": "加須市",
        "streetName": "下谷１番地",
        "latitude": 36.1314375,
        "longitude": 139.601722,
        "id": "cc8b6032-96d6-4770-bf0c-64f3b8f38383"
    },
    {
        "name": "八幡神社",
        "prefectureName": "埼玉県",
        "cityName": "羽生市",
        "streetName": "大字下岩瀬５２８番地",
        "latitude": 36.1726285,
        "longitude": 139.5484642,
        "id": "2017f33f-a22e-40dc-bd34-b904a4467f5b"
    },
    {
        "name": "八幡神社",
        "prefectureName": "埼玉県",
        "cityName": "加須市",
        "streetName": "北大桑１４２９番地",
        "latitude": 36.1314375,
        "longitude": 139.601722,
        "id": "1017ec5e-a8ce-41f6-8725-bc98c72abe7c"
    },
    {
        "name": "八幡神社",
        "prefectureName": "埼玉県",
        "cityName": "川越市",
        "streetName": "大字安比奈新田２３番地",
        "latitude": 35.9251033,
        "longitude": 139.4857926,
        "id": "7a6f7852-e129-4f55-b93c-6edbd890b32c"
    },
    {
        "name": "八幡神社",
        "prefectureName": "埼玉県",
        "cityName": "比企郡川島町",
        "streetName": "大字吹塚８３０番地",
        "latitude": 35.99185719,
        "longitude": 139.43929975,
        "id": "effdd195-2e80-4a42-9dae-81b870ca8de8"
    },
    {
        "name": "八幡神社",
        "prefectureName": "埼玉県",
        "cityName": "比企郡吉見町",
        "streetName": "大字荒子４７２番地",
        "latitude": 36.0398556,
        "longitude": 139.4537524,
        "id": "4ecc45e5-274d-420b-8a43-46a33a3b0ee1"
    },
    {
        "name": "八幡神社",
        "prefectureName": "埼玉県",
        "cityName": "川口市",
        "streetName": "大字芝６８４３番地",
        "latitude": 35.84595323,
        "longitude": 139.6890646,
        "id": "b628c8b8-1a79-422f-84b8-57699c452eb3"
    },
    {
        "name": "八幡神社",
        "prefectureName": "埼玉県",
        "cityName": "行田市",
        "streetName": "大字酒巻２０３８番地１",
        "latitude": 36.18846796,
        "longitude": 139.45435108,
        "id": "ccccbbe6-98ae-41d8-bbdc-4cf271133ac9"
    },
    {
        "name": "八幡若宮八幡神社",
        "prefectureName": "埼玉県",
        "cityName": "熊谷市",
        "streetName": "押切１０５６番地１",
        "latitude": 36.13409015,
        "longitude": 139.32390125,
        "id": "327b2e67-d314-44b9-8a7d-406493590553"
    },
    {
        "name": "八幡香取神社",
        "prefectureName": "埼玉県",
        "cityName": "北葛飾郡杉戸町",
        "streetName": "大字才羽１３７０番地",
        "latitude": 36.025767,
        "longitude": 139.7367086,
        "id": "4e9e2555-d381-4b29-85b1-2e7b93c0d040"
    },
    {
        "name": "八幡香取神社",
        "prefectureName": "埼玉県",
        "cityName": "北葛飾郡杉戸町",
        "streetName": "大字佐左ヱ門１４８８番地",
        "latitude": 36.04392923,
        "longitude": 139.75585677,
        "id": "bf41f7ba-85ab-46e9-9f9c-084dc22d65bf"
    },
    {
        "name": "八枝神社",
        "prefectureName": "埼玉県",
        "cityName": "上尾市",
        "streetName": "大字平方４８８番地",
        "latitude": 35.94388207,
        "longitude": 139.54776547,
        "id": "ea18317a-7c5d-4d01-86f7-5f8434dd5ccc"
    },
    {
        "name": "八王子神社",
        "prefectureName": "埼玉県",
        "cityName": "さいたま市中央区",
        "streetName": "八王子１丁目７番１１号",
        "latitude": 35.88591945,
        "longitude": 139.61309191,
        "id": "37efabfb-aa64-47b0-8a6f-46d6058eb843"
    },
    {
        "name": "八王子神社",
        "prefectureName": "埼玉県",
        "cityName": "深谷市",
        "streetName": "柏合８０１番地１",
        "latitude": 36.1974211,
        "longitude": 139.2815049,
        "id": "e2233d58-ebd5-4f79-9a2a-0fa5e05f9670"
    },
    {
        "name": "八阪神社",
        "prefectureName": "埼玉県",
        "cityName": "秩父郡小鹿野町",
        "streetName": "小鹿野１８８３番地",
        "latitude": 36.01895349,
        "longitude": 139.00642902,
        "id": "ac2799d4-b37d-4d2d-9ba0-b9ba46e96f23"
    },
    {
        "name": "八雲神社",
        "prefectureName": "埼玉県",
        "cityName": "久喜市",
        "streetName": "久喜本１２２４番地",
        "latitude": 36.0621168,
        "longitude": 139.666607,
        "id": "a1c2961b-413f-41e9-92db-4b0a3f866513"
    },
    {
        "name": "八雲神社",
        "prefectureName": "埼玉県",
        "cityName": "北本市",
        "streetName": "石戸８丁目８番地",
        "latitude": 36.01773686,
        "longitude": 139.52337028,
        "id": "6edf1c17-d8d4-41d1-b784-3c20bafce921"
    },
    {
        "name": "八雲神社",
        "prefectureName": "埼玉県",
        "cityName": "東松山市",
        "streetName": "大字野田１２０１番地",
        "latitude": 36.05578853,
        "longitude": 139.39640804,
        "id": "a7f7cf7a-c996-46f1-9380-3ef44a3da191"
    },
    {
        "name": "八雲神社",
        "prefectureName": "埼玉県",
        "cityName": "秩父郡小鹿野町",
        "streetName": "小鹿野９７３番地１１",
        "latitude": 36.02246691,
        "longitude": 138.99910466,
        "id": "ec0c83f4-1523-440b-89e5-5af4f0396fa7"
    },
    {
        "name": "八雲神社",
        "prefectureName": "埼玉県",
        "cityName": "ふじみ野市",
        "streetName": "上福岡１丁目７番７号",
        "latitude": 35.87497689,
        "longitude": 139.5124448,
        "id": "563f7b4b-8d7f-4f2b-91d8-7221f327be14"
    },
    {
        "name": "八雲神社",
        "prefectureName": "埼玉県",
        "cityName": "さいたま市岩槻区",
        "streetName": "大字金重１４１番地",
        "latitude": 35.9677494,
        "longitude": 139.68696821,
        "id": "c1e2d55f-9182-411d-b48e-e8e3709e2a70"
    },
    {
        "name": "八雲神社",
        "prefectureName": "埼玉県",
        "cityName": "川越市",
        "streetName": "大字今福２７２８番地",
        "latitude": 35.9251033,
        "longitude": 139.4857926,
        "id": "15c09559-b1f7-4c43-9764-60b0acd602d7"
    },
    {
        "name": "八雲神社",
        "prefectureName": "埼玉県",
        "cityName": "さいたま市見沼区",
        "streetName": "染谷１丁目２８８番地",
        "latitude": 35.91123934,
        "longitude": 139.68244165,
        "id": "16c881c3-f914-4298-bff2-dfd1c19e2929"
    },
    {
        "name": "八雲神社",
        "prefectureName": "埼玉県",
        "cityName": "さいたま市岩槻区",
        "streetName": "大字岩槻２３２０番地",
        "latitude": 35.9498606,
        "longitude": 139.6941936,
        "id": "eaf379f2-bac3-4bc0-837e-de04902b52dc"
    },
    {
        "name": "八雲神社",
        "prefectureName": "埼玉県",
        "cityName": "さいたま市浦和区",
        "streetName": "元町１丁目２１番３号",
        "latitude": 35.86938613,
        "longitude": 139.65449726,
        "id": "06483a3b-4c0d-4d21-a76c-a6c99411b702"
    },
    {
        "name": "八雲神社",
        "prefectureName": "埼玉県",
        "cityName": "さいたま市見沼区",
        "streetName": "大字蓮沼７５６番地",
        "latitude": 35.93172555,
        "longitude": 139.65834002,
        "id": "160515cc-5182-4ef0-a090-72b1725b672e"
    },
    {
        "name": "八雲神社",
        "prefectureName": "埼玉県",
        "cityName": "狭山市",
        "streetName": "大字下奥富５９６番地１",
        "latitude": 35.88033542,
        "longitude": 139.43103514,
        "id": "ec8b59cc-7875-4d45-b84c-8f7c57f830ab"
    },
    {
        "name": "八雲神社",
        "prefectureName": "埼玉県",
        "cityName": "さいたま市見沼区",
        "streetName": "大字蓮沼５０１番地",
        "latitude": 35.92684848,
        "longitude": 139.66279811,
        "id": "3d0ab836-c629-47fb-98b2-aa26352713fe"
    },
    {
        "name": "八雲神社",
        "prefectureName": "埼玉県",
        "cityName": "羽生市",
        "streetName": "大字羽生４２８６番地",
        "latitude": 36.1726285,
        "longitude": 139.5484642,
        "id": "0a1d622d-d454-46dc-8c3f-d52115036cee"
    },
    {
        "name": "八雲神社",
        "prefectureName": "埼玉県",
        "cityName": "日高市",
        "streetName": "大字高萩１１０１番地",
        "latitude": 35.8991571,
        "longitude": 139.37662233,
        "id": "8dee207e-d18f-4e1d-9ea8-eb9ca670df56"
    },
    {
        "name": "六所神社",
        "prefectureName": "埼玉県",
        "cityName": "久喜市",
        "streetName": "六万部４２６番地",
        "latitude": 36.0621168,
        "longitude": 139.666607,
        "id": "a8a26d54-4a58-4ec7-98ae-f820b0b1ab23"
    },
    {
        "name": "六所神社",
        "prefectureName": "埼玉県",
        "cityName": "所沢市",
        "streetName": "上新井２丁目６番地の８",
        "latitude": 35.79229132,
        "longitude": 139.45281682,
        "id": "45fe9425-9578-4f35-b43c-2506316e88eb"
    },
    {
        "name": "六塚稲荷神社",
        "prefectureName": "埼玉県",
        "cityName": "川越市",
        "streetName": "六軒町１丁目１７番地３",
        "latitude": 35.91735406,
        "longitude": 139.4792601,
        "id": "109bfd30-c8bb-4205-901d-5a35938b9d42"
    },
    {
        "name": "六塚稲荷神社",
        "prefectureName": "埼玉県",
        "cityName": "川越市",
        "streetName": "元町２丁目８番地１２",
        "latitude": 35.92529197,
        "longitude": 139.48054024,
        "id": "67f28162-24d5-4d72-a16c-73b3e349811c"
    },
    {
        "name": "兵執神社",
        "prefectureName": "埼玉県",
        "cityName": "比企郡嵐山町",
        "streetName": "大字古里７６６番地",
        "latitude": 36.09897056,
        "longitude": 139.30101898,
        "id": "07ac2b5f-efcf-4a8a-9b38-7230db38478d"
    },
    {
        "name": "内川神社",
        "prefectureName": "埼玉県",
        "cityName": "吉川市",
        "streetName": "大字上内川２１２番地",
        "latitude": 35.93847657,
        "longitude": 139.83863647,
        "id": "020e56c5-137d-475d-842f-2056938d4c04"
    },
    {
        "name": "内間木神社",
        "prefectureName": "埼玉県",
        "cityName": "朝霞市",
        "streetName": "大字上内間木４４３番地",
        "latitude": 35.82421291,
        "longitude": 139.60926676,
        "id": "7929144f-5773-4b9f-9ce3-050a8197932e"
    },
    {
        "name": "冨士浅間神社",
        "prefectureName": "埼玉県",
        "cityName": "本庄市",
        "streetName": "児玉町高柳２６７番地１",
        "latitude": 36.18958209,
        "longitude": 139.13016763,
        "id": "0639b070-a494-450d-9d4d-797b6922e8f3"
    },
    {
        "name": "冨士浅間神社",
        "prefectureName": "埼玉県",
        "cityName": "さいたま市岩槻区",
        "streetName": "府内１丁目６番２４号",
        "latitude": 35.94355899,
        "longitude": 139.71011153,
        "id": "d0b184e6-3870-4e83-a0ae-69e2b821ee31"
    },
    {
        "name": "冨士神社",
        "prefectureName": "埼玉県",
        "cityName": "深谷市",
        "streetName": "江原３４４番地",
        "latitude": 36.2243339,
        "longitude": 139.32788845,
        "id": "4c218276-4793-4188-8e27-fc5fb9d47cec"
    },
    {
        "name": "出世稲荷神社",
        "prefectureName": "埼玉県",
        "cityName": "川越市",
        "streetName": "松江町１丁目７番地１",
        "latitude": 35.91778473,
        "longitude": 139.4846263,
        "id": "8cc5d978-8f79-4dfc-98d2-a08e1140d727"
    },
    {
        "name": "出流神社",
        "prefectureName": "埼玉県",
        "cityName": "加須市",
        "streetName": "柏戸８７４番地",
        "latitude": 36.20314757,
        "longitude": 139.66935729,
        "id": "bfa0c088-6ce1-4f3c-a700-7d2231aa7d51"
    },
    {
        "name": "出雲乃伊波比神社",
        "prefectureName": "埼玉県",
        "cityName": "大里郡寄居町",
        "streetName": "大字赤浜７２３番地",
        "latitude": 36.11230581,
        "longitude": 139.2424516,
        "id": "6925e824-5a3c-4119-8663-ac5ec69cd082"
    },
    {
        "name": "出雲乃伊波比神社",
        "prefectureName": "埼玉県",
        "cityName": "熊谷市",
        "streetName": "板井７１８番地",
        "latitude": 36.10663395,
        "longitude": 139.31780298,
        "id": "ef7241a3-e937-440f-9237-f12dbc98e77e"
    },
    {
        "name": "出雲伊波比神社",
        "prefectureName": "埼玉県",
        "cityName": "入間郡毛呂山町",
        "streetName": "岩井西５丁目１７番地１",
        "latitude": 35.94246883,
        "longitude": 139.31129013,
        "id": "53ff91de-c321-4307-8819-bd85ba8d267e"
    },
    {
        "name": "出雲祝神社",
        "prefectureName": "埼玉県",
        "cityName": "入間市",
        "streetName": "宮寺１番地",
        "latitude": 35.78778992,
        "longitude": 139.37653733,
        "id": "8ac0fca5-7c15-4557-8ecb-752da657b974"
    },