[
    {
        "name": "一ノ宮神社",
        "prefectureName": "福井県",
        "cityName": "越前市",
        "streetName": "西谷町３４号１９番地",
        "latitude": 35.87604107,
        "longitude": 136.1882562,
        "id": "53b24c15-e9c8-4ce1-adb3-09947ddbb1dc"
    },
    {
        "name": "一姫神社",
        "prefectureName": "福井県",
        "cityName": "福井市",
        "streetName": "二日市町第３４字１５番地",
        "latitude": 36.0643665,
        "longitude": 136.2195965,
        "id": "48908f5f-e2fc-4407-81c2-630e6e005914"
    },
    {
        "name": "一言主神社",
        "prefectureName": "福井県",
        "cityName": "三方郡美浜町",
        "streetName": "坂尻第１４号村内２１番地",
        "latitude": 35.6005403,
        "longitude": 135.9405287,
        "id": "d8704df0-dc78-4fac-8ffc-67cbca763649"
    },
    {
        "name": "一言神社",
        "prefectureName": "福井県",
        "cityName": "小浜市",
        "streetName": "次吉第５４号６番地",
        "latitude": 35.4955816,
        "longitude": 135.7466191,
        "id": "5543d68e-773d-4f3d-b6e8-40495bf2cdab"
    },
    {
        "name": "三十番神社",
        "prefectureName": "福井県",
        "cityName": "福井市",
        "streetName": "小幡町５１号１番地",
        "latitude": 36.0643665,
        "longitude": 136.2195965,
        "id": "414e5bb2-e376-44ce-87e6-ad07e1674f45"
    },
    {
        "name": "三國神社",
        "prefectureName": "福井県",
        "cityName": "坂井市",
        "streetName": "三国町山王６丁目２番８０号",
        "latitude": 36.20903738,
        "longitude": 136.15781758,
        "id": "88fbe73b-1998-47d0-87fe-d73140b17f04"
    },
    {
        "name": "三宅神社",
        "prefectureName": "福井県",
        "cityName": "三方上中郡若狭町",
        "streetName": "下野木１９号１番地",
        "latitude": 35.48582559,
        "longitude": 135.80613925,
        "id": "97dfc27f-6dd8-4d05-a518-ccd20cdff888"
    },
    {
        "name": "三宮神社",
        "prefectureName": "福井県",
        "cityName": "敦賀市",
        "streetName": "中中の谷谷７９号１４番地",
        "latitude": 35.6452468,
        "longitude": 136.0554435,
        "id": "abd14368-9a3a-4702-b8ed-a618dbc683e9"
    },
    {
        "name": "三山神社",
        "prefectureName": "福井県",
        "cityName": "越前市",
        "streetName": "余田町３６号４４番地",
        "latitude": 35.93265183,
        "longitude": 136.14132652,
        "id": "cf63ed37-737c-41d3-9952-2b0ac8cfb3d6"
    },
    {
        "name": "三島神社",
        "prefectureName": "福井県",
        "cityName": "三方郡美浜町",
        "streetName": "安江第３号宮元１番地",
        "latitude": 35.6005403,
        "longitude": 135.9405287,
        "id": "f3785a3b-13bf-421c-a31d-ed2e5f2536db"
    },
    {
        "name": "三島神社",
        "prefectureName": "福井県",
        "cityName": "越前市",
        "streetName": "赤坂町第４８号５９番地",
        "latitude": 35.93855186,
        "longitude": 136.24540645,
        "id": "937ae1cd-71fb-4c6d-91f7-57d54c415a5b"
    },
    {
        "name": "三社神社",
        "prefectureName": "福井県",
        "cityName": "福井市",
        "streetName": "安原町１６号３９番地",
        "latitude": 36.01339126,
        "longitude": 136.27661657,
        "id": "7df4463e-4b74-410c-844e-9e8ccf2d2bc6"
    },
    {
        "name": "下池田神社",
        "prefectureName": "福井県",
        "cityName": "今立郡池田町",
        "streetName": "小畑８号２番地",
        "latitude": 35.94474941,
        "longitude": 136.36924112,
        "id": "c835354c-fe4d-4080-8367-cdea4e50b85a"
    },
    {
        "name": "下石田神社",
        "prefectureName": "福井県",
        "cityName": "鯖江市",
        "streetName": "石田下町１７号１３番地",
        "latitude": 35.9777045,
        "longitude": 136.1567254,
        "id": "e742c01c-cc72-4bf2-aca1-88964e54ff33"
    },
    {
        "name": "不老神社",
        "prefectureName": "福井県",
        "cityName": "越前市",
        "streetName": "不老町第２２号１番地",
        "latitude": 35.9034956,
        "longitude": 136.1688047,
        "id": "4ef07e27-477f-493e-a5fe-85b6513ead99"
    },
    {
        "name": "中山神社",
        "prefectureName": "福井県",
        "cityName": "越前市",
        "streetName": "新堂町第３３号１番地",
        "latitude": 35.9034956,
        "longitude": 136.1688047,
        "id": "493c7332-1b28-4e31-9e8e-3fb32a916d75"
    },
    {
        "name": "中村神社",
        "prefectureName": "福井県",
        "cityName": "福井市",
        "streetName": "中町１７号３３番地",
        "latitude": 36.10231836,
        "longitude": 136.13843355,
        "id": "9d43cf9d-74d0-4c38-bf93-dfb9d98c349f"
    },
    {
        "name": "中野神社",
        "prefectureName": "福井県",
        "cityName": "鯖江市",
        "streetName": "中野町１８２号１番地",
        "latitude": 35.94654911,
        "longitude": 136.21378725,
        "id": "1ae92d35-8752-40bc-a860-066818310b3e"
    },
    {
        "name": "丹生神社",
        "prefectureName": "福井県",
        "cityName": "福井市",
        "streetName": "竹生町１８号１番地",
        "latitude": 36.04616195,
        "longitude": 136.15184539,
        "id": "e665b364-8199-49e3-a45b-552c31b18136"
    },
    {
        "name": "丹生神社",
        "prefectureName": "福井県",
        "cityName": "小浜市",
        "streetName": "太良庄第２２号２番地",
        "latitude": 35.4955816,
        "longitude": 135.7466191,
        "id": "1b68b7d8-f9fc-4142-9428-f3988c7470bc"
    },
    {
        "name": "丹生神社",
        "prefectureName": "福井県",
        "cityName": "三方郡美浜町",
        "streetName": "丹生第３３号８番地",
        "latitude": 35.6005403,
        "longitude": 135.9405287,
        "id": "3b59bcbe-ec22-453e-8fc0-8fe50f5c87d9"
    },
    {
        "name": "久米田神社",
        "prefectureName": "福井県",
        "cityName": "坂井市",
        "streetName": "丸岡町下久米田１号１番地",
        "latitude": 36.1472533,
        "longitude": 136.2764646,
        "id": "355ed170-46a9-4c91-8adf-7e13c89107dc"
    },
    {
        "name": "久豆彌神社",
        "prefectureName": "福井県",
        "cityName": "敦賀市",
        "streetName": "沓見７５号８番地",
        "latitude": 35.63996634,
        "longitude": 136.01522039,
        "id": "9a72e53f-5b21-4001-8baa-2f4485277a74"
    },
    {
        "name": "久須夜神社",
        "prefectureName": "福井県",
        "cityName": "小浜市",
        "streetName": "堅海１０号４番地",
        "latitude": 35.5409799,
        "longitude": 135.72563642,
        "id": "09707400-8534-4d05-b271-224de8635709"
    },
    {
        "name": "久須谷神社",
        "prefectureName": "福井県",
        "cityName": "小浜市",
        "streetName": "宇久５号４番地",
        "latitude": 35.54727155,
        "longitude": 135.75352626,
        "id": "81f4c463-1929-4f5b-a160-c4b74968d38f"
    },
    {
        "name": "亀島神社",
        "prefectureName": "福井県",
        "cityName": "福井市",
        "streetName": "松蔭町２号１番地",
        "latitude": 36.12431669,
        "longitude": 136.05538108,
        "id": "917753ed-b51e-4d11-ae04-e1e82106d6b6"
    },
    {
        "name": "二ノ宮神社",
        "prefectureName": "福井県",
        "cityName": "南条郡南越前町",
        "streetName": "甲楽城７号９番地",
        "latitude": 35.8411748,
        "longitude": 136.04807188,
        "id": "da5aa1de-336e-42d7-a225-a76a5f0e4f90"
    },
    {
        "name": "二十八所神社",
        "prefectureName": "福井県",
        "cityName": "三方上中郡若狭町",
        "streetName": "長江１０号１番地",
        "latitude": 35.49461489,
        "longitude": 135.86598525,
        "id": "586289ba-1bb7-46ed-a378-f83f60b3e352"
    },
    {
        "name": "二宮神社",
        "prefectureName": "福井県",
        "cityName": "福井市",
        "streetName": "市波町２０号８番地",
        "latitude": 36.01762998,
        "longitude": 136.32791528,
        "id": "fbf29ab2-01a1-4e20-9d41-77514cad2853"
    },
    {
        "name": "五皇神社",
        "prefectureName": "福井県",
        "cityName": "越前市",
        "streetName": "文室町第３０号１２番地",
        "latitude": 35.9034956,
        "longitude": 136.1688047,
        "id": "5d883fdb-6092-49d5-9407-f94eddb73348"
    },
    {
        "name": "五社神社",
        "prefectureName": "福井県",
        "cityName": "敦賀市",
        "streetName": "長谷３６号１２番地",
        "latitude": 35.61197529,
        "longitude": 136.04124018,
        "id": "c180014d-777f-4a4f-b2b8-5fc305dcff1c"
    },
    {
        "name": "今井神社",
        "prefectureName": "福井県",
        "cityName": "福井市",
        "streetName": "小羽町２の４４",
        "latitude": 36.03046109,
        "longitude": 136.13921646,
        "id": "e6260b56-4ed5-4962-b65d-329f123a558d"
    },
    {
        "name": "今富神社",
        "prefectureName": "福井県",
        "cityName": "小浜市",
        "streetName": "伏原３４号向山１番地",
        "latitude": 35.4955816,
        "longitude": 135.7466191,
        "id": "d8fa4570-69f6-435b-affe-455636ea7691"
    },
    {
        "name": "伊伎神社",
        "prefectureName": "福井県",
        "cityName": "坂井市",
        "streetName": "三国町池上２５号２番地",
        "latitude": 36.23868185,
        "longitude": 136.1836474,
        "id": "20e743c3-fba8-4d23-bb51-0c25d5bf7ae9"
    },
    {
        "name": "伊射奈伎神社",
        "prefectureName": "福井県",
        "cityName": "大飯郡おおい町",
        "streetName": "福谷４８号７番地",
        "latitude": 35.45261944,
        "longitude": 135.54468851,
        "id": "2e80691c-575c-4485-8700-38327528785c"
    },
    {
        "name": "伊弉册神社",
        "prefectureName": "福井県",
        "cityName": "勝山市",
        "streetName": "村岡町暮見２５号２６番地の３",
        "latitude": 36.08430868,
        "longitude": 136.52649774,
        "id": "b7be35ca-7df1-4283-8e17-c3610ef7d832"
    },
    {
        "name": "伊弉諾神社",
        "prefectureName": "福井県",
        "cityName": "大飯郡高浜町",
        "streetName": "小和田５１号１４番地",
        "latitude": 35.48680099,
        "longitude": 135.49644884,
        "id": "9a9c2796-9c8c-44d6-abe2-b90630e9920b"
    },
    {
        "name": "伊津岐神社",
        "prefectureName": "福井県",
        "cityName": "大飯郡おおい町",
        "streetName": "名田庄井上第１９号３２番地",
        "latitude": 35.4811513,
        "longitude": 135.6177622,
        "id": "6edd41d0-62f4-479b-bf62-a37c12d282a8"
    },
    {
        "name": "伊牟移神社",
        "prefectureName": "福井県",
        "cityName": "三方郡美浜町",
        "streetName": "郷市２５号１６番地",
        "latitude": 35.59981817,
        "longitude": 135.94063705,
        "id": "56d437d6-82ce-4783-89e6-0823ba0aad25"
    },
    {
        "name": "伊良神社",
        "prefectureName": "福井県",
        "cityName": "勝山市",
        "streetName": "北谷町谷８７号中２９外地２番地",
        "latitude": 36.11416062,
        "longitude": 136.56733877,
        "id": "a8ffa7af-7e1c-4f23-b409-eb387fb6f641"
    },
    {
        "name": "住吉神社",
        "prefectureName": "福井県",
        "cityName": "吉田郡永平寺町",
        "streetName": "上浄法寺第１号３番地",
        "latitude": 36.0922281,
        "longitude": 136.2987669,
        "id": "e42ec821-150f-4ef6-ac41-e7fb60f22273"
    },
    {
        "name": "住吉神社",
        "prefectureName": "福井県",
        "cityName": "越前市",
        "streetName": "中津原町７９号２番地",
        "latitude": 35.85410263,
        "longitude": 136.10175752,
        "id": "de89cbb2-637c-4e3d-9d38-dcc61a61bb00"
    },
    {
        "name": "住吉神社",
        "prefectureName": "福井県",
        "cityName": "福井市",
        "streetName": "蓑町６号１５番地",
        "latitude": 36.12772729,
        "longitude": 136.05565589,
        "id": "d1d41bcd-75e7-4d0b-83e5-526c424894e5"
    },
    {
        "name": "住吉神社",
        "prefectureName": "福井県",
        "cityName": "福井市",
        "streetName": "島山梨子町１８号４２番地１",
        "latitude": 36.13326232,
        "longitude": 136.16214977,
        "id": "cbb02b61-b383-4be7-8217-378b97503977"
    },
    {
        "name": "住吉神社",
        "prefectureName": "福井県",
        "cityName": "坂井市",
        "streetName": "春江町高江９号１番地",
        "latitude": 36.12448817,
        "longitude": 136.24405529,
        "id": "13ee5a26-b160-4249-9aa1-e376ca51d54b"
    },
    {
        "name": "住吉神社",
        "prefectureName": "福井県",
        "cityName": "坂井市",
        "streetName": "春江町寄安１０号３８番地",
        "latitude": 36.12245782,
        "longitude": 136.2430777,
        "id": "30fc13a5-c9b1-48bf-a6ce-908b81c9e0bc"
    },
    {
        "name": "住吉神社",
        "prefectureName": "福井県",
        "cityName": "丹生郡越前町",
        "streetName": "金谷第１２号１１番地",
        "latitude": 35.9742018,
        "longitude": 136.1297452,
        "id": "c109cacb-6cb8-48d1-a0bf-35c24a20c989"
    },
    {
        "name": "住吉神社",
        "prefectureName": "福井県",
        "cityName": "福井市",
        "streetName": "味見河内町１８号２４番地・２５番地",
        "latitude": 35.94795047,
        "longitude": 136.44194408,
        "id": "b727b3b1-8f2d-41e3-8d00-e789ba9b9a3b"
    },
    {
        "name": "住吉神社",
        "prefectureName": "福井県",
        "cityName": "福井市",
        "streetName": "原目町５号１７番地",
        "latitude": 36.07629822,
        "longitude": 136.26943721,
        "id": "173b3c32-4366-4621-8439-4d16191c870d"
    },
    {
        "name": "住吉神社",
        "prefectureName": "福井県",
        "cityName": "勝山市",
        "streetName": "遅羽町大袋９号下出３１番地",
        "latitude": 36.03584706,
        "longitude": 136.48589373,
        "id": "31f426a7-d328-4899-82a3-9a8ed0ef6e68"
    },
    {
        "name": "住吉神社",
        "prefectureName": "福井県",
        "cityName": "勝山市",
        "streetName": "北市８号３番地",
        "latitude": 36.04264977,
        "longitude": 136.50875605,
        "id": "6634c7ec-fc18-4c1e-a96b-ddf90fb0b135"
    },
    {
        "name": "住吉神社",
        "prefectureName": "福井県",
        "cityName": "吉田郡永平寺町",
        "streetName": "下浄法寺１４号２３番地",
        "latitude": 36.09715931,
        "longitude": 136.34801844,
        "id": "2f8be2ca-4f5f-402d-acbe-ba3380dc7c5a"
    },
    {
        "name": "佐々牟志神社",
        "prefectureName": "福井県",
        "cityName": "丹生郡越前町",
        "streetName": "佐々生第３０号１番地",
        "latitude": 35.9742018,
        "longitude": 136.1297452,
        "id": "254b2377-72c8-4f28-91a3-42c070bee24d"
    },
    {
        "name": "佐伎治神社",
        "prefectureName": "福井県",
        "cityName": "大飯郡高浜町",
        "streetName": "宮崎第５９号４番地",
        "latitude": 35.4879776,
        "longitude": 135.5458571,
        "id": "9007a033-ed56-4c4a-a56c-08a3ac8bea1a"
    },
    {
        "name": "佐支神社",
        "prefectureName": "福井県",
        "cityName": "三方郡美浜町",
        "streetName": "久々子６号４番地",
        "latitude": 35.60774771,
        "longitude": 135.91121444,
        "id": "66574abd-fb0f-4921-9e14-00fbf87c02b4"
    },
    {
        "name": "依居神社",
        "prefectureName": "福井県",
        "cityName": "大飯郡おおい町",
        "streetName": "岡安第４号７番地",
        "latitude": 35.4811513,
        "longitude": 135.6177622,
        "id": "c135ab8b-06a3-430f-a782-932dd1968836"
    },
    {
        "name": "信主神社",
        "prefectureName": "福井県",
        "cityName": "三方上中郡若狭町",
        "streetName": "三宅第６３号大森２番地",
        "latitude": 35.5489825,
        "longitude": 135.9081062,
        "id": "20d1b192-54f5-4f7f-b5e1-01f570b40209"
    },
    {
        "name": "信社王神社",
        "prefectureName": "福井県",
        "cityName": "坂井市",
        "streetName": "春江町下小森１８号３７番地",
        "latitude": 36.15745172,
        "longitude": 136.18039624,
        "id": "10a27dc0-0a0e-4a72-b5e1-75c610ee5e94"
    },
    {
        "name": "信露貴彦神社",
        "prefectureName": "福井県",
        "cityName": "敦賀市",
        "streetName": "沓見６２号１２番地",
        "latitude": 35.64215217,
        "longitude": 136.01557309,
        "id": "e2dfced5-af22-4418-a28f-77f419a56afd"
    },
    {
        "name": "健速神社",
        "prefectureName": "福井県",
        "cityName": "大野市",
        "streetName": "下唯野字蔭堂屋敷１３番地",
        "latitude": 35.9798156,
        "longitude": 136.4875656,
        "id": "236b572d-f1bd-4a89-80a6-a88b5f52ed73"
    },
    {
        "name": "兄子神社",
        "prefectureName": "福井県",
        "cityName": "越前市",
        "streetName": "安戸町４１号３番地",
        "latitude": 35.87350381,
        "longitude": 136.04152444,
        "id": "1ab54b10-22ad-4c33-b83d-78f08c6fea0a"
    },
    {
        "name": "八坂神社",
        "prefectureName": "福井県",
        "cityName": "越前市",
        "streetName": "天王町５番１７号",
        "latitude": 35.90022099,
        "longitude": 136.16774106,
        "id": "92442d6d-2bb8-4f59-afe5-664e69fde9de"
    },
    {
        "name": "八坂神社",
        "prefectureName": "福井県",
        "cityName": "丹生郡越前町",
        "streetName": "織田第１０１号１８番地",
        "latitude": 35.9742018,
        "longitude": 136.1297452,
        "id": "c42c2b57-b3cc-4088-8e05-0c53c6e94d15"
    },
    {
        "name": "八坂神社",
        "prefectureName": "福井県",
        "cityName": "越前市",
        "streetName": "若竹町３番２０号",
        "latitude": 35.89492719,
        "longitude": 136.16682465,
        "id": "5b4b730f-5672-4894-b811-f6cc35b84016"
    },
    {
        "name": "八坂神社",
        "prefectureName": "福井県",
        "cityName": "丹生郡越前町",
        "streetName": "天王１８号２４番地",
        "latitude": 35.98325604,
        "longitude": 136.12317876,
        "id": "2e109fb1-29a2-4936-8618-9f5ea021e4d6"
    },
    {
        "name": "八坂神社",
        "prefectureName": "福井県",
        "cityName": "福井市",
        "streetName": "引目１４号１６番地",
        "latitude": 36.0643665,
        "longitude": 136.2195965,
        "id": "0e6923f5-1376-4cad-a6ee-9d1dd66662e8"
    },
    {
        "name": "八坂神社",
        "prefectureName": "福井県",
        "cityName": "丹生郡越前町",
        "streetName": "茱原第２１号３９番地",
        "latitude": 35.9742018,
        "longitude": 136.1297452,
        "id": "50a144ef-7f15-4ef9-9610-bf6554c2e120"
    },
    {
        "name": "八坂神社",
        "prefectureName": "福井県",
        "cityName": "福井市",
        "streetName": "定正町１５号２７番地",
        "latitude": 36.1189549,
        "longitude": 136.22900998,
        "id": "949c7dc3-911b-459e-b228-fd6a17f5e437"
    },
    {
        "name": "八坂神社",
        "prefectureName": "福井県",
        "cityName": "あわら市",
        "streetName": "矢地第３１号２４番地",
        "latitude": 36.211344,
        "longitude": 136.2290278,
        "id": "ea3a3f6f-621f-4b6c-8a51-dad84ef2e5a7"
    },
    {
        "name": "八坂神社",
        "prefectureName": "福井県",
        "cityName": "越前市",
        "streetName": "赤谷町第９号２２番地",
        "latitude": 35.9034956,
        "longitude": 136.1688047,
        "id": "cfa8d480-28b3-478f-998f-0f5da1862b91"
    },
    {
        "name": "八坂神社",
        "prefectureName": "福井県",
        "cityName": "福井市",
        "streetName": "網戸瀬１８号１８番地",
        "latitude": 36.0643665,
        "longitude": 136.2195965,
        "id": "d613e961-ca9e-4921-9d09-35f3ca69b898"
    },
    {
        "name": "八坂神社",
        "prefectureName": "福井県",
        "cityName": "坂井市",
        "streetName": "春江町為国西の宮１番地",
        "latitude": 36.12972016,
        "longitude": 136.22514883,
        "id": "914664c3-c32d-4226-82d6-5de6f1442c54"
    },
    {
        "name": "八坂神社",
        "prefectureName": "福井県",
        "cityName": "坂井市",
        "streetName": "丸岡町堀水１１号４７番地",
        "latitude": 36.17540486,
        "longitude": 136.26854743,
        "id": "22d65694-6d4f-40e7-ad01-f58570a7219d"
    },
    {
        "name": "八坂神社",
        "prefectureName": "福井県",
        "cityName": "敦賀市",
        "streetName": "立石字中條５０号２０番地",
        "latitude": 35.75890673,
        "longitude": 136.02327011,
        "id": "930b74d9-cce7-4aed-88b4-15a7c85f4235"
    },
    {
        "name": "八坂神社",
        "prefectureName": "福井県",
        "cityName": "坂井市",
        "streetName": "丸岡町為安第１号１２番地",
        "latitude": 36.1472533,
        "longitude": 136.2764646,
        "id": "43b36d62-2103-4113-9744-4697d86aba96"
    },
    {
        "name": "八坂神社",
        "prefectureName": "福井県",
        "cityName": "大野市",
        "streetName": "森山３１号１０番地甲",
        "latitude": 35.93386793,
        "longitude": 136.52387957,
        "id": "281c803e-ffb2-4817-9858-4a6adfe9e58a"
    },
    {
        "name": "八坂神社",
        "prefectureName": "福井県",
        "cityName": "福井市",
        "streetName": "縫原町１６字前田４２番地",
        "latitude": 36.0047437,
        "longitude": 136.40465535,
        "id": "218a04da-9122-433b-8be7-61657fa176a3"
    },
    {
        "name": "八坂神社",
        "prefectureName": "福井県",
        "cityName": "坂井市",
        "streetName": "丸岡町内田７号１番地",
        "latitude": 36.14728432,
        "longitude": 136.29041587,
        "id": "8be67604-a460-4adb-b02e-8e35b7725c70"
    },
    {
        "name": "八坂神社",
        "prefectureName": "福井県",
        "cityName": "南条郡南越前町",
        "streetName": "八飯第４０号１番地",
        "latitude": 35.8351772,
        "longitude": 136.1944708,
        "id": "d87c3aaa-aed4-46f2-9ee1-c6455d314a50"
    },
    {
        "name": "八幡神社",
        "prefectureName": "福井県",
        "cityName": "福井市",
        "streetName": "西橋屋町４１号２３番地",
        "latitude": 36.13920282,
        "longitude": 136.08151463,
        "id": "bd9c305a-84f2-4cbe-a2ed-19643802f763"
    },
    {
        "name": "八幡神社",
        "prefectureName": "福井県",
        "cityName": "福井市",
        "streetName": "細坂町２９号字大坂１１番地",
        "latitude": 36.0643665,
        "longitude": 136.2195965,
        "id": "67ff99fc-da5e-4522-8886-b690ae555e49"
    },
    {
        "name": "八幡神社",
        "prefectureName": "福井県",
        "cityName": "福井市",
        "streetName": "末広町７号１２番地",
        "latitude": 35.99643921,
        "longitude": 136.20170314,
        "id": "eb02c7bc-f294-4e80-aace-7c0af0c4c148"
    },
    {
        "name": "八幡神社",
        "prefectureName": "福井県",
        "cityName": "坂井市",
        "streetName": "春江町江留下３０号１番地",
        "latitude": 36.12769532,
        "longitude": 136.22274917,
        "id": "346ad030-3d12-4973-bd39-69046fc26b5b"
    },
    {
        "name": "八幡神社",
        "prefectureName": "福井県",
        "cityName": "坂井市",
        "streetName": "春江町江留上３２号７番地の１",
        "latitude": 36.12448817,
        "longitude": 136.24405529,
        "id": "aab63f8d-389c-4e63-8102-a17259e0385a"
    },
    {
        "name": "八幡神社",
        "prefectureName": "福井県",
        "cityName": "福井市",
        "streetName": "北山新保町２７号４１番地",
        "latitude": 36.00371964,
        "longitude": 136.23960021,
        "id": "5e766618-5ee2-42e9-9378-1e402def9bab"
    },
    {
        "name": "八幡神社",
        "prefectureName": "福井県",
        "cityName": "福井市",
        "streetName": "西市布町３１号８番地",
        "latitude": 35.96447058,
        "longitude": 136.39362179,
        "id": "451311e4-df79-4063-8811-714784baaae6"
    },
    {
        "name": "八幡神社",
        "prefectureName": "福井県",
        "cityName": "福井市",
        "streetName": "赤坂町第５２号１５番地",
        "latitude": 36.0008167,
        "longitude": 135.9857289,
        "id": "b7cb3ff6-975d-4724-9da9-ab10f93867c4"
    },
    {
        "name": "八幡神社",
        "prefectureName": "福井県",
        "cityName": "坂井市",
        "streetName": "丸岡町上久米田５番地",
        "latitude": 36.1472533,
        "longitude": 136.2764646,
        "id": "ba82fa03-dace-4fcd-a257-c6212f94070d"
    },
    {
        "name": "八幡神社",
        "prefectureName": "福井県",
        "cityName": "坂井市",
        "streetName": "丸岡町板倉３１号２７番地",
        "latitude": 36.1472533,
        "longitude": 136.2764646,
        "id": "d6f55e63-9c05-4a26-96b7-8a0b2067a136"
    },
    {
        "name": "八幡神社",
        "prefectureName": "福井県",
        "cityName": "坂井市",
        "streetName": "丸岡町大森９号３８番地",
        "latitude": 36.1472533,
        "longitude": 136.2764646,
        "id": "20bb366c-f640-4f46-8f25-b39f83f033b1"
    },
    {
        "name": "八幡神社",
        "prefectureName": "福井県",
        "cityName": "坂井市",
        "streetName": "丸岡町三本木１６号７番地",
        "latitude": 36.1472533,
        "longitude": 136.2764646,
        "id": "a2aaad50-23f7-4235-83f1-5d4b1b2b36ae"
    },
    {
        "name": "八幡神社",
        "prefectureName": "福井県",
        "cityName": "坂井市",
        "streetName": "坂井町御油田７号３０番地",
        "latitude": 36.17556273,
        "longitude": 136.25329345,
        "id": "1e0b1c44-8838-42bf-b9c4-d385e45fca8a"
    },
    {
        "name": "八幡神社",
        "prefectureName": "福井県",
        "cityName": "あわら市",
        "streetName": "稲越第３７号１番地",
        "latitude": 36.211344,
        "longitude": 136.2290278,
        "id": "166e159f-5e43-43cc-9a10-52e7b3d992e6"
    },
    {
        "name": "八幡神社",
        "prefectureName": "福井県",
        "cityName": "あわら市",
        "streetName": "次郎丸第１０号４３番地",
        "latitude": 36.211344,
        "longitude": 136.2290278,
        "id": "507fdbde-ccdc-464a-aa5d-958b39173b8a"
    },
    {
        "name": "八幡神社",
        "prefectureName": "福井県",
        "cityName": "大野市",
        "streetName": "中荒井２２号４２番地",
        "latitude": 35.99299217,
        "longitude": 136.4937679,
        "id": "646a329f-82bd-409a-8e21-c603af3b0de7"
    },
    {
        "name": "八幡神社",
        "prefectureName": "福井県",
        "cityName": "大野市",
        "streetName": "牛ケ原３字新堂５番地",
        "latitude": 35.9798156,
        "longitude": 136.4875656,
        "id": "b2c47c96-7f46-4e33-9aca-b2c3eadc984e"
    },
    {
        "name": "八幡神社",
        "prefectureName": "福井県",
        "cityName": "敦賀市",
        "streetName": "名子字宮の上１３号２４番地",
        "latitude": 35.6452468,
        "longitude": 136.0554435,
        "id": "ecd401e8-2d53-4019-9428-a43073d83d58"
    },
    {
        "name": "八幡神社",
        "prefectureName": "福井県",
        "cityName": "敦賀市",
        "streetName": "赤崎２９号２番地",
        "latitude": 35.68864572,
        "longitude": 136.08491298,
        "id": "131453b5-153a-41fb-977d-599b526fca82"
    },
    {
        "name": "八幡神社",
        "prefectureName": "福井県",
        "cityName": "三方上中郡若狭町",
        "streetName": "塩坂越４号１番地",
        "latitude": 35.5489825,
        "longitude": 135.9081062,
        "id": "5f3756f2-991e-45ea-bb5d-f5459c70c96a"
    },
    {
        "name": "八幡神社",
        "prefectureName": "福井県",
        "cityName": "三方上中郡若狭町",
        "streetName": "三田４１号１番地",
        "latitude": 35.50921641,
        "longitude": 135.87273197,
        "id": "a15f0739-d366-4282-bb71-c6471460cf8f"
    },
    {
        "name": "八幡神社",
        "prefectureName": "福井県",
        "cityName": "越前市",
        "streetName": "中野町５号１０番地",
        "latitude": 35.89316552,
        "longitude": 136.04882859,
        "id": "78c4d1cf-1b9e-484c-8fb9-2f0c7fe73c90"
    },
    {
        "name": "八幡神社",
        "prefectureName": "福井県",
        "cityName": "南条郡南越前町",
        "streetName": "久喜第１１号１１番地",
        "latitude": 35.8351772,
        "longitude": 136.1944708,
        "id": "a255ef3c-dfb4-4794-909a-82aa20a21f22"
    },
    {
        "name": "八幡神社",
        "prefectureName": "福井県",
        "cityName": "南条郡南越前町",
        "streetName": "八田１号１７番地",
        "latitude": 35.85239847,
        "longitude": 136.05330144,
        "id": "0593c588-1b66-44dd-81e8-2cd2bcb4ba5d"
    },
    {
        "name": "八幡神社",
        "prefectureName": "福井県",
        "cityName": "今立郡池田町",
        "streetName": "安善寺１４号４番地１",
        "latitude": 35.8905495,
        "longitude": 136.3440012,
        "id": "128fdf79-c188-4e06-8f88-e1616ed9afc9"
    },
    {
        "name": "八幡神社",
        "prefectureName": "福井県",
        "cityName": "今立郡池田町",
        "streetName": "西角間３４号１８番地",
        "latitude": 35.86514983,
        "longitude": 136.31972645,
        "id": "7ad67eae-930c-416b-bb43-ed0cddb0e11a"
    },
    {
        "name": "八幡神社",
        "prefectureName": "福井県",
        "cityName": "丹生郡越前町",
        "streetName": "中大王丸入会第２６号１番地",
        "latitude": 35.9742018,
        "longitude": 136.1297452,
        "id": "97359705-ffea-44e2-a381-4696be70aa59"
    },
    {
        "name": "八幡神社",
        "prefectureName": "福井県",
        "cityName": "丹生郡越前町",
        "streetName": "増谷第１２号１１番地",
        "latitude": 35.9742018,
        "longitude": 136.1297452,
        "id": "dfc016bd-92d0-4552-9e8d-d7090126935f"
    },
    {
        "name": "八幡神社",
        "prefectureName": "福井県",
        "cityName": "丹生郡越前町",
        "streetName": "小川３０号１番地",
        "latitude": 36.00558788,
        "longitude": 136.0654149,
        "id": "d17991ce-5e88-48aa-ab70-39e40a37d984"
    },
    {
        "name": "八幡神社",
        "prefectureName": "福井県",
        "cityName": "鯖江市",
        "streetName": "乙坂今北町第２９号４番地",
        "latitude": 35.9565524,
        "longitude": 136.1844733,
        "id": "683d4d10-0622-4ab7-a566-9e1a0dbb2318"
    },
    {
        "name": "八幡神社",
        "prefectureName": "福井県",
        "cityName": "小浜市",
        "streetName": "和久里第２３号１６番地",
        "latitude": 35.4955816,
        "longitude": 135.7466191,
        "id": "75c60a2d-951f-407e-b9b0-d894c4dcd31b"
    },
    {
        "name": "八幡神社",
        "prefectureName": "福井県",
        "cityName": "福井市",
        "streetName": "八幡町３１号３３番地",
        "latitude": 36.12769576,
        "longitude": 136.14331064,
        "id": "8f1fd2c6-6658-4819-88c6-7d1268236d92"
    },
    {
        "name": "八幡神社",
        "prefectureName": "福井県",
        "cityName": "福井市",
        "streetName": "海老助町",
        "latitude": 36.08787702,
        "longitude": 136.18862021,
        "id": "1d757a79-b4c8-4fa3-a95f-38c085dba245"
    },
    {
        "name": "八幡神社",
        "prefectureName": "福井県",
        "cityName": "福井市",
        "streetName": "片粕町６１号４９番地",
        "latitude": 36.04699814,
        "longitude": 136.167738,
        "id": "db5bfee0-de64-4991-9d64-598b52ab0faa"
    },
    {
        "name": "八幡神社",
        "prefectureName": "福井県",
        "cityName": "福井市",
        "streetName": "生野町１９号１番地",
        "latitude": 35.98699094,
        "longitude": 136.21226066,
        "id": "489a0363-e002-4efa-815c-0fb3640cfa46"
    },
    {
        "name": "八幡神社",
        "prefectureName": "福井県",
        "cityName": "福井市",
        "streetName": "南四ツ居１丁目６番３４号",
        "latitude": 36.06149278,
        "longitude": 136.24488651,
        "id": "105b71e3-5c95-4a10-b2b8-e21061d2b4a6"
    },
    {
        "name": "八幡神社",
        "prefectureName": "福井県",
        "cityName": "坂井市",
        "streetName": "春江町針原３７号３番地",
        "latitude": 36.12448817,
        "longitude": 136.24405529,
        "id": "ee4f92d4-03af-4956-9f9f-b30afb6cd4d7"
    },
    {
        "name": "八幡神社",
        "prefectureName": "福井県",
        "cityName": "坂井市",
        "streetName": "春江町江留中１０号６番地",
        "latitude": 36.13826876,
        "longitude": 136.21181367,
        "id": "c9634abf-10fe-4bf1-bcb4-32e360ac4155"
    },
    {
        "name": "八幡神社",
        "prefectureName": "福井県",
        "cityName": "福井市",
        "streetName": "二上町２０号３０番地",
        "latitude": 36.00063373,
        "longitude": 136.22506489,
        "id": "8d7516dc-e6e5-477f-bd69-52cd4ea6abfe"
    },
    {
        "name": "八幡神社",
        "prefectureName": "福井県",
        "cityName": "福井市",
        "streetName": "中手町２０号２７番地",
        "latitude": 35.95953495,
        "longitude": 136.41510289,
        "id": "62ef7b3f-c39b-401f-b6bc-e3fff373a2b9"
    },
    {
        "name": "八幡神社",
        "prefectureName": "福井県",
        "cityName": "坂井市",
        "streetName": "丸岡町熊堂１号１７６番地",
        "latitude": 36.11103032,
        "longitude": 136.27058612,
        "id": "19798293-e34e-4086-a14b-608ebf8135f0"
    },
    {
        "name": "八幡神社",
        "prefectureName": "福井県",
        "cityName": "坂井市",
        "streetName": "丸岡町末政４号５１番地",
        "latitude": 36.1472533,
        "longitude": 136.2764646,
        "id": "166a30a7-56a3-44e9-92c9-ad218ff7b742"
    },
    {
        "name": "八幡神社",
        "prefectureName": "福井県",
        "cityName": "坂井市",
        "streetName": "丸岡町長崎１８号１４番地",
        "latitude": 36.1472533,
        "longitude": 136.2764646,
        "id": "d0cf9d07-9950-4a57-a2b8-2c89e67d032c"
    },
    {
        "name": "八幡神社",
        "prefectureName": "福井県",
        "cityName": "坂井市",
        "streetName": "丸岡町伏屋１１号４０番地",
        "latitude": 36.15652742,
        "longitude": 136.28714909,
        "id": "ea5dcee4-12f1-42a7-8708-6b3b9f618bb2"
    },
    {
        "name": "八幡神社",
        "prefectureName": "福井県",
        "cityName": "坂井市",
        "streetName": "坂井町五本１９号１１番地",
        "latitude": 36.18534066,
        "longitude": 136.19412089,
        "id": "d71d9775-b533-4e1d-a984-a9f77d761d93"
    },
    {
        "name": "八幡神社",
        "prefectureName": "福井県",
        "cityName": "あわら市",
        "streetName": "坂口第４号８番地",
        "latitude": 36.211344,
        "longitude": 136.2290278,
        "id": "b9ee7e77-0c4d-47bf-bcb0-0e6e696efd23"
    },
    {
        "name": "八幡神社",
        "prefectureName": "福井県",
        "cityName": "あわら市",
        "streetName": "御簾尾第３号４８番地",
        "latitude": 36.211344,
        "longitude": 136.2290278,
        "id": "582516a7-caff-4a72-834e-5cbf28f9df52"
    },
    {
        "name": "八幡神社",
        "prefectureName": "福井県",
        "cityName": "大野市",
        "streetName": "御給１９号２４番地",
        "latitude": 35.95901203,
        "longitude": 136.54033092,
        "id": "9fd25920-6023-463f-a904-534c47a7ee77"
    },
    {
        "name": "八幡神社",
        "prefectureName": "福井県",
        "cityName": "大野市",
        "streetName": "牛ケ原字稲荷山１４７号３４番地",
        "latitude": 35.9798156,
        "longitude": 136.4875656,
        "id": "a175fd0c-95ea-444a-b84d-a1dd385c7185"
    },
    {
        "name": "八幡神社",
        "prefectureName": "福井県",
        "cityName": "敦賀市",
        "streetName": "沓見９０号２０番地",
        "latitude": 35.6452468,
        "longitude": 136.0554435,
        "id": "45b82d4d-aa00-4093-96f0-758bb86be529"
    },
    {
        "name": "八幡神社",
        "prefectureName": "福井県",
        "cityName": "敦賀市",
        "streetName": "小河字遠山１８番地",
        "latitude": 35.6452468,
        "longitude": 136.0554435,
        "id": "e441ba65-8d68-42c9-a913-b00b326d995f"
    },
    {
        "name": "八幡神社",
        "prefectureName": "福井県",
        "cityName": "三方上中郡若狭町",
        "streetName": "東黒田７号３番地",
        "latitude": 35.52342339,
        "longitude": 135.88567267,
        "id": "805ac572-0f71-4a94-8a72-57e4423734bd"
    },
    {
        "name": "八幡神社",
        "prefectureName": "福井県",
        "cityName": "三方上中郡若狭町",
        "streetName": "上黒田８号１番地",
        "latitude": 35.5489825,
        "longitude": 135.9081062,
        "id": "251e3b78-1eae-4d8c-ba15-2aa967d2441e"
    },
    {
        "name": "八幡神社",
        "prefectureName": "福井県",
        "cityName": "越前市",
        "streetName": "小杉町９号３６番地",
        "latitude": 35.90506429,
        "longitude": 136.05303882,
        "id": "b04b134a-75be-40f7-a680-5016f1541045"
    },
    {
        "name": "八幡神社",
        "prefectureName": "福井県",
        "cityName": "越前市",
        "streetName": "戸谷町第９０号４番地",
        "latitude": 35.9034956,
        "longitude": 136.1688047,
        "id": "f2ffaba5-6d54-4927-aa6e-2a0e7fef77ff"
    },
    {
        "name": "八幡神社",
        "prefectureName": "福井県",
        "cityName": "南条郡南越前町",
        "streetName": "宇津尾２６号２５番地",
        "latitude": 35.73016708,
        "longitude": 136.22687402,
        "id": "0c133812-b18e-4bbd-b8fa-5b72d5ae4a88"
    },
    {
        "name": "八幡神社",
        "prefectureName": "福井県",
        "cityName": "南条郡南越前町",
        "streetName": "菅谷１２号１番地",
        "latitude": 35.8351772,
        "longitude": 136.1944708,
        "id": "c19df207-82b8-48b2-ab72-8c3d567f3e22"
    },
    {
        "name": "八幡神社",
        "prefectureName": "福井県",
        "cityName": "越前市",
        "streetName": "藤木町第９号５番地",
        "latitude": 35.9034956,
        "longitude": 136.1688047,
        "id": "ee0954d9-0e87-4857-bfc1-717b9cd51203"
    },
    {
        "name": "八幡神社",
        "prefectureName": "福井県",
        "cityName": "今立郡池田町",
        "streetName": "持越１６号１４番地",
        "latitude": 35.92841984,
        "longitude": 136.3542876,
        "id": "13e82a13-d791-4a5e-bc2d-2745633b5119"
    },
    {
        "name": "八幡神社",
        "prefectureName": "福井県",
        "cityName": "今立郡池田町",
        "streetName": "金見谷２４号１４番地",
        "latitude": 35.90788712,
        "longitude": 136.38457639,
        "id": "31412439-abf0-40c5-8c79-395b1a343221"
    },
    {
        "name": "八幡神社",
        "prefectureName": "福井県",
        "cityName": "丹生郡越前町",
        "streetName": "広野第３５号３番地",
        "latitude": 35.9742018,
        "longitude": 136.1297452,
        "id": "7bc65352-e87a-4a19-a4c0-0bfec26632f3"
    },
    {
        "name": "八幡神社",
        "prefectureName": "福井県",
        "cityName": "鯖江市",
        "streetName": "乙坂今北町第３０号２４番地",
        "latitude": 35.9565524,
        "longitude": 136.1844733,
        "id": "b42e7bd7-63a4-4f97-aeee-271291ddd119"
    },
    {
        "name": "八幡神社",
        "prefectureName": "福井県",
        "cityName": "小浜市",
        "streetName": "小浜男山１０番地",
        "latitude": 35.49223446,
        "longitude": 135.74009758,
        "id": "5173e954-b0f6-4f36-92bd-e4b48adf614f"
    },
    {
        "name": "八幡神社",
        "prefectureName": "福井県",
        "cityName": "大飯郡おおい町",
        "streetName": "名田庄槙谷１９号宮ノ下２・３番地",
        "latitude": 35.4811513,
        "longitude": 135.6177622,
        "id": "f499b257-cd01-4999-995f-b720ed26c6ab"
    },
    {
        "name": "八幡神社",
        "prefectureName": "福井県",
        "cityName": "福井市",
        "streetName": "堅達町５号５６番地",
        "latitude": 36.0643665,
        "longitude": 136.2195965,
        "id": "f6e28642-8ef6-44ef-addf-f3dc0e12e8f4"
    },
    {
        "name": "八幡神社",
        "prefectureName": "福井県",
        "cityName": "福井市",
        "streetName": "清水町９号１番地",
        "latitude": 36.05660524,
        "longitude": 136.15597562,
        "id": "be9a53f2-6c47-40a8-ba7a-3eb389aecf0c"
    },
    {
        "name": "八幡神社",
        "prefectureName": "福井県",
        "cityName": "福井市",
        "streetName": "四ツ井１丁目２４番４号",
        "latitude": 36.06648644,
        "longitude": 136.23866175,
        "id": "c3fc9bca-c672-403c-94c9-2aafed06410e"
    },
    {
        "name": "八幡神社",
        "prefectureName": "福井県",
        "cityName": "坂井市",
        "streetName": "春江町針原西２３号１９番地",
        "latitude": 36.12448817,
        "longitude": 136.24405529,
        "id": "df6701a7-0bda-45ed-8068-83ae14e9fe59"
    },
    {
        "name": "八幡神社",
        "prefectureName": "福井県",
        "cityName": "坂井市",
        "streetName": "春江町境元町７番地１",
        "latitude": 36.13147549,
        "longitude": 136.2248321,
        "id": "c494a4da-7716-49b8-b773-d7ee280757c2"
    },
    {
        "name": "八幡神社",
        "prefectureName": "福井県",
        "cityName": "福井市",
        "streetName": "徳光町３４号４３番地",
        "latitude": 36.00769694,
        "longitude": 136.24516665,
        "id": "c7207434-fbc5-4147-99e2-23fc874e3f3f"
    },
    {
        "name": "八幡神社",
        "prefectureName": "福井県",
        "cityName": "福井市",
        "streetName": "東河原町４０号１４１番地",
        "latitude": 35.99254242,
        "longitude": 136.44741739,
        "id": "28179d4b-ee19-4030-a68f-c8d4f857bdcd"
    },
    {
        "name": "八幡神社",
        "prefectureName": "福井県",
        "cityName": "福井市",
        "streetName": "城有町第３１号１番地",
        "latitude": 36.0643665,
        "longitude": 136.2195965,
        "id": "92111064-db67-4db1-aeeb-c9cc1c5cd6b7"
    },
    {
        "name": "八幡神社",
        "prefectureName": "福井県",
        "cityName": "坂井市",
        "streetName": "丸岡町安田新２１号３３番地",
        "latitude": 36.1472533,
        "longitude": 136.2764646,
        "id": "c23d786c-2ea3-44f1-90cf-ab9a8dfcf53b"
    },
    {
        "name": "八幡神社",
        "prefectureName": "福井県",
        "cityName": "坂井市",
        "streetName": "丸岡町長崎高瀬８号２２番地",
        "latitude": 36.1472533,
        "longitude": 136.2764646,
        "id": "05a5b86f-07c0-4041-bce8-04188e74a0f9"
    },
    {
        "name": "八幡神社",
        "prefectureName": "福井県",
        "cityName": "坂井市",
        "streetName": "丸岡町八ッ口８号１０番地",
        "latitude": 36.1472533,
        "longitude": 136.2764646,
        "id": "146d57ed-2238-4f5c-adfc-198ef24905d8"
    },
    {
        "name": "八幡神社",
        "prefectureName": "福井県",
        "cityName": "坂井市",
        "streetName": "丸岡町千田８号２７番地",
        "latitude": 36.17043604,
        "longitude": 136.26757554,
        "id": "0bf73ada-4463-4b40-8661-8a91a92df747"
    },
    {
        "name": "八幡神社",
        "prefectureName": "福井県",
        "cityName": "坂井市",
        "streetName": "坂井町若宮２８号１５番地",
        "latitude": 36.15429822,
        "longitude": 136.23954594,
        "id": "3e55bacb-3b4f-43b2-8fff-bb5d774419ff"
    },
    {
        "name": "八幡神社",
        "prefectureName": "福井県",
        "cityName": "あわら市",
        "streetName": "宮谷第１８号１７番地",
        "latitude": 36.211344,
        "longitude": 136.2290278,
        "id": "e4832377-2c54-4d7a-b423-66fafd235fe1"
    },
    {
        "name": "八幡神社",
        "prefectureName": "福井県",
        "cityName": "あわら市",
        "streetName": "北疋田第１８号２７番地",
        "latitude": 36.211344,
        "longitude": 136.2290278,
        "id": "2fa9d907-6f9d-434c-a87b-1d5abbf1f260"
    },
    {
        "name": "八幡神社",
        "prefectureName": "福井県",
        "cityName": "あわら市",
        "streetName": "椚第３６号１９番地",
        "latitude": 36.211344,
        "longitude": 136.2290278,
        "id": "20d59daa-2211-46d0-a5d7-2366676d881e"
    },
    {
        "name": "八幡神社",
        "prefectureName": "福井県",
        "cityName": "大野市",
        "streetName": "友兼字八幡１３番地",
        "latitude": 35.9798156,
        "longitude": 136.4875656,
        "id": "4e34ec9d-7724-48d3-a77a-286dcd8b151f"
    },
    {
        "name": "八幡神社",
        "prefectureName": "福井県",
        "cityName": "大野市",
        "streetName": "小矢戸字狐堂４０番地",
        "latitude": 35.9798156,
        "longitude": 136.4875656,
        "id": "75c90ef2-4ba1-4f5f-9af3-4f318a22cb11"
    },
    {
        "name": "八幡神社",
        "prefectureName": "福井県",
        "cityName": "勝山市",
        "streetName": "鹿谷町杉俣２６号南山３６番地",
        "latitude": 36.0609446,
        "longitude": 136.500584,
        "id": "5f278685-f1e7-4790-a950-b075c7d058c8"
    },
    {
        "name": "八幡神社",
        "prefectureName": "福井県",
        "cityName": "敦賀市",
        "streetName": "沓字松の木２１号１２番地",
        "latitude": 35.6452468,
        "longitude": 136.0554435,
        "id": "9f0f8fa6-fe52-4668-a63c-c9324d1d1774"
    },
    {
        "name": "八幡神社",
        "prefectureName": "福井県",
        "cityName": "敦賀市",
        "streetName": "吉河宮の下３番地",
        "latitude": 35.6452468,
        "longitude": 136.0554435,
        "id": "07505352-7bdb-449d-b873-a3418cf58ef8"
    },
    {
        "name": "八幡神社",
        "prefectureName": "福井県",
        "cityName": "敦賀市",
        "streetName": "谷字屋敷１２号５番地",
        "latitude": 35.6452468,
        "longitude": 136.0554435,
        "id": "65fc73e3-f821-4329-b47a-4cc4177a2cf5"
    },
    {
        "name": "八幡神社",
        "prefectureName": "福井県",
        "cityName": "越前市",
        "streetName": "北山町２９号６番地",
        "latitude": 35.91704827,
        "longitude": 136.13617196,
        "id": "872b23ae-d16a-4933-bade-5d5a1cebf08c"
    },
    {
        "name": "八幡神社",
        "prefectureName": "福井県",
        "cityName": "越前市",
        "streetName": "塚町２０号９番地",
        "latitude": 35.91544468,
        "longitude": 136.19678713,
        "id": "7daebed7-9f25-48a1-b3b8-79dc4ddbbcbc"
    },
    {
        "name": "八幡神社",
        "prefectureName": "福井県",
        "cityName": "越前市",
        "streetName": "宮谷町４７号１３番地",
        "latitude": 35.9034956,
        "longitude": 136.1688047,
        "id": "b0edf3c2-6955-4653-be2c-99e985df04bc"
    },
    {
        "name": "八幡神社",
        "prefectureName": "福井県",
        "cityName": "南条郡南越前町",
        "streetName": "河野２１番地",
        "latitude": 35.82234513,
        "longitude": 136.0736918,
        "id": "a12b8c2c-c0c7-4575-86b1-e0e3c0054f1b"
    },
    {
        "name": "八幡神社",
        "prefectureName": "福井県",
        "cityName": "越前市",
        "streetName": "相木町第９号６番地",
        "latitude": 35.9034956,
        "longitude": 136.1688047,
        "id": "b9c7993d-cedc-461e-b187-1c84faff300d"
    },
    {
        "name": "八幡神社",
        "prefectureName": "福井県",
        "cityName": "今立郡池田町",
        "streetName": "千代谷１６号３番地",
        "latitude": 35.93148994,
        "longitude": 136.38103179,
        "id": "de7d59e2-32ed-4bbf-9c94-681d84f3a82d"
    },
    {
        "name": "八幡神社",
        "prefectureName": "福井県",
        "cityName": "今立郡池田町",
        "streetName": "稲荷４４号３番地１",
        "latitude": 35.88537821,
        "longitude": 136.34544567,
        "id": "ed25df61-abba-4f49-9316-ef2e452f0b19"
    },
    {
        "name": "八幡神社",
        "prefectureName": "福井県",
        "cityName": "丹生郡越前町",
        "streetName": "寺第２７号５７番地",
        "latitude": 35.9742018,
        "longitude": 136.1297452,
        "id": "110d9f28-b403-4de6-9a59-46a5e27cdea9"
    },
    {
        "name": "八幡神社",
        "prefectureName": "福井県",
        "cityName": "丹生郡越前町",
        "streetName": "小倉９０号６４番地",
        "latitude": 35.9742018,
        "longitude": 136.1297452,
        "id": "73885f65-d340-4497-9c76-fbc69a9676c1"
    },
    {
        "name": "八幡神社",
        "prefectureName": "福井県",
        "cityName": "鯖江市",
        "streetName": "漆原町２６号４０番地",
        "latitude": 35.94179508,
        "longitude": 136.14328706,
        "id": "331174be-e29b-4cfb-9234-94ba37efd8c0"
    },
    {
        "name": "八幡神社",
        "prefectureName": "福井県",
        "cityName": "小浜市",
        "streetName": "下根来５８号１番地",
        "latitude": 35.43746679,
        "longitude": 135.78236593,
        "id": "63ef83af-c00a-485d-9657-641743dca923"
    },
    {
        "name": "八幡神社",
        "prefectureName": "福井県",
        "cityName": "大飯郡おおい町",
        "streetName": "広岡１５号１４番地",
        "latitude": 35.46076087,
        "longitude": 135.5908937,
        "id": "56e19dbe-3c4d-413f-ad0a-46d040572eaf"
    },
    {
        "name": "八幡神社",
        "prefectureName": "福井県",
        "cityName": "福井市",
        "streetName": "島橋町１号８番地",
        "latitude": 36.08931958,
        "longitude": 136.27749436,
        "id": "c61930de-0531-43c0-bccc-4418e8a49134"
    },
    {
        "name": "八幡神社",
        "prefectureName": "福井県",
        "cityName": "福井市",
        "streetName": "栗森町５号２８番地",
        "latitude": 36.0643665,
        "longitude": 136.2195965,
        "id": "cdaa50b1-00e7-48a0-8767-e48468105e3e"
    },
    {
        "name": "八幡神社",
        "prefectureName": "福井県",
        "cityName": "福井市",
        "streetName": "森行町２７号１０番地",
        "latitude": 35.99292854,
        "longitude": 136.19917858,
        "id": "df4ae02d-0674-4fc1-accd-572ea1fe0903"
    },
    {
        "name": "八幡神社",
        "prefectureName": "福井県",
        "cityName": "福井市",
        "streetName": "安竹町１５号５３番地",
        "latitude": 36.09792599,
        "longitude": 136.19156984,
        "id": "2786efef-e96a-4d8a-b575-08fb7e1937e9"
    },
    {
        "name": "八幡神社",
        "prefectureName": "福井県",
        "cityName": "坂井市",
        "streetName": "春江町針原平柳３２号２１甲・３２号２１乙",
        "latitude": 36.12448817,
        "longitude": 136.24405529,
        "id": "68e5a4f7-fea6-4d7c-8449-07021b69a5d9"
    },
    {
        "name": "八幡神社",
        "prefectureName": "福井県",
        "cityName": "坂井市",
        "streetName": "春江町本堂１号３０番地",
        "latitude": 36.13890748,
        "longitude": 136.20797515,
        "id": "87287863-25fb-4776-9785-e68e86ea8df8"
    },
    {
        "name": "八幡神社",
        "prefectureName": "福井県",
        "cityName": "福井市",
        "streetName": "鹿俣町６５号４６番地",
        "latitude": 36.0643665,
        "longitude": 136.2195965,
        "id": "29b32589-745c-4355-9680-53648317e4e3"
    },
    {
        "name": "八幡神社",
        "prefectureName": "福井県",
        "cityName": "福井市",
        "streetName": "大宮町２７字茶山６番地",
        "latitude": 36.00105526,
        "longitude": 136.41147136,
        "id": "4901c98a-f88c-453d-9362-eb15695b8993"
    },
    {
        "name": "八幡神社",
        "prefectureName": "福井県",
        "cityName": "坂井市",
        "streetName": "丸岡町高柳１１号４番地１",
        "latitude": 36.1472533,
        "longitude": 136.2764646,
        "id": "23d77299-fd5b-4846-86cc-d9daefd7a6e4"
    },
    {
        "name": "八幡神社",
        "prefectureName": "福井県",
        "cityName": "坂井市",
        "streetName": "丸岡町長崎１３号１８番地",
        "latitude": 36.1472533,
        "longitude": 136.2764646,
        "id": "ed16a477-7838-4023-9f8c-9f7a942302d3"
    },
    {
        "name": "八幡神社",
        "prefectureName": "福井県",
        "cityName": "坂井市",
        "streetName": "丸岡町曽々木４０号３番地",
        "latitude": 36.14851761,
        "longitude": 136.29454593,
        "id": "0706ceb9-5f63-4110-9e1c-40286c5a3907"
    },
    {
        "name": "八幡神社",
        "prefectureName": "福井県",
        "cityName": "坂井市",
        "streetName": "坂井町東長田３１号８番地",
        "latitude": 36.15369763,
        "longitude": 136.22003129,
        "id": "6594c194-4a6f-413b-9b5c-c920f3cfec9d"
    },
    {
        "name": "八幡神社",
        "prefectureName": "福井県",
        "cityName": "あわら市",
        "streetName": "花乃杜３丁目１番１号",
        "latitude": 36.21837355,
        "longitude": 136.22170068,
        "id": "14eb0781-a55c-4982-84f5-a594e6d93cfe"
    },
    {
        "name": "八幡神社",
        "prefectureName": "福井県",
        "cityName": "あわら市",
        "streetName": "山室第３９号２１番地",
        "latitude": 36.211344,
        "longitude": 136.2290278,
        "id": "8dd3c9ef-0486-4ae6-a78d-e7ed55658665"
    },
    {
        "name": "八幡神社",
        "prefectureName": "福井県",
        "cityName": "あわら市",
        "streetName": "清滝第５５号２番地の１",
        "latitude": 36.211344,
        "longitude": 136.2290278,
        "id": "13113e63-1b52-4ea6-9f02-06edf1323fed"
    },
    {
        "name": "八幡神社",
        "prefectureName": "福井県",
        "cityName": "あわら市",
        "streetName": "番堂野第１５号３番地",
        "latitude": 36.211344,
        "longitude": 136.2290278,
        "id": "807c78ac-e26a-4b99-8bbd-1ee4f95a5d51"
    },
    {
        "name": "八幡神社",
        "prefectureName": "福井県",
        "cityName": "大野市",
        "streetName": "稲郷４３号１９番地",
        "latitude": 35.94876041,
        "longitude": 136.52369049,
        "id": "c97fb0f0-c90e-43a3-b127-12d6b7e42e42"
    },
    {
        "name": "八幡神社",
        "prefectureName": "福井県",
        "cityName": "大野市",
        "streetName": "西勝原１０号９番地",
        "latitude": 35.96689504,
        "longitude": 136.59730637,
        "id": "c490dd71-7088-48cf-a25d-09a59d09222e"
    },
    {
        "name": "八幡神社",
        "prefectureName": "福井県",
        "cityName": "勝山市",
        "streetName": "鹿谷町志田字若宮４６番地",
        "latitude": 36.0609446,
        "longitude": 136.500584,
        "id": "b9c02c2c-0049-4b35-b6f4-67eb2aada60c"
    },
    {
        "name": "八幡神社",
        "prefectureName": "福井県",
        "cityName": "敦賀市",
        "streetName": "三島字八幡６番地",
        "latitude": 35.63602557,
        "longitude": 136.05615492,
        "id": "f6984fa6-1def-4ceb-9b29-1a18dd9ab0af"
    },
    {
        "name": "八幡神社",
        "prefectureName": "福井県",
        "cityName": "敦賀市",
        "streetName": "鳩原字前田４番地",
        "latitude": 35.6452468,
        "longitude": 136.0554435,
        "id": "44bbc8c8-1f26-421e-ae7c-d5bf40b0e6b0"
    },
    {
        "name": "八幡神社",
        "prefectureName": "福井県",
        "cityName": "敦賀市",
        "streetName": "樫曲字稲荷４号１３番地",
        "latitude": 35.6452468,
        "longitude": 136.0554435,
        "id": "83f49520-bd39-4741-b55c-5cb3ff94a76a"
    },
    {
        "name": "八幡神社",
        "prefectureName": "福井県",
        "cityName": "三方郡美浜町",
        "streetName": "新庄第５０号字寄積１０番地",
        "latitude": 35.6005403,
        "longitude": 135.9405287,
        "id": "c1c0e3ca-27ba-4046-80f2-e99327d23b4f"
    },
    {
        "name": "八幡神社",
        "prefectureName": "福井県",
        "cityName": "三方上中郡若狭町",
        "streetName": "末野７号１番地",
        "latitude": 35.5489825,
        "longitude": 135.9081062,
        "id": "ad2447d6-9ac0-46f0-9f67-f3c0d957af42"
    },
    {
        "name": "八幡神社",
        "prefectureName": "福井県",
        "cityName": "越前市",
        "streetName": "春日野町１２３号２番地",
        "latitude": 35.9034956,
        "longitude": 136.1688047,
        "id": "687243a8-f964-4f18-9fa4-8ac360a071f9"
    },
    {
        "name": "八幡神社",
        "prefectureName": "福井県",
        "cityName": "越前市",
        "streetName": "高瀬１丁目２２番１６号",
        "latitude": 35.89557134,
        "longitude": 136.15981154,
        "id": "cc63f29c-2443-42a9-95ad-648976281734"
    },
    {
        "name": "八幡神社",
        "prefectureName": "福井県",
        "cityName": "越前市",
        "streetName": "住吉町５番１５号",
        "latitude": 35.89831576,
        "longitude": 136.17058524,
        "id": "65956de3-c5d1-45da-8394-6332a2990cca"
    },
    {
        "name": "八幡神社",
        "prefectureName": "福井県",
        "cityName": "南条郡南越前町",
        "streetName": "具谷８号４番地",
        "latitude": 35.83507189,
        "longitude": 136.11958098,
        "id": "0ff92d82-3858-42d1-90f6-9049c457e551"
    },
    {
        "name": "八幡神社",
        "prefectureName": "福井県",
        "cityName": "越前市",
        "streetName": "朽飯町第２１号３３番地",
        "latitude": 35.9034956,
        "longitude": 136.1688047,
        "id": "3d777bcd-09a3-4387-afbd-32ad93ea11a1"
    },
    {
        "name": "八幡神社",
        "prefectureName": "福井県",
        "cityName": "今立郡池田町",
        "streetName": "谷口３５号１０番地",
        "latitude": 35.90470345,
        "longitude": 136.35837962,
        "id": "c990c897-3d3b-4f6a-8a60-8e543200e3de"
    },
    {
        "name": "八幡神社",
        "prefectureName": "福井県",
        "cityName": "今立郡池田町",
        "streetName": "魚見１３４号１０番地",
        "latitude": 35.85723425,
        "longitude": 136.29400656,
        "id": "4f07d215-7394-4aa4-a5b5-29a9c5e955ed"
    },
    {
        "name": "八幡神社",
        "prefectureName": "福井県",
        "cityName": "丹生郡越前町",
        "streetName": "熊谷第３８号３３番地",
        "latitude": 35.9742018,
        "longitude": 136.1297452,
        "id": "7f83f8c0-6513-422b-814d-0f74eca3dc6a"
    },
    {
        "name": "八幡神社",
        "prefectureName": "福井県",
        "cityName": "丹生郡越前町",
        "streetName": "岩開第１８号１７番地",
        "latitude": 35.9742018,
        "longitude": 136.1297452,
        "id": "c7717dc1-5b4e-4bf3-957c-aa2b007c8840"
    },
    {
        "name": "八幡神社",
        "prefectureName": "福井県",
        "cityName": "鯖江市",
        "streetName": "松成町第９号１６番地",
        "latitude": 35.9565524,
        "longitude": 136.1844733,
        "id": "b4f1596c-07e6-4dfc-bfc8-a4b957c6eca8"
    },
    {
        "name": "八幡神社",
        "prefectureName": "福井県",
        "cityName": "鯖江市",
        "streetName": "持明寺町２３号１番地",
        "latitude": 35.9565524,
        "longitude": 136.1844733,
        "id": "956eed6b-c5cb-4420-8d69-3dc6baee44f1"
    },
    {
        "name": "八幡神社",
        "prefectureName": "福井県",
        "cityName": "大飯郡おおい町",
        "streetName": "鹿野２４号３番地",
        "latitude": 35.4811513,
        "longitude": 135.6177622,
        "id": "104ed1a6-a6d9-4b6e-bc94-dd5cf972c242"
    },
    {
        "name": "八幡神社",
        "prefectureName": "福井県",
        "cityName": "福井市",
        "streetName": "城東１丁目１７番２１号",
        "latitude": 36.06179787,
        "longitude": 136.23318155,
        "id": "36684af7-87a2-4d4e-9789-70f69cd31402"
    },
    {
        "name": "八幡神社",
        "prefectureName": "福井県",
        "cityName": "福井市",
        "streetName": "花守町５号２２番地",
        "latitude": 36.0007542,
        "longitude": 136.16955041,
        "id": "bf23962c-5f9b-4521-9715-e2045fa87b64"
    },
    {
        "name": "八幡神社",
        "prefectureName": "福井県",
        "cityName": "福井市",
        "streetName": "下荒井町１９字宮の越７番地",
        "latitude": 36.02388543,
        "longitude": 136.20792648,
        "id": "91d05ba9-b3ce-41b0-a094-db0a4d7b6341"
    },
    {
        "name": "八幡神社",
        "prefectureName": "福井県",
        "cityName": "坂井市",
        "streetName": "春江町取次４号１６番地",
        "latitude": 36.147961,
        "longitude": 136.17428356,
        "id": "b9889d08-dc5c-4961-a1a4-ef8ab0b7a24f"
    },
    {
        "name": "八幡神社",
        "prefectureName": "福井県",
        "cityName": "坂井市",
        "streetName": "春江町千歩寺中川田３番地",
        "latitude": 36.12448817,
        "longitude": 136.24405529,
        "id": "c087ab31-7030-4741-801b-f89915457c88"
    },
    {
        "name": "八幡神社",
        "prefectureName": "福井県",
        "cityName": "福井市",
        "streetName": "上六条町字東郷代１７号２９番地",
        "latitude": 36.0643665,
        "longitude": 136.2195965,
        "id": "ebb99e68-fbd5-406c-affa-60df302cc1a3"
    },
    {
        "name": "八幡神社",
        "prefectureName": "福井県",
        "cityName": "福井市",
        "streetName": "品ケ瀬町１１号４３番地",
        "latitude": 36.0643665,
        "longitude": 136.2195965,
        "id": "d70071f6-a591-4057-a8a4-fb2c21a277ec"
    },
    {
        "name": "八幡神社",
        "prefectureName": "福井県",
        "cityName": "福井市",
        "streetName": "南西俣町２９字上下谷１番地の３・東俣４４字向山１番地",
        "latitude": 36.06087338,
        "longitude": 136.24426156,
        "id": "eff115e7-0e89-45a8-b86e-b4ecc4e5e219"
    },
    {
        "name": "八幡神社",
        "prefectureName": "福井県",
        "cityName": "吉田郡永平寺町",
        "streetName": "松岡樋爪第２号３３番地",
        "latitude": 36.0922281,
        "longitude": 136.2987669,
        "id": "bd12a43a-c50a-4e84-85fb-046c3de49b1e"
    },
    {
        "name": "八幡神社",
        "prefectureName": "福井県",
        "cityName": "坂井市",
        "streetName": "丸岡町豊原高瀬５号６番地",
        "latitude": 36.12641174,
        "longitude": 136.27745985,
        "id": "b93cbbe2-8117-4474-915b-c814bad6cc32"
    },
    {
        "name": "八幡神社",
        "prefectureName": "福井県",
        "cityName": "坂井市",
        "streetName": "丸岡町今福１３号１番地",
        "latitude": 36.14486719,
        "longitude": 136.26828782,
        "id": "a93b22d1-5dc8-4d0d-8aee-76506441605f"
    },
    {
        "name": "八幡神社",
        "prefectureName": "福井県",
        "cityName": "坂井市",
        "streetName": "坂井町大味第３６号３６番地",
        "latitude": 36.18534066,
        "longitude": 136.19412089,
        "id": "c6e16560-4819-4b21-af74-7ed7147ba82e"
    },
    {
        "name": "八幡神社",
        "prefectureName": "福井県",
        "cityName": "あわら市",
        "streetName": "山十楽第６２号２４番地",
        "latitude": 36.211344,
        "longitude": 136.2290278,
        "id": "67631966-14e8-4393-8bea-0f925bd6f17a"
    },
    {
        "name": "八幡神社",
        "prefectureName": "福井県",
        "cityName": "あわら市",
        "streetName": "南疋田第２４号１８番地",
        "latitude": 36.211344,
        "longitude": 136.2290278,
        "id": "ca9f9c11-dba3-481f-981b-a6a3efc26554"
    },
    {
        "name": "八幡神社",
        "prefectureName": "福井県",
        "cityName": "あわら市",
        "streetName": "番田第３１号１７番地",
        "latitude": 36.21108227,
        "longitude": 136.19908921,
        "id": "2ab139e7-7837-4274-ba20-f94b79f48a87"
    },
    {
        "name": "八幡神社",
        "prefectureName": "福井県",
        "cityName": "大野市",
        "streetName": "井ノ口字上袋田２３番地",
        "latitude": 35.9798156,
        "longitude": 136.4875656,
        "id": "f0091b25-db1f-4e44-899d-a79b60f134b4"
    },
    {
        "name": "八幡神社",
        "prefectureName": "福井県",
        "cityName": "大野市",
        "streetName": "萩ケ野字下久保１０番地",
        "latitude": 35.9798156,
        "longitude": 136.4875656,
        "id": "4c421208-4e93-449e-94ed-b351a8748756"
    },
    {
        "name": "八幡神社",
        "prefectureName": "福井県",
        "cityName": "勝山市",
        "streetName": "荒土町田名部４号１３番地",
        "latitude": 36.07902828,
        "longitude": 136.4828763,
        "id": "5e7f87b3-e515-4f5f-bcd0-a4332901facd"
    },
    {
        "name": "八幡神社",
        "prefectureName": "福井県",
        "cityName": "敦賀市",
        "streetName": "長沢字南海道６番地",
        "latitude": 35.6337068,
        "longitude": 136.07096674,
        "id": "12d83cd7-212c-46ef-90a3-53c2220dd5e8"
    },
    {
        "name": "八幡神社",
        "prefectureName": "福井県",
        "cityName": "敦賀市",
        "streetName": "獺河内字檀頭７号１番地の１",
        "latitude": 35.6452468,
        "longitude": 136.0554435,
        "id": "0b4bf27d-0bb4-4058-975a-3cdc138b5b73"
    },
    {
        "name": "八幡神社",
        "prefectureName": "福井県",
        "cityName": "三方郡美浜町",
        "streetName": "佐野第３９号久掛田３６番地",
        "latitude": 35.6005403,
        "longitude": 135.9405287,
        "id": "7ad7bceb-8feb-414f-b5f0-0945dc17430d"
    },
    {
        "name": "八幡神社",
        "prefectureName": "福井県",
        "cityName": "越前市",
        "streetName": "大手町３５号３番地",
        "latitude": 35.88874604,
        "longitude": 136.21122792,
        "id": "393e448f-a091-4a60-a49f-042da1056fdf"
    },
    {
        "name": "八幡神社",
        "prefectureName": "福井県",
        "cityName": "越前市",
        "streetName": "高木町３５号２番地",
        "latitude": 35.92365736,
        "longitude": 136.19447891,
        "id": "04f667b0-5bea-4349-a591-77570b524f5f"
    },
    {
        "name": "八幡神社",
        "prefectureName": "福井県",
        "cityName": "越前市",
        "streetName": "氷坂町３０号１番地",
        "latitude": 35.92828576,
        "longitude": 136.14083783,
        "id": "6571a460-d769-48c5-815b-57fde4280a14"
    },
    {
        "name": "八幡神社",
        "prefectureName": "福井県",
        "cityName": "南条郡南越前町",
        "streetName": "河内１１号５７番地",
        "latitude": 35.81701319,
        "longitude": 136.10782389,
        "id": "dd7e879d-ac67-4b7f-b77d-d1ff40930095"
    },
    {
        "name": "八幡神社",
        "prefectureName": "福井県",
        "cityName": "今立郡池田町",
        "streetName": "清水谷５号１番地１",
        "latitude": 35.8905495,
        "longitude": 136.3440012,
        "id": "44611d27-858a-432a-aacd-fa4629d0ba47"
    },
    {
        "name": "八幡神社",
        "prefectureName": "福井県",
        "cityName": "今立郡池田町",
        "streetName": "河内７号４５番地",
        "latitude": 35.8905495,
        "longitude": 136.3440012,
        "id": "625f38ae-d1ef-42e0-8024-741fd08598fb"
    },
    {
        "name": "八幡神社",
        "prefectureName": "福井県",
        "cityName": "丹生郡越前町",
        "streetName": "梨子ヶ平１３号８番地",
        "latitude": 35.98886431,
        "longitude": 135.96700009,
        "id": "ec81150c-6a40-4a49-be25-46bc9748067f"
    },
    {
        "name": "八幡神社",
        "prefectureName": "福井県",
        "cityName": "丹生郡越前町",
        "streetName": "野末７号５１番地",
        "latitude": 35.9742018,
        "longitude": 136.1297452,
        "id": "260f3c6b-de96-479f-82e6-33dbd2417801"
    },
    {
        "name": "八幡神社",
        "prefectureName": "福井県",
        "cityName": "鯖江市",
        "streetName": "鳥羽中町１２号１１番地",
        "latitude": 35.98510153,
        "longitude": 136.18602484,
        "id": "6f627bb9-5e48-4088-b0d7-2c8090c6d1b4"
    },
    {
        "name": "八幡神社",
        "prefectureName": "福井県",
        "cityName": "鯖江市",
        "streetName": "平井町第５７号４７番地",
        "latitude": 35.9565524,
        "longitude": 136.1844733,
        "id": "3af9de62-6056-49ee-b96f-9277b8277537"
    },
    {
        "name": "八幡神社",
        "prefectureName": "福井県",
        "cityName": "大飯郡おおい町",
        "streetName": "犬見２２号３番地",
        "latitude": 35.49425326,
        "longitude": 135.62325313,
        "id": "143c9147-69f3-41e6-b8d7-d369424c0ac0"
    },
    {
        "name": "八幡神社",
        "prefectureName": "福井県",
        "cityName": "福井市",
        "streetName": "上中町第２８号１７番地",
        "latitude": 36.0818111,
        "longitude": 136.26183219,
        "id": "2b50fab2-1040-4aeb-bfd9-66dbd1dc4a58"
    },
    {
        "name": "八幡神社",
        "prefectureName": "福井県",
        "cityName": "福井市",
        "streetName": "古市２丁目１の１番地",
        "latitude": 36.10652016,
        "longitude": 136.22531312,
        "id": "bf545493-b04e-4610-862a-66150d8edd4e"
    },
    {
        "name": "八幡神社",
        "prefectureName": "福井県",
        "cityName": "福井市",
        "streetName": "中野町２５号４番地",
        "latitude": 36.00530662,
        "longitude": 136.18635966,
        "id": "15e56692-c37d-4fe0-b036-9ab070e0eded"
    },
    {
        "name": "八幡神社",
        "prefectureName": "福井県",
        "cityName": "福井市",
        "streetName": "大丹生町第４６号２番地",
        "latitude": 36.0643665,
        "longitude": 136.2195965,
        "id": "e67fa402-cf45-45f9-8339-8425b8b6228c"
    },
    {
        "name": "八幡神社",
        "prefectureName": "福井県",
        "cityName": "坂井市",
        "streetName": "春江町定広１４号４０番地",
        "latitude": 36.15872586,
        "longitude": 136.16387798,
        "id": "6a9ea2e3-1dd0-4375-8aaf-8eff5e41a7ac"
    },
    {
        "name": "八幡神社",
        "prefectureName": "福井県",
        "cityName": "坂井市",
        "streetName": "春江町藤鷲塚１７号２４番地",
        "latitude": 36.12448817,
        "longitude": 136.24405529,
        "id": "f7d65e78-f1ac-4319-b75c-a1b65009e263"
    },
    {
        "name": "八幡神社",
        "prefectureName": "福井県",
        "cityName": "福井市",
        "streetName": "小宇坂町４号８番地",
        "latitude": 35.9915287,
        "longitude": 136.36752047,
        "id": "18af1b5b-0856-4dcc-b738-a8cc9137837e"
    },
    {
        "name": "八幡神社",
        "prefectureName": "福井県",
        "cityName": "福井市",
        "streetName": "吉山町上西之岡１２番地",
        "latitude": 36.0643665,
        "longitude": 136.2195965,
        "id": "ac28fddb-d362-476d-9214-efdd47cd616a"
    },
    {
        "name": "八幡神社",
        "prefectureName": "福井県",
        "cityName": "坂井市",
        "streetName": "丸岡町儀間１７号１番地",
        "latitude": 36.13442982,
        "longitude": 136.27095191,
        "id": "a91f7133-531e-4eb2-9c87-b192cb4f8d83"
    },
    {
        "name": "八幡神社",
        "prefectureName": "福井県",
        "cityName": "坂井市",
        "streetName": "丸岡町一本田中９号５番地",
        "latitude": 36.15279079,
        "longitude": 136.25876624,
        "id": "1db528bf-ae12-449c-9fd0-1b4172578ff9"
    },
    {
        "name": "八幡神社",
        "prefectureName": "福井県",
        "cityName": "坂井市",
        "streetName": "丸岡町猪爪１８号１６番地",
        "latitude": 36.1472533,
        "longitude": 136.2764646,
        "id": "9a10d7d3-24e3-4ace-826d-bd74adcfccbe"
    },
    {
        "name": "八幡神社",
        "prefectureName": "福井県",
        "cityName": "坂井市",
        "streetName": "丸岡町長畝４６号１９番地",
        "latitude": 36.16638132,
        "longitude": 136.27706914,
        "id": "090688bf-367c-43d2-a74d-b1b00fdb89e9"
    },
    {
        "name": "八幡神社",
        "prefectureName": "福井県",
        "cityName": "あわら市",
        "streetName": "清間第１２号１番地",
        "latitude": 36.211344,
        "longitude": 136.2290278,
        "id": "7344daba-6ef7-42ad-bb5f-761df72a636d"
    },
    {
        "name": "八幡神社",
        "prefectureName": "福井県",
        "cityName": "あわら市",
        "streetName": "下金屋第３０号４８番地",
        "latitude": 36.211344,
        "longitude": 136.2290278,
        "id": "d29a8096-490b-41b1-a54a-a7b023f88fed"
    },
    {
        "name": "八幡神社",
        "prefectureName": "福井県",
        "cityName": "あわら市",
        "streetName": "井江葭第１４号３１番地",
        "latitude": 36.211344,
        "longitude": 136.2290278,
        "id": "da2f81fb-7a05-4621-b9f7-38fad669f33d"
    },
    {
        "name": "八幡神社",
        "prefectureName": "福井県",
        "cityName": "大野市",
        "streetName": "八町１８号甲４７番地",
        "latitude": 35.9798156,
        "longitude": 136.4875656,
        "id": "5fa80cde-6eee-4015-b21c-eb6ac6dbbde3"
    },
    {
        "name": "八幡神社",
        "prefectureName": "福井県",
        "cityName": "勝山市",
        "streetName": "荒土町清水島１５号３２番地",
        "latitude": 36.08088916,
        "longitude": 136.48480102,
        "id": "4c3d5947-4408-45bc-8806-585038b7d862"
    },
    {
        "name": "八幡神社",
        "prefectureName": "福井県",
        "cityName": "敦賀市",
        "streetName": "古田刈字上出１７番地",
        "latitude": 35.6452468,
        "longitude": 136.0554435,
        "id": "03da5e42-d3b8-48ba-a07d-379c19e83292"
    },
    {
        "name": "八幡神社",
        "prefectureName": "福井県",
        "cityName": "敦賀市",
        "streetName": "野神１号７１番地",
        "latitude": 35.63586716,
        "longitude": 136.0528471,
        "id": "c1b83172-a55b-4b03-98d0-438f8cfd3a46"
    },
    {
        "name": "八幡神社",
        "prefectureName": "福井県",
        "cityName": "三方郡美浜町",
        "streetName": "五十谷第１１号向山１番地",
        "latitude": 35.6005403,
        "longitude": 135.9405287,
        "id": "26690bd0-4f5a-4102-83e1-641cd71bd1d9"
    },
    {
        "name": "八幡神社",
        "prefectureName": "福井県",
        "cityName": "越前市",
        "streetName": "桧尾谷町２５号２番地",
        "latitude": 35.9034956,
        "longitude": 136.1688047,
        "id": "357e64f8-1718-41fe-a09d-c983a7d7cc26"
    },
    {
        "name": "八幡神社",
        "prefectureName": "福井県",
        "cityName": "越前市",
        "streetName": "曽原町１９号３番地",
        "latitude": 35.91568263,
        "longitude": 136.0558659,
        "id": "286801a4-81c5-4578-91f1-da6c10fe8a5d"
    },
    {
        "name": "八幡神社",
        "prefectureName": "福井県",
        "cityName": "越前市",
        "streetName": "畑町１６号３２番地",
        "latitude": 35.9034956,
        "longitude": 136.1688047,
        "id": "67f8d397-4750-4583-a154-273c70196d9b"
    },
    {
        "name": "八幡神社",
        "prefectureName": "福井県",
        "cityName": "南条郡南越前町",
        "streetName": "大良１０号２４番地",
        "latitude": 35.8351772,
        "longitude": 136.1944708,
        "id": "c14b9684-7bc2-4cc6-a581-2af06602a6a4"
    },
    {
        "name": "八幡神社",
        "prefectureName": "福井県",
        "cityName": "越前市",
        "streetName": "領家町第２１号４９番地",
        "latitude": 35.9034956,
        "longitude": 136.1688047,
        "id": "12269efd-4e78-4fca-8e06-c8582e84be6b"
    },
    {
        "name": "八幡神社",
        "prefectureName": "福井県",
        "cityName": "今立郡池田町",
        "streetName": "上荒谷１０号１１番地",
        "latitude": 35.87795108,
        "longitude": 136.33459982,
        "id": "2f84999a-017c-4bec-80ac-17554de09763"
    },
    {
        "name": "八幡神社",
        "prefectureName": "福井県",
        "cityName": "今立郡池田町",
        "streetName": "板垣４４号１０番地",
        "latitude": 35.88222795,
        "longitude": 136.32691426,
        "id": "8f50850c-847c-48ed-bc2e-af955a8a5df4"
    },
    {
        "name": "八幡神社",
        "prefectureName": "福井県",
        "cityName": "丹生郡越前町",
        "streetName": "横山１号２１番地",
        "latitude": 35.98486686,
        "longitude": 136.10806912,
        "id": "868a5ce9-e502-4557-9dc5-16f83c750a41"
    },
    {
        "name": "八幡神社",
        "prefectureName": "福井県",
        "cityName": "鯖江市",
        "streetName": "鳥羽町第１２７号３番地",
        "latitude": 35.9565524,
        "longitude": 136.1844733,
        "id": "63716c3e-4a5a-49b8-960e-c45a1b27d7f6"
    },
    {
        "name": "八幡神社",
        "prefectureName": "福井県",
        "cityName": "鯖江市",
        "streetName": "冬島町第５号４４番地",
        "latitude": 35.9565524,
        "longitude": 136.1844733,
        "id": "77117fa3-5a42-413d-b2a1-c7819ec13ced"
    },
    {
        "name": "八幡神社",
        "prefectureName": "福井県",
        "cityName": "小浜市",
        "streetName": "本保第５８号２・３番地",
        "latitude": 35.4955816,
        "longitude": 135.7466191,
        "id": "b7e9ac9e-4bb8-45d1-8332-4c82d0dcc38b"
    },
    {
        "name": "八幡神社",
        "prefectureName": "福井県",
        "cityName": "福井市",
        "streetName": "田尻町５号３番地",
        "latitude": 36.01982659,
        "longitude": 136.3217187,
        "id": "0eb2f737-9891-4ff4-986a-80f86d93ed12"
    },
    {
        "name": "八幡神社",
        "prefectureName": "福井県",
        "cityName": "福井市",
        "streetName": "免鳥町３３号１１番地",
        "latitude": 36.13303727,
        "longitude": 136.0742987,
        "id": "9934ddd7-e79d-4be8-ad2a-2b0ecdef5a0b"
    },
    {
        "name": "八幡神社",
        "prefectureName": "福井県",
        "cityName": "福井市",
        "streetName": "川合鷲塚町第３３号６９番地",
        "latitude": 36.0643665,
        "longitude": 136.2195965,
        "id": "ce5c5d64-ae4b-4862-b7f5-1ce23f85b447"
    },
    {
        "name": "八幡神社",
        "prefectureName": "福井県",
        "cityName": "福井市",
        "streetName": "宿堂町２０号６番地",
        "latitude": 36.02979287,
        "longitude": 136.05765976,
        "id": "9a244e50-933b-4325-be10-ec03624d572f"
    },
    {
        "name": "八幡神社",
        "prefectureName": "福井県",
        "cityName": "福井市",
        "streetName": "光陽２丁目２３１１番地",
        "latitude": 36.0643665,
        "longitude": 136.2195965,
        "id": "908e196c-e580-42ac-9d17-b6df79f29183"
    },
    {
        "name": "八幡神社",
        "prefectureName": "福井県",
        "cityName": "坂井市",
        "streetName": "春江町大針８号３１番地",
        "latitude": 36.12448817,
        "longitude": 136.24405529,
        "id": "dacef8eb-4d5a-42a2-9177-c1593483c359"
    },
    {
        "name": "八幡神社",
        "prefectureName": "福井県",
        "cityName": "福井市",
        "streetName": "城戸ノ内町７号１番地",
        "latitude": 36.00399349,
        "longitude": 136.30088578,
        "id": "d6d05bce-f542-43de-9812-cdcebe4d436b"
    },
    {
        "name": "八幡神社",
        "prefectureName": "福井県",
        "cityName": "福井市",
        "streetName": "蔵作町４６号１番地",
        "latitude": 36.0643665,
        "longitude": 136.2195965,
        "id": "6cc4650d-f6cf-4037-a58c-bd76b279c978"
    },
    {
        "name": "八幡神社",
        "prefectureName": "福井県",
        "cityName": "福井市",
        "streetName": "大味町３５号３番地",
        "latitude": 36.04916193,
        "longitude": 136.01879863,
        "id": "4d6f26b8-6e5d-4940-93d3-762d222cfaad"
    },
    {
        "name": "八幡神社",
        "prefectureName": "福井県",
        "cityName": "吉田郡永平寺町",
        "streetName": "鳴鹿山鹿第１８番地",
        "latitude": 36.0922281,
        "longitude": 136.2987669,
        "id": "d5ba2678-8a67-455a-8a0a-fe69eca98228"
    },
    {
        "name": "八幡神社",
        "prefectureName": "福井県",
        "cityName": "坂井市",
        "streetName": "丸岡町牛ケ島６号３９番地１",
        "latitude": 36.13079959,
        "longitude": 136.26748299,
        "id": "ece29a86-97aa-4b4a-9ecc-5d2bee2a4f96"
    },
    {
        "name": "八幡神社",
        "prefectureName": "福井県",
        "cityName": "坂井市",
        "streetName": "丸岡町寅国９号１１番地の１，１５番地の４",
        "latitude": 36.14027063,
        "longitude": 136.2695018,
        "id": "5cc69242-9aae-49af-b3ec-4a34fcda8ec2"
    },
    {
        "name": "八幡神社",
        "prefectureName": "福井県",
        "cityName": "坂井市",
        "streetName": "丸岡町宇田４号３０番地",
        "latitude": 36.16981086,
        "longitude": 136.25952643,
        "id": "4aaeb375-14c7-4f92-947b-43af84b190d8"
    },
    {
        "name": "八幡神社",
        "prefectureName": "福井県",
        "cityName": "坂井市",
        "streetName": "丸岡町畑中７２号２５番地",
        "latitude": 36.15243648,
        "longitude": 136.29270703,
        "id": "17f9f981-4939-4dce-875c-42c766961425"
    },
    {
        "name": "八幡神社",
        "prefectureName": "福井県",
        "cityName": "坂井市",
        "streetName": "坂井町高柳７５号２７番地１",
        "latitude": 36.18489857,
        "longitude": 136.17483944,
        "id": "bf037a49-a594-48fd-ae35-b1ee08ff3efd"
    },
    {
        "name": "八幡神社",
        "prefectureName": "福井県",
        "cityName": "あわら市",
        "streetName": "東田中第１３号１７番地",
        "latitude": 36.211344,
        "longitude": 136.2290278,
        "id": "ab0ab93e-960c-455b-ad2e-808c9bfadeb9"
    },
    {
        "name": "八幡神社",
        "prefectureName": "福井県",
        "cityName": "あわら市",
        "streetName": "国影第５号９番地",
        "latitude": 36.211344,
        "longitude": 136.2290278,
        "id": "ed01a9d0-a973-4b46-a03f-c87f700b7001"
    },
    {
        "name": "八幡神社",
        "prefectureName": "福井県",
        "cityName": "大野市",
        "streetName": "土布子２１号上出５１番地",
        "latitude": 35.9798156,
        "longitude": 136.4875656,
        "id": "24c056b5-c83f-4db4-bfa2-b71e39aeb4d6"
    },
    {
        "name": "八幡神社",
        "prefectureName": "福井県",
        "cityName": "勝山市",
        "streetName": "平泉寺町壁倉１０号コハエ２番地",
        "latitude": 36.0609446,
        "longitude": 136.500584,
        "id": "cff41c47-7f09-4dc6-8a44-95f1bd2ca114"
    },
    {
        "name": "八幡神社",
        "prefectureName": "福井県",
        "cityName": "敦賀市",
        "streetName": "市野々２１号８番地",
        "latitude": 35.6452468,
        "longitude": 136.0554435,
        "id": "40f66fe6-8451-499e-aa68-dd899f21028c"
    },
    {
        "name": "八幡神社",
        "prefectureName": "福井県",
        "cityName": "敦賀市",
        "streetName": "関字村中５５番地",
        "latitude": 35.62224612,
        "longitude": 136.01793165,
        "id": "0c045e87-4514-45d8-9c90-5919ae8dce29"
    },
    {
        "name": "八幡神社",
        "prefectureName": "福井県",
        "cityName": "三方郡美浜町",
        "streetName": "麻生第２０号字中筋３７番地",
        "latitude": 35.6005403,
        "longitude": 135.9405287,
        "id": "10d55ab4-3ea9-4dd3-bfc9-ee3d98918c9a"
    },
    {
        "name": "八幡神社",
        "prefectureName": "福井県",
        "cityName": "越前市",
        "streetName": "稲寄町９字市寄１番地２",
        "latitude": 35.91881333,
        "longitude": 136.18142231,
        "id": "f0ca212c-54e3-4af7-b1f2-f7bc6f75bee5"
    },
    {
        "name": "八幡神社",
        "prefectureName": "福井県",
        "cityName": "越前市",
        "streetName": "下別所町第１１号１番地",
        "latitude": 35.9034956,
        "longitude": 136.1688047,
        "id": "90e2b5d1-4d33-4c7a-9ed8-560f13769c28"
    },
    {
        "name": "八幡神社",
        "prefectureName": "福井県",
        "cityName": "越前市",
        "streetName": "馬上免町６号２番地",
        "latitude": 35.9034956,
        "longitude": 136.1688047,
        "id": "8ee5b0ed-4085-41e0-833f-ce64546a17fb"
    },
    {
        "name": "八幡神社",
        "prefectureName": "福井県",
        "cityName": "南条郡南越前町",
        "streetName": "大谷１号１４番地",
        "latitude": 35.78367027,
        "longitude": 136.09725403,
        "id": "83b2eef5-b108-497b-9582-a097ebd0caf3"
    },
    {
        "name": "八幡神社",
        "prefectureName": "福井県",
        "cityName": "越前市",
        "streetName": "東庄境町第１号１番地",
        "latitude": 35.93729117,
        "longitude": 136.24962551,
        "id": "c71e5541-1a95-497a-b497-ed34667f70fb"
    },
    {
        "name": "八幡神社",
        "prefectureName": "福井県",
        "cityName": "今立郡池田町",
        "streetName": "大本４３号２４番地",
        "latitude": 35.92523619,
        "longitude": 136.40919802,
        "id": "e992d627-49b3-4e77-8d4f-4bca809783f2"
    },
    {
        "name": "八幡神社",
        "prefectureName": "福井県",
        "cityName": "今立郡池田町",
        "streetName": "山田３３号２８番地",
        "latitude": 35.89552629,
        "longitude": 136.33709621,
        "id": "19dd0922-3a36-4f4a-b0d1-39fb7eb3d24f"
    },
    {
        "name": "八幡神社",
        "prefectureName": "福井県",
        "cityName": "丹生郡越前町",
        "streetName": "血ヶ平７３号６番地",
        "latitude": 35.97764905,
        "longitude": 135.9772552,
        "id": "14d6ee17-3811-4b8b-ac05-52e5c8939acd"
    },
    {
        "name": "八幡神社",
        "prefectureName": "福井県",
        "cityName": "丹生郡越前町",
        "streetName": "朝日７号８８番地",
        "latitude": 35.9742018,
        "longitude": 136.1297452,
        "id": "4b4ba4d9-9194-4ab8-a0b8-f5601cf498cc"
    },
    {
        "name": "八幡神社",
        "prefectureName": "福井県",
        "cityName": "丹生郡越前町",
        "streetName": "頭谷２９号９番地",
        "latitude": 35.95634009,
        "longitude": 136.10314322,
        "id": "1a8b8e9d-bc89-4ea3-8dc5-848d8c6cb961"
    },
    {
        "name": "八幡神社",
        "prefectureName": "福井県",
        "cityName": "鯖江市",
        "streetName": "神明町２丁目６番３２号",
        "latitude": 35.97452784,
        "longitude": 136.18324779,
        "id": "849a2ddf-9a00-4d2b-8248-ab42c1a5ab0d"
    },
    {
        "name": "八幡神社",
        "prefectureName": "福井県",
        "cityName": "鯖江市",
        "streetName": "川去町２０号２２番地の６",
        "latitude": 35.96646686,
        "longitude": 136.14114993,
        "id": "7b92f607-b766-46a2-83bb-d29a4e93421a"
    },
    {
        "name": "八幡神社",
        "prefectureName": "福井県",
        "cityName": "小浜市",
        "streetName": "忠野９号１番地",
        "latitude": 35.4955816,
        "longitude": 135.7466191,
        "id": "65f6381f-4505-4c28-894e-21a17bcd8674"
    },
    {
        "name": "八幡神社",
        "prefectureName": "福井県",
        "cityName": "吉田郡永平寺町",
        "streetName": "松岡志比堺第１０号３６番地",
        "latitude": 36.0922281,
        "longitude": 136.2987669,
        "id": "5a4a43d6-3eb0-415b-98b0-3d8267c1229b"
    },
    {
        "name": "八幡神社",
        "prefectureName": "福井県",
        "cityName": "福井市",
        "streetName": "南菅生町２０号１４番地",
        "latitude": 36.10646921,
        "longitude": 136.04636051,
        "id": "c3f1c22e-24ac-4e55-9932-d49aac65e21f"
    },
    {
        "name": "八幡神社",
        "prefectureName": "福井県",
        "cityName": "福井市",
        "streetName": "平尾町１６号１４番地",
        "latitude": 36.03902632,
        "longitude": 136.10722809,
        "id": "ec058c7a-d010-4cee-be97-f7f951743af0"
    },
    {
        "name": "八幡神社",
        "prefectureName": "福井県",
        "cityName": "福井市",
        "streetName": "片山町２５号３３番地",
        "latitude": 36.02508681,
        "longitude": 136.16001689,
        "id": "8212ae38-2527-414d-983d-ed1b9f6fb585"
    },
    {
        "name": "八幡神社",
        "prefectureName": "福井県",
        "cityName": "福井市",
        "streetName": "月見町２３２番地",
        "latitude": 36.04443285,
        "longitude": 136.2136641,
        "id": "a4404083-db39-4d28-a527-3903ad08cff1"
    },
    {
        "name": "八幡神社",
        "prefectureName": "福井県",
        "cityName": "福井市",
        "streetName": "河増町２６号３７番地",
        "latitude": 36.05869908,
        "longitude": 136.25741641,
        "id": "a738ed50-537e-401e-a673-ccf57649eecd"
    },
    {
        "name": "八幡神社",
        "prefectureName": "福井県",
        "cityName": "福井市",
        "streetName": "下六条町２９号３１番地",
        "latitude": 36.0284326,
        "longitude": 136.22970571,
        "id": "4a06d61d-1c58-43ec-9901-ad6841da94ea"
    },
    {
        "name": "八幡神社",
        "prefectureName": "福井県",
        "cityName": "福井市",
        "streetName": "円成寺町９号４１番地",
        "latitude": 36.01965097,
        "longitude": 136.25889328,
        "id": "c7b478fe-6c47-4141-834a-e12217436533"
    },
    {
        "name": "八幡神社",
        "prefectureName": "福井県",
        "cityName": "福井市",
        "streetName": "南野津又町３７号６番地",
        "latitude": 35.96691192,
        "longitude": 136.42590402,
        "id": "edf157fe-855b-4d71-be54-e1c888135c3c"
    },
    {
        "name": "八幡神社",
        "prefectureName": "福井県",
        "cityName": "吉田郡永平寺町",
        "streetName": "大月１８号３番地",
        "latitude": 36.07573763,
        "longitude": 136.39078284,
        "id": "ba083e34-90b6-4420-a53b-5a8037978f73"
    },
    {
        "name": "八幡神社",
        "prefectureName": "福井県",
        "cityName": "坂井市",
        "streetName": "丸岡町筑後清水１３号５２番地",
        "latitude": 36.1472533,
        "longitude": 136.2764646,
        "id": "c7b5e46f-3be3-4e65-880b-3c5c9e7fc947"
    },
    {
        "name": "八幡神社",
        "prefectureName": "福井県",
        "cityName": "坂井市",
        "streetName": "丸岡町一本田福所１２号３９番地",
        "latitude": 36.1472533,
        "longitude": 136.2764646,
        "id": "359c81d8-6ac7-440c-a6a8-61d52732b776"
    },
    {
        "name": "八幡神社",
        "prefectureName": "福井県",
        "cityName": "坂井市",
        "streetName": "丸岡町田屋１２６号８番地",
        "latitude": 36.15356978,
        "longitude": 136.29679542,
        "id": "10f31e20-58d3-4dd2-a2a9-cb29a94cd7b4"
    },
    {
        "name": "八幡神社",
        "prefectureName": "福井県",
        "cityName": "坂井市",
        "streetName": "坂井町上関第１９号１１番地",
        "latitude": 36.18534066,
        "longitude": 136.19412089,
        "id": "3841e12c-763c-4874-a1e6-c3a9abbcc95c"
    },
    {
        "name": "八幡神社",
        "prefectureName": "福井県",
        "cityName": "坂井市",
        "streetName": "坂井町長畑６号１６番地",
        "latitude": 36.16800195,
        "longitude": 136.23354022,
        "id": "ce80e33d-cdac-45c1-ba6f-c5b353277476"
    },
    {
        "name": "八幡神社",
        "prefectureName": "福井県",
        "cityName": "あわら市",
        "streetName": "菅野天池第２７号１８番地",
        "latitude": 36.20704201,
        "longitude": 136.24288757,
        "id": "4d544b40-69d5-4af3-bc30-07cf51535fe6"
    },
    {
        "name": "八幡神社",
        "prefectureName": "福井県",
        "cityName": "あわら市",
        "streetName": "笹岡２３字砂田５０番地１",
        "latitude": 36.21643075,
        "longitude": 136.27465899,
        "id": "c213aa6c-a4bf-4688-b353-93aa19970c59"
    },
    {
        "name": "八幡神社",
        "prefectureName": "福井県",
        "cityName": "大野市",
        "streetName": "上麻生島川上８号３１番地",
        "latitude": 35.9798156,
        "longitude": 136.4875656,
        "id": "e90a875a-287c-4c29-8557-b18fac9165d5"
    },
    {
        "name": "八幡神社",
        "prefectureName": "福井県",
        "cityName": "大野市",
        "streetName": "森政地頭１１字村中１番１",
        "latitude": 35.95872835,
        "longitude": 136.52228764,
        "id": "5a4ce1b8-2d91-430c-8f2b-7d66bce7ac2a"
    },
    {
        "name": "八幡神社",
        "prefectureName": "福井県",
        "cityName": "勝山市",
        "streetName": "下毛屋字堂ノ東９番地",
        "latitude": 36.0609446,
        "longitude": 136.500584,
        "id": "ead2c930-7839-4acf-9144-398475252298"
    },
    {
        "name": "八幡神社",
        "prefectureName": "福井県",
        "cityName": "敦賀市",
        "streetName": "曽々木字宮の後１４番地",
        "latitude": 35.61040442,
        "longitude": 136.1176749,
        "id": "5407e398-707a-440c-8f85-e370467b565d"
    },
    {
        "name": "八幡神社",
        "prefectureName": "福井県",
        "cityName": "敦賀市",
        "streetName": "大比田１４５号高森１番地の２",
        "latitude": 35.6452468,
        "longitude": 136.0554435,
        "id": "6bfa59ae-550e-4a94-8972-e8d911df5269"
    },
    {
        "name": "八幡神社",
        "prefectureName": "福井県",
        "cityName": "敦賀市",
        "streetName": "五幡８４号８番地",
        "latitude": 35.70850425,
        "longitude": 136.09305305,
        "id": "f0365472-6a43-40f6-8cfd-073217447954"
    },
    {
        "name": "八幡神社",
        "prefectureName": "福井県",
        "cityName": "越前市",
        "streetName": "粟野町３号２０番地",
        "latitude": 35.91023586,
        "longitude": 136.05211098,
        "id": "271081b0-3973-4aff-a5ba-57367a113ab1"
    },
    {
        "name": "八幡神社",
        "prefectureName": "福井県",
        "cityName": "越前市",
        "streetName": "黒川町４１号１番地",
        "latitude": 35.9034956,
        "longitude": 136.1688047,
        "id": "d29e141a-f79c-4ee4-819b-a1c844bed1f8"
    },
    {
        "name": "八幡神社",
        "prefectureName": "福井県",
        "cityName": "越前市",
        "streetName": "殿町第８号３２番地",
        "latitude": 35.9034956,
        "longitude": 136.1688047,
        "id": "93fe0355-fa5c-42bb-9ebc-bd190b594c61"
    },
    {
        "name": "八幡神社",
        "prefectureName": "福井県",
        "cityName": "今立郡池田町",
        "streetName": "広瀬７号７番地",
        "latitude": 35.90730568,
        "longitude": 136.3528302,
        "id": "53cd657c-d7c6-464e-aabe-95424b8c8b3a"
    },
    {
        "name": "八幡神社",
        "prefectureName": "福井県",
        "cityName": "丹生郡越前町",
        "streetName": "新保１３号３９番地",
        "latitude": 35.94663673,
        "longitude": 135.98860529,
        "id": "26e64e94-c9e3-4476-bd50-86cfdb8165fe"
    },
    {
        "name": "八幡神社",
        "prefectureName": "福井県",
        "cityName": "丹生郡越前町",
        "streetName": "岩開２３号５３番地",
        "latitude": 35.96055641,
        "longitude": 136.1195386,
        "id": "44fb2e41-5afb-41eb-91bc-81f576136c98"
    },
    {
        "name": "八幡神社",
        "prefectureName": "福井県",
        "cityName": "鯖江市",
        "streetName": "横越町１９号２番地",
        "latitude": 35.94601837,
        "longitude": 136.2043827,
        "id": "fd6ebde3-46f5-492f-ae1f-cb0086546e02"
    },
    {
        "name": "八幡神社",
        "prefectureName": "福井県",
        "cityName": "小浜市",
        "streetName": "加茂第１９号１１番地",
        "latitude": 35.48756755,
        "longitude": 135.82967936,
        "id": "7ca75182-f7b2-4734-8936-596ac0ce9ba6"
    },
    {
        "name": "八幡神社",
        "prefectureName": "福井県",
        "cityName": "大飯郡高浜町",
        "streetName": "蒜畠７号９番地",
        "latitude": 35.4879776,
        "longitude": 135.5458571,
        "id": "6125b8e2-b9d3-4224-8b79-5aa7518cd727"
    },
    {
        "name": "八幡神社",
        "prefectureName": "福井県",
        "cityName": "福井市",
        "streetName": "川尻町３０号１５番地",
        "latitude": 36.14463785,
        "longitude": 136.09539406,
        "id": "f30583a4-5790-4972-be6b-aec46a25b8c5"
    },
    {
        "name": "八幡神社",
        "prefectureName": "福井県",
        "cityName": "福井市",
        "streetName": "本折町４８号４番地３",
        "latitude": 36.0643665,
        "longitude": 136.2195965,
        "id": "e1ebb711-038c-4d10-ad18-a600e69d6173"
    },
    {
        "name": "八幡神社",
        "prefectureName": "福井県",
        "cityName": "福井市",
        "streetName": "朝宮町１０号３番地",
        "latitude": 36.03742429,
        "longitude": 136.173143,
        "id": "48f6de4b-f2ba-44ac-b4f5-f11889873fb5"
    },
    {
        "name": "八幡神社",
        "prefectureName": "福井県",
        "cityName": "福井市",
        "streetName": "浅水二日町５９号６６番地",
        "latitude": 36.00353228,
        "longitude": 136.19496732,
        "id": "5838968e-4f77-4c3c-bcc9-7fa11e8027de"
    },
    {
        "name": "八幡神社",
        "prefectureName": "福井県",
        "cityName": "福井市",
        "streetName": "北四ツ居町２２号３番地の３",
        "latitude": 36.0643665,
        "longitude": 136.2195965,
        "id": "7cadf4c5-60fe-45a9-8fed-ef447555f804"
    },
    {
        "name": "八幡神社",
        "prefectureName": "福井県",
        "cityName": "坂井市",
        "streetName": "春江町随応寺９号６番地",
        "latitude": 36.13331668,
        "longitude": 136.21578574,
        "id": "86e668f5-040b-42d9-b423-2b3c932fae9d"
    },
    {
        "name": "八幡神社",
        "prefectureName": "福井県",
        "cityName": "坂井市",
        "streetName": "春江町大牧１９号１０番地",
        "latitude": 36.16127945,
        "longitude": 136.19320863,
        "id": "83e06dba-c0da-46aa-96a4-ce848237b267"
    },
    {
        "name": "八幡神社",
        "prefectureName": "福井県",
        "cityName": "福井市",
        "streetName": "東大味町３４号１２番地",
        "latitude": 35.99138826,
        "longitude": 136.26462867,
        "id": "bebe5683-6f12-4f20-a2f5-934611ce6ab1"
    },
    {
        "name": "八幡神社",
        "prefectureName": "福井県",
        "cityName": "福井市",
        "streetName": "神当部町２２号２０番地",
        "latitude": 36.0643665,
        "longitude": 136.2195965,
        "id": "54d4ea57-218d-4e62-b69f-19a98581ba1a"
    },
    {
        "name": "八幡神社",
        "prefectureName": "福井県",
        "cityName": "吉田郡永平寺町",
        "streetName": "石上３４号火焼７８番地",
        "latitude": 36.0922281,
        "longitude": 136.2987669,
        "id": "d36fc697-5e78-4ad7-95d3-f42b3fbd6917"
    },
    {
        "name": "八幡神社",
        "prefectureName": "福井県",
        "cityName": "坂井市",
        "streetName": "丸岡町上金屋４番地",
        "latitude": 36.11068983,
        "longitude": 136.3088374,
        "id": "15554388-f88e-4355-97d4-79c13ad83deb"
    },
    {
        "name": "八幡神社",
        "prefectureName": "福井県",
        "cityName": "坂井市",
        "streetName": "丸岡町新間１０号１２番地１",
        "latitude": 36.13752124,
        "longitude": 136.27534018,
        "id": "5f346e38-f856-44e8-adda-27e05ef1fe68"
    },
    {
        "name": "八幡神社",
        "prefectureName": "福井県",
        "cityName": "坂井市",
        "streetName": "丸岡町野中山王６０号７番地",
        "latitude": 36.12731511,
        "longitude": 136.29861309,
        "id": "e0ff7987-19ba-4713-bedf-27890669217a"
    },
    {
        "name": "八幡神社",
        "prefectureName": "福井県",
        "cityName": "坂井市",
        "streetName": "丸岡町与河６８号３７番地",
        "latitude": 36.15303077,
        "longitude": 136.29039614,
        "id": "71a1578a-0043-4e4a-85d4-4f0fb1a85792"
    },
    {
        "name": "八幡神社",
        "prefectureName": "福井県",
        "cityName": "坂井市",
        "streetName": "坂井町田島窪６号３５番地",
        "latitude": 36.15795667,
        "longitude": 136.25545244,
        "id": "099e7230-683f-44e0-8ad8-f5583b9687f4"
    },
    {
        "name": "八幡神社",
        "prefectureName": "福井県",
        "cityName": "あわら市",
        "streetName": "桑原第３１号８番地",
        "latitude": 36.211344,
        "longitude": 136.2290278,
        "id": "57907d5e-1976-4ae4-b00e-734ad9a21b77"
    },
    {
        "name": "八幡神社",
        "prefectureName": "福井県",
        "cityName": "あわら市",
        "streetName": "北第４号７７番地",
        "latitude": 36.19886584,
        "longitude": 136.27024075,
        "id": "2d8e2d82-3d83-49a1-8892-c82869fe4488"
    },
    {
        "name": "八幡神社",
        "prefectureName": "福井県",
        "cityName": "大野市",
        "streetName": "土打４０号５５番地",
        "latitude": 35.9798156,
        "longitude": 136.4875656,
        "id": "1049d7f5-062f-4e6c-8d56-c6590bd4a455"
    },
    {
        "name": "八幡神社",
        "prefectureName": "福井県",
        "cityName": "大野市",
        "streetName": "新庄字池ノ後１７番地",
        "latitude": 35.97631073,
        "longitude": 136.48774622,
        "id": "89d28e16-19e5-480b-bbd4-859c1cc72154"
    },
    {
        "name": "八幡神社",
        "prefectureName": "福井県",
        "cityName": "勝山市",
        "streetName": "猪野口字堂ノ前２７番地",
        "latitude": 36.0609446,
        "longitude": 136.500584,
        "id": "b44266f0-33ea-4152-a59e-2c1c5f471246"
    },
    {
        "name": "八幡神社",
        "prefectureName": "福井県",
        "cityName": "敦賀市",
        "streetName": "縄間字浜西３号５番地",
        "latitude": 35.6452468,
        "longitude": 136.0554435,
        "id": "259b6a8e-dd88-42b4-9c23-7731c39962ef"
    },
    {
        "name": "八幡神社",
        "prefectureName": "福井県",
        "cityName": "敦賀市",
        "streetName": "挙野１１号５番地",
        "latitude": 35.6452468,
        "longitude": 136.0554435,
        "id": "aa222651-96f5-4506-bb74-1d9ee5b73b85"
    },
    {
        "name": "八幡神社",
        "prefectureName": "福井県",
        "cityName": "三方上中郡若狭町",
        "streetName": "田上１１号３７番地",
        "latitude": 35.5489825,
        "longitude": 135.9081062,
        "id": "0a884adb-3f06-4d49-a306-2995771068e8"
    },
    {
        "name": "八幡神社",
        "prefectureName": "福井県",
        "cityName": "三方上中郡若狭町",
        "streetName": "仮屋第３４号３２番地",
        "latitude": 35.5489825,
        "longitude": 135.9081062,
        "id": "abbb4435-b367-4ea6-9983-5fd1f2ca68a8"
    },
    {
        "name": "八幡神社",
        "prefectureName": "福井県",
        "cityName": "越前市",
        "streetName": "勾当原町１５号１２番地",
        "latitude": 35.86279827,
        "longitude": 136.08395913,
        "id": "d78e5797-3a78-47df-b0ae-8df6c182eab6"
    },
    {
        "name": "八幡神社",
        "prefectureName": "福井県",
        "cityName": "越前市",
        "streetName": "中山町７６号３番地",
        "latitude": 35.85072114,
        "longitude": 136.06290611,
        "id": "522da64f-fd23-4f42-8483-0219e6d97385"
    },
    {
        "name": "八幡神社",
        "prefectureName": "福井県",
        "cityName": "南条郡南越前町",
        "streetName": "杉谷３９号５番地",
        "latitude": 35.809696,
        "longitude": 136.28280014,
        "id": "6f67b8ea-badb-4d42-b3b2-b2310656f226"
    },
    {
        "name": "八幡神社",
        "prefectureName": "福井県",
        "cityName": "越前市",
        "streetName": "波垣町第１３号３８番地",
        "latitude": 35.9034956,
        "longitude": 136.1688047,
        "id": "42b8ca3c-f0ad-4052-b3bd-9ba2cf51c1aa"
    },
    {
        "name": "八幡神社",
        "prefectureName": "福井県",
        "cityName": "今立郡池田町",
        "streetName": "池田３号２７番地",
        "latitude": 35.89022989,
        "longitude": 136.33706581,
        "id": "ad58a089-3e36-4b4a-b46d-f9694a09792d"
    },
    {
        "name": "八幡神社",
        "prefectureName": "福井県",
        "cityName": "丹生郡越前町",
        "streetName": "三崎第２８号１番地",
        "latitude": 35.9742018,
        "longitude": 136.1297452,
        "id": "08152e49-f193-4a88-a86f-eec938ff5852"
    },
    {
        "name": "八幡神社",
        "prefectureName": "福井県",
        "cityName": "丹生郡越前町",
        "streetName": "小川３５号５番地",
        "latitude": 36.00226043,
        "longitude": 136.0611989,
        "id": "da7e5ea7-d935-419c-8c34-babb3a48ca29"
    },
    {
        "name": "八幡神社",
        "prefectureName": "福井県",
        "cityName": "鯖江市",
        "streetName": "小黒町１２号３０番地",
        "latitude": 35.95501362,
        "longitude": 136.17825188,
        "id": "00e8a25a-b8f1-4315-aa13-c7f7dfce931b"
    },
    {
        "name": "八幡神社",
        "prefectureName": "福井県",
        "cityName": "大飯郡高浜町",
        "streetName": "神野４３号４、５番地",
        "latitude": 35.51955213,
        "longitude": 135.49211672,
        "id": "3def31e4-0735-47a9-80a9-9bfb6e8dd976"
    },
    {
        "name": "八日市普活廻神社",
        "prefectureName": "福井県",
        "cityName": "福井市",
        "streetName": "砂子坂町７号６番地",
        "latitude": 36.14453555,
        "longitude": 136.14691425,
        "id": "cb9564e6-ebbf-4577-8076-146322f8e3b1"
    },
    {
        "name": "八王子神社",
        "prefectureName": "福井県",
        "cityName": "福井市",
        "streetName": "大矢町１１号１番地",
        "latitude": 36.0643665,
        "longitude": 136.2195965,
        "id": "9b041067-9c09-47de-b9f3-0b39dee8aef2"
    },
    {
        "name": "八王子神社",
        "prefectureName": "福井県",
        "cityName": "福井市",
        "streetName": "国山町３９号１５番地",
        "latitude": 36.05494532,
        "longitude": 136.0434406,
        "id": "a21a8db7-c86f-4db5-944e-651a246c6266"
    },
    {
        "name": "八雲神社",
        "prefectureName": "福井県",
        "cityName": "あわら市",
        "streetName": "北潟第４６号３番地",
        "latitude": 36.211344,
        "longitude": 136.2290278,
        "id": "bc97b192-8445-4db6-95ae-e4a6bfea69a3"
    },
    {
        "name": "六所神社",
        "prefectureName": "福井県",
        "cityName": "小浜市",
        "streetName": "相生第４３号１２番地",
        "latitude": 35.44335327,
        "longitude": 135.70101232,
        "id": "0357afdd-81cc-4773-8c3a-6a201f8b4708"
    },
    {
        "name": "六月＿神社",
        "prefectureName": "福井県",
        "cityName": "小浜市",
        "streetName": "小浜津島１０５番地",
        "latitude": 35.50192817,
        "longitude": 135.7427056,
        "id": "e4ce3c35-e106-4d31-801d-3be2b1fd0264"
    },
    {
        "name": "六社神社",
        "prefectureName": "福井県",
        "cityName": "小浜市",
        "streetName": "大谷第３１号４番地の１",
        "latitude": 35.50993754,
        "longitude": 135.82015493,
        "id": "0ceaf8e7-7845-4ed5-ac2c-ea30d17b31ee"
    },
    {
        "name": "六社神社",
        "prefectureName": "福井県",
        "cityName": "大飯郡おおい町",
        "streetName": "野尻１８号１６番地",
        "latitude": 35.45847542,
        "longitude": 135.61594808,
        "id": "99b8d769-b9f4-4755-9f9a-f39d9e773e89"
    },
    {
        "name": "冨士神社",
        "prefectureName": "福井県",
        "cityName": "福井市",
        "streetName": "種池町１３号３２番地",
        "latitude": 36.0643665,
        "longitude": 136.2195965,
        "id": "2c9fca8b-1480-4693-9cff-6716b409f86e"
    },
    {
        "name": "冨士神社",
        "prefectureName": "福井県",
        "cityName": "福井市",
        "streetName": "鉾ケ崎町２４号４番地",
        "latitude": 36.00416337,
        "longitude": 136.21136583,
        "id": "7b892cdb-b040-4e5c-a2fe-7ed86648e623"
    },
    {
        "name": "刀那神社",
        "prefectureName": "福井県",
        "cityName": "越前市",
        "streetName": "寺地町第１２号３５番地の１",
        "latitude": 35.9348711,
        "longitude": 136.29102476,
        "id": "39a55450-2992-4b27-b7f8-366d55d0edc4"
    },
    {
        "name": "分神社",
        "prefectureName": "福井県",
        "cityName": "福井市",
        "streetName": "脇三ケ町４０号１８番地",
        "latitude": 36.01718322,
        "longitude": 136.29238953,
        "id": "657612f4-03ae-4440-9581-05c4df42ba3b"
    },
    {
        "name": "別宮神社",
        "prefectureName": "福井県",
        "cityName": "敦賀市",
        "streetName": "櫛川１号字宮森５番地",
        "latitude": 35.6452468,
        "longitude": 136.0554435,
        "id": "7e915e1c-9e88-4cc7-add4-533305a225b4"
    },
    {
        "name": "別宮神社",
        "prefectureName": "福井県",
        "cityName": "敦賀市",
        "streetName": "原字ハンシャ鼻４号４１番地",
        "latitude": 35.65462295,
        "longitude": 136.02942396,
        "id": "8e640c21-0400-49b0-86e4-98f4031bad8e"
    },
    {
        "name": "利椋八幡神社",
        "prefectureName": "福井県",
        "cityName": "敦賀市",
        "streetName": "阿曾６９号１０番地",
        "latitude": 35.72267165,
        "longitude": 136.09804632,
        "id": "3fa127d8-29e4-428f-86db-85edeb5342ac"
    },
    {
        "name": "前川神社",
        "prefectureName": "福井県",
        "cityName": "三方上中郡若狭町",
        "streetName": "南前川４３号４４番地",
        "latitude": 35.5489825,
        "longitude": 135.9081062,
        "id": "c8dab346-3bf5-4615-8a9b-623cd539c5b3"
    },
    {
        "name": "前谷神社",
        "prefectureName": "福井県",
        "cityName": "あわら市",
        "streetName": "前谷１０号２番地の乙",
        "latitude": 36.2026822,
        "longitude": 136.27511231,
        "id": "1f7bf1d2-51d1-453f-bd69-c1d1159429ae"
    },