[
    {
        "name": "やまと多知加伎の杜神社",
        "prefectureName": "大阪府",
        "cityName": "岸和田市",
        "streetName": "並松町２２番１６号",
        "latitude": 34.46691634,
        "longitude": 135.3748895,
        "id": "36ded143-c938-456f-918e-27d2aae2c714"
    },
    {
        "name": "一岡神社",
        "prefectureName": "大阪府",
        "cityName": "泉南市",
        "streetName": "信達大苗代３７３番地",
        "latitude": 34.37577568,
        "longitude": 135.28886519,
        "id": "6ecdc351-5818-436e-a42c-436dc539ca09"
    },
    {
        "name": "三之宮神社",
        "prefectureName": "大阪府",
        "cityName": "枚方市",
        "streetName": "穂谷２丁目７番１号",
        "latitude": 34.79464918,
        "longitude": 135.72888139,
        "id": "364e4fb5-a9ab-4f00-bad8-08f5f3a30105"
    },
    {
        "name": "三光神社",
        "prefectureName": "大阪府",
        "cityName": "大阪市天王寺区",
        "streetName": "玉造本町１４番９０号",
        "latitude": 34.67326506,
        "longitude": 135.52949107,
        "id": "258e8d34-82a9-4838-8200-130393e47569"
    },
    {
        "name": "三十八神社",
        "prefectureName": "大阪府",
        "cityName": "東大阪市",
        "streetName": "西岩田１丁目８番２１号",
        "latitude": 34.66518396,
        "longitude": 135.6029151,
        "id": "4d852cab-d8b1-45c7-89af-7dc21df324f4"
    },
    {
        "name": "三島神社",
        "prefectureName": "大阪府",
        "cityName": "門真市",
        "streetName": "三ツ島１丁目１５番２０号",
        "latitude": 34.72121367,
        "longitude": 135.59579251,
        "id": "a5bc313c-9451-4fde-b64f-f911c1ceb1ce"
    },
    {
        "name": "三島鴨神社",
        "prefectureName": "大阪府",
        "cityName": "高槻市",
        "streetName": "三島江２丁目７番３７号",
        "latitude": 34.80277947,
        "longitude": 135.61089802,
        "id": "d0032b21-a612-4367-99e3-b78273f5c739"
    },
    {
        "name": "三津神社",
        "prefectureName": "大阪府",
        "cityName": "大阪市港区",
        "streetName": "夕凪２丁目６番１１号",
        "latitude": 34.66265929,
        "longitude": 135.45138433,
        "id": "f4fbe627-38aa-4956-89f0-07aec001cf16"
    },
    {
        "name": "三社神社",
        "prefectureName": "大阪府",
        "cityName": "大阪市港区",
        "streetName": "磯路２丁目１８番２３号",
        "latitude": 34.66648681,
        "longitude": 135.46016669,
        "id": "367cb06d-bb8a-44f2-8ec2-e42b9d46bace"
    },
    {
        "name": "三輪神社",
        "prefectureName": "大阪府",
        "cityName": "高槻市",
        "streetName": "富田町４丁目１４番１４号",
        "latitude": 34.8299011,
        "longitude": 135.59339356,
        "id": "312249c8-7365-43d7-906f-e208518a483b"
    },
    {
        "name": "三都神社",
        "prefectureName": "大阪府",
        "cityName": "大阪狭山市",
        "streetName": "今熊５丁目６４７番地",
        "latitude": 34.49131854,
        "longitude": 135.53673856,
        "id": "131aeca2-8451-451d-bd94-6eb727627c89"
    },
    {
        "name": "不本見神社",
        "prefectureName": "大阪府",
        "cityName": "南河内郡千早赤阪村",
        "streetName": "大字東阪１１２９番地",
        "latitude": 34.44183664,
        "longitude": 135.63256082,
        "id": "e1500635-f619-4f56-9db7-655b4c7fbdc5"
    },
    {
        "name": "両皇大神社",
        "prefectureName": "大阪府",
        "cityName": "大東市",
        "streetName": "深野１丁目１番９号",
        "latitude": 34.71347889,
        "longitude": 135.62441775,
        "id": "5f5cda0d-d0ff-45ec-a554-1765a40afd27"
    },
    {
        "name": "中井神社",
        "prefectureName": "大阪府",
        "cityName": "大阪市東住吉区",
        "streetName": "針中野２丁目３番５８号",
        "latitude": 34.61934323,
        "longitude": 135.5358859,
        "id": "cc6ffbbc-b78c-42ae-87cb-8ad4d6772fed"
    },
    {
        "name": "中村神社",
        "prefectureName": "大阪府",
        "cityName": "岸和田市",
        "streetName": "山直中町５０２番地",
        "latitude": 34.4393542,
        "longitude": 135.4401201,
        "id": "54298b95-12ac-4df0-a4d8-73136d0bbdfa"
    },
    {
        "name": "中津神社",
        "prefectureName": "大阪府",
        "cityName": "南河内郡千早赤阪村",
        "streetName": "大字中津原６９１番地",
        "latitude": 34.43402612,
        "longitude": 135.62145881,
        "id": "2c1c79c4-3a8d-4719-8e80-e9f7cf36768b"
    },
    {
        "name": "中臣須牟地神社",
        "prefectureName": "大阪府",
        "cityName": "大阪市東住吉区",
        "streetName": "住道矢田２丁目９番２０号",
        "latitude": 34.60399773,
        "longitude": 135.53909163,
        "id": "a655db81-804d-465c-add4-338fa344d9e7"
    },
    {
        "name": "丹比神社",
        "prefectureName": "大阪府",
        "cityName": "堺市美原区",
        "streetName": "多治井１５７番地",
        "latitude": 34.54473249,
        "longitude": 135.56267985,
        "id": "909b674c-18dc-4f7a-9827-b23f531f3874"
    },
    {
        "name": "丹波神社",
        "prefectureName": "大阪府",
        "cityName": "東大阪市",
        "streetName": "日下町１丁目４番４６号",
        "latitude": 34.68984576,
        "longitude": 135.65493503,
        "id": "46bb8ef3-d186-42b6-8bfc-3343a866ce5c"
    },
    {
        "name": "久佐々神社",
        "prefectureName": "大阪府",
        "cityName": "豊能郡能勢町",
        "streetName": "宿野２７４番地の１",
        "latitude": 34.97603587,
        "longitude": 135.41869822,
        "id": "0398e0b4-0b61-4141-ac4b-c8f3156875f7"
    },
    {
        "name": "久保神社",
        "prefectureName": "大阪府",
        "cityName": "大阪市天王寺区",
        "streetName": "勝山２丁目５番１４号",
        "latitude": 34.65358652,
        "longitude": 135.52049774,
        "id": "db37cf6f-896d-4ef3-91ce-397f8531d4ca"
    },
    {
        "name": "二ノ宮神社",
        "prefectureName": "大阪府",
        "cityName": "枚方市",
        "streetName": "船橋本町１丁目７０７番地",
        "latitude": 34.85411951,
        "longitude": 135.68055991,
        "id": "7255e8c3-0233-43b7-a763-2ec984f987d5"
    },
    {
        "name": "二宮神社",
        "prefectureName": "大阪府",
        "cityName": "柏原市",
        "streetName": "安堂町１９番９号",
        "latitude": 34.57861317,
        "longitude": 135.63316711,
        "id": "89cce591-7e18-4878-b2b0-0b0ac051d992"
    },
    {
        "name": "五字神社",
        "prefectureName": "大阪府",
        "cityName": "箕面市",
        "streetName": "粟生外院５丁目４番１号",
        "latitude": 34.84375013,
        "longitude": 135.50443723,
        "id": "50451edc-6334-41e9-9bd2-2e46ab8988e3"
    },
    {
        "name": "五社神社",
        "prefectureName": "大阪府",
        "cityName": "大阪市西淀川区",
        "streetName": "中島１丁目２番８号",
        "latitude": 34.70654264,
        "longitude": 135.43235179,
        "id": "f9df7a44-cae1-4347-8e2a-e5aefcff4ae9"
    },
    {
        "name": "五社神社",
        "prefectureName": "大阪府",
        "cityName": "池田市",
        "streetName": "鉢塚２丁目４番２８号",
        "latitude": 34.81743566,
        "longitude": 135.43715989,
        "id": "a69f394a-bce8-43ce-bf67-b3eb7040148c"
    },
    {
        "name": "井於神社",
        "prefectureName": "大阪府",
        "cityName": "茨木市",
        "streetName": "蔵垣内３丁目５番１５号",
        "latitude": 34.79369576,
        "longitude": 135.55434217,
        "id": "65a151cf-a570-4e68-a0ac-c2e60d7912a6"
    },
    {
        "name": "今宮戎神社",
        "prefectureName": "大阪府",
        "cityName": "大阪市浪速区",
        "streetName": "恵美須西１丁目６番１０号",
        "latitude": 34.65534727,
        "longitude": 135.50247717,
        "id": "041748d2-1205-408b-bfb6-062b6db010fb"
    },
    {
        "name": "仲村神社",
        "prefectureName": "大阪府",
        "cityName": "東大阪市",
        "streetName": "菱江２丁目２番５０号",
        "latitude": 34.67422474,
        "longitude": 135.61090869,
        "id": "961f3d50-0283-4051-baa5-6282ac5bce79"
    },
    {
        "name": "伊射奈岐神社",
        "prefectureName": "大阪府",
        "cityName": "吹田市",
        "streetName": "山田東２丁目３番１号",
        "latitude": 34.79629763,
        "longitude": 135.52970271,
        "id": "29627ae3-9d18-4e92-a637-17b301451e78"
    },
    {
        "name": "伊射奈岐神社",
        "prefectureName": "大阪府",
        "cityName": "吹田市",
        "streetName": "佐井寺１丁目１８番２６号",
        "latitude": 34.78408222,
        "longitude": 135.51828994,
        "id": "72bb2291-c3ed-4023-946b-2e63926616c4"
    },
    {
        "name": "伊居太神社",
        "prefectureName": "大阪府",
        "cityName": "池田市",
        "streetName": "綾羽２丁目４番５号",
        "latitude": 34.82872588,
        "longitude": 135.42572447,
        "id": "b59dd084-8e7c-406b-8716-cf082a4d2da3"
    },
    {
        "name": "伯太神社",
        "prefectureName": "大阪府",
        "cityName": "和泉市",
        "streetName": "伯太町５丁目２２番３号",
        "latitude": 34.49691384,
        "longitude": 135.4370475,
        "id": "02aa4fd7-a153-40e5-b24d-4bdc0a5d0f3e"
    },
    {
        "name": "伴林氏神社",
        "prefectureName": "大阪府",
        "cityName": "藤井寺市",
        "streetName": "林３丁目６番３０号",
        "latitude": 34.57573554,
        "longitude": 135.61123311,
        "id": "ddd0c65c-e304-4621-9c74-3a4b7054f553"
    },
    {
        "name": "住吉平田神社",
        "prefectureName": "大阪府",
        "cityName": "四條畷市",
        "streetName": "南野２丁目１８番２６号",
        "latitude": 34.73205208,
        "longitude": 135.64809023,
        "id": "29e9393e-6c6f-4b58-9852-2c55784f05a7"
    },
    {
        "name": "住吉神社",
        "prefectureName": "大阪府",
        "cityName": "大阪市西淀川区",
        "streetName": "福町２丁目１５番６号",
        "latitude": 34.69702725,
        "longitude": 135.441201,
        "id": "1dfee62a-8edb-4087-a5c3-0f0d667d403e"
    },
    {
        "name": "住吉神社",
        "prefectureName": "大阪府",
        "cityName": "池田市",
        "streetName": "住吉２丁目３番１８号",
        "latitude": 34.80165973,
        "longitude": 135.43995724,
        "id": "8fe20583-5cbc-4c47-88df-0d1a2244c0bb"
    },
    {
        "name": "住吉神社",
        "prefectureName": "大阪府",
        "cityName": "河内長野市",
        "streetName": "小山田町４５３番地",
        "latitude": 34.45373152,
        "longitude": 135.5530904,
        "id": "002beffd-c4d4-46a3-9e36-c8f9f3068c8a"
    },
    {
        "name": "住吉神社",
        "prefectureName": "大阪府",
        "cityName": "泉佐野市",
        "streetName": "下瓦屋２丁目１番８号",
        "latitude": 34.42114291,
        "longitude": 135.32868433,
        "id": "cf1b2496-a531-4d38-bb20-d911905ad3db"
    },
    {
        "name": "住吉神社",
        "prefectureName": "大阪府",
        "cityName": "泉南郡岬町",
        "streetName": "多奈川小島７４０番地",
        "latitude": 34.31505693,
        "longitude": 135.09394445,
        "id": "64aba0f9-f31d-4e98-81ec-a75a9fb779f5"
    },
    {
        "name": "住吉神社",
        "prefectureName": "大阪府",
        "cityName": "大阪市東住吉区",
        "streetName": "湯里４丁目１７番１４号",
        "latitude": 34.6220428,
        "longitude": 135.5265673,
        "id": "05ed0fc3-278d-4cff-8d1d-154c2030a430"
    },
    {
        "name": "住吉神社",
        "prefectureName": "大阪府",
        "cityName": "寝屋川市",
        "streetName": "木田町６番１０号",
        "latitude": 34.76260112,
        "longitude": 135.61980575,
        "id": "f4681608-e819-4a4d-83ed-a105d02e1f5d"
    },
    {
        "name": "住吉神社",
        "prefectureName": "大阪府",
        "cityName": "大東市",
        "streetName": "大字龍間１４５８番地",
        "latitude": 34.71236278,
        "longitude": 135.65804811,
        "id": "76056df7-95ea-4bb9-ba4a-cd31de466a45"
    },
    {
        "name": "住吉神社",
        "prefectureName": "大阪府",
        "cityName": "大阪市港区",
        "streetName": "福崎１丁目１番３９号",
        "latitude": 34.65900716,
        "longitude": 135.45914763,
        "id": "f1c21180-459c-4f27-b2cb-7d2b82a2b576"
    },
    {
        "name": "住吉神社",
        "prefectureName": "大阪府",
        "cityName": "四條畷市",
        "streetName": "大字上田原２３５番地",
        "latitude": 34.72240927,
        "longitude": 135.69966616,
        "id": "e9aae23f-71f5-4a15-a179-aa94ce9fadda"
    },
    {
        "name": "住吉神社",
        "prefectureName": "大阪府",
        "cityName": "大阪市西淀川区",
        "streetName": "野里１丁目１５番１２号",
        "latitude": 34.70962057,
        "longitude": 135.46282925,
        "id": "ed551f94-d92e-4159-b391-b1552ac2d2ef"
    },
    {
        "name": "住吉神社",
        "prefectureName": "大阪府",
        "cityName": "豊中市",
        "streetName": "若竹町１丁目２２番６号",
        "latitude": 34.7698695,
        "longitude": 135.48717901,
        "id": "72b72fea-7970-4b61-b78c-752af0e5f10c"
    },
    {
        "name": "住吉神社",
        "prefectureName": "大阪府",
        "cityName": "八尾市",
        "streetName": "東山本町２丁目３８番地",
        "latitude": 34.626866,
        "longitude": 135.6009771,
        "id": "fecfe9cf-906b-4cb7-b45e-d8e54a365ba8"
    },
    {
        "name": "住吉神社",
        "prefectureName": "大阪府",
        "cityName": "大阪市港区",
        "streetName": "池島２丁目８番４号",
        "latitude": 34.65692659,
        "longitude": 135.44976802,
        "id": "88370159-1740-41c3-b0fe-a17dbe35fc37"
    },
    {
        "name": "住吉神社",
        "prefectureName": "大阪府",
        "cityName": "交野市",
        "streetName": "私部１丁目３６番２号",
        "latitude": 34.7864771,
        "longitude": 135.68318582,
        "id": "b5c67a6a-2b09-4a29-b272-7a574c668c0c"
    },
    {
        "name": "住吉神社",
        "prefectureName": "大阪府",
        "cityName": "交野市",
        "streetName": "大字寺１２０１番地",
        "latitude": 34.77960877,
        "longitude": 135.69675134,
        "id": "26c7ace9-da88-42df-8a2c-51a19c76d554"
    },
    {
        "name": "住吉神社",
        "prefectureName": "大阪府",
        "cityName": "大阪市西淀川区",
        "streetName": "百島１丁目３番９８号",
        "latitude": 34.69676056,
        "longitude": 135.43909013,
        "id": "4be3fea0-3e88-4f6e-b27c-4fff173b5126"
    },
    {
        "name": "住吉神社",
        "prefectureName": "大阪府",
        "cityName": "大阪市西淀川区",
        "streetName": "大和田５丁目２０番２０号",
        "latitude": 34.70874818,
        "longitude": 135.44378109,
        "id": "c5a1521d-5d41-431a-9489-499b44a49afd"
    },
    {
        "name": "住吉神社",
        "prefectureName": "大阪府",
        "cityName": "豊中市",
        "streetName": "豊南町西１丁目１０番３６号",
        "latitude": 34.7523214,
        "longitude": 135.48043825,
        "id": "21a5fb56-bf9f-453d-9b99-d85620e7fc1e"
    },
    {
        "name": "住吉神社",
        "prefectureName": "大阪府",
        "cityName": "大阪市此花区",
        "streetName": "梅香３丁目１４番１６号",
        "latitude": 34.68286539,
        "longitude": 135.45699138,
        "id": "54a6e163-0258-438d-ac8f-a3be948d4f55"
    },
    {
        "name": "佐備神社",
        "prefectureName": "大阪府",
        "cityName": "富田林市",
        "streetName": "大字佐備４６７番地",
        "latitude": 34.480493,
        "longitude": 135.60422692,
        "id": "110f4f93-ce9e-4026-8ba5-0eb56b9346f9"
    },
    {
        "name": "佐和良義神社",
        "prefectureName": "大阪府",
        "cityName": "茨木市",
        "streetName": "美沢町９番２７号",
        "latitude": 34.7997652,
        "longitude": 135.56973773,
        "id": "1c9d9bd4-528a-4da6-b7b7-35dfe39573c2"
    },
    {
        "name": "佐奈部神社",
        "prefectureName": "大阪府",
        "cityName": "茨木市",
        "streetName": "稲葉町１６番２６号",
        "latitude": 34.81049479,
        "longitude": 135.57673691,
        "id": "bbb4138e-4ea4-4cad-ba32-59e2b65ffb35"
    },
    {
        "name": "佐麻多度神社",
        "prefectureName": "大阪府",
        "cityName": "八尾市",
        "streetName": "大字山畑３４０番地",
        "latitude": 34.62760289,
        "longitude": 135.64669246,
        "id": "9e17f62e-5f17-47c4-82ee-eb5f08361a54"
    },
    {
        "name": "保利神社",
        "prefectureName": "大阪府",
        "cityName": "大阪市住吉区",
        "streetName": "長居東１丁目１４番１７号",
        "latitude": 34.6074248,
        "longitude": 135.52257072,
        "id": "bb76ada8-5086-4593-9778-831a89b1a1e8"
    },
    {
        "name": "信太森神社",
        "prefectureName": "大阪府",
        "cityName": "和泉市",
        "streetName": "葛の葉町１丁目１１番４７号",
        "latitude": 34.50933741,
        "longitude": 135.43864992,
        "id": "43453929-2705-4842-807b-b895822b3111"
    },
    {
        "name": "信達神社",
        "prefectureName": "大阪府",
        "cityName": "泉南市",
        "streetName": "信達金熊寺７９５番地",
        "latitude": 34.33943817,
        "longitude": 135.28805251,
        "id": "bfee4d31-79ea-46f1-8270-390abccbcbf1"
    },
    {
        "name": "八劔神社",
        "prefectureName": "大阪府",
        "cityName": "大阪市城東区",
        "streetName": "鴫野東３丁目３１番８号",
        "latitude": 34.69128275,
        "longitude": 135.54963898,
        "id": "4d34a1a5-2a06-4d68-bab8-7e3f58ab217d"
    },
    {
        "name": "八坂瓊神社",
        "prefectureName": "大阪府",
        "cityName": "守口市",
        "streetName": "大庭町２丁目９３番地",
        "latitude": 34.7357864,
        "longitude": 135.5617507,
        "id": "a1fac5ed-3058-4502-80e3-29da2fc1bb97"
    },
    {
        "name": "八坂神社",
        "prefectureName": "大阪府",
        "cityName": "寝屋川市",
        "streetName": "八坂町１１番１３号",
        "latitude": 34.76555362,
        "longitude": 135.62381643,
        "id": "080c83e2-7ff8-4cc6-a9ad-e985e8009e8f"
    },
    {
        "name": "八坂神社",
        "prefectureName": "大阪府",
        "cityName": "和泉市",
        "streetName": "大字父鬼２８９番地",
        "latitude": 34.4835264,
        "longitude": 135.42356,
        "id": "339f3aa6-026a-4ba9-af50-93ea4aae8676"
    },
    {
        "name": "八坂神社",
        "prefectureName": "大阪府",
        "cityName": "池田市",
        "streetName": "神田４丁目７番１号",
        "latitude": 34.8124388,
        "longitude": 135.42225016,
        "id": "996e3572-7112-4109-b5f6-a59bd9c6796e"
    },
    {
        "name": "八坂神社",
        "prefectureName": "大阪府",
        "cityName": "和泉市",
        "streetName": "箕形町６７８番地の２，６８１番地の１",
        "latitude": 34.4835264,
        "longitude": 135.42356,
        "id": "ec70098c-a8b3-4b80-b252-0075e8ae9db5"
    },
    {
        "name": "八坂神社",
        "prefectureName": "大阪府",
        "cityName": "大阪市平野区",
        "streetName": "喜連東２丁目１番１４号",
        "latitude": 34.6131749,
        "longitude": 135.5594451,
        "id": "c56ccab7-a131-4a15-b4f5-677ccf90d691"
    },
    {
        "name": "八坂神社",
        "prefectureName": "大阪府",
        "cityName": "大阪市大正区",
        "streetName": "三軒家東２丁目７番１８号",
        "latitude": 34.66128792,
        "longitude": 135.47931521,
        "id": "c08fb3f5-a28d-4708-8bea-74bdb745c8b6"
    },
    {
        "name": "八坂神社",
        "prefectureName": "大阪府",
        "cityName": "豊中市",
        "streetName": "熊野町３丁目１０番１号",
        "latitude": 34.79091988,
        "longitude": 135.48405939,
        "id": "7e783878-2949-4a18-ae2b-93ef9a75d8f4"
    },
    {
        "name": "八尾神社",
        "prefectureName": "大阪府",
        "cityName": "八尾市",
        "streetName": "本町７丁目７番２７号",
        "latitude": 34.63033501,
        "longitude": 135.59962717,
        "id": "ead1c1e1-815a-4773-a98c-d45664f01d7b"
    },
    {
        "name": "八幡太神社",
        "prefectureName": "大阪府",
        "cityName": "箕面市",
        "streetName": "新稲３丁目６番１号",
        "latitude": 34.83043194,
        "longitude": 135.46354888,
        "id": "825c38f6-6d82-4005-a501-98dcd2545d43"
    },
    {
        "name": "八幡神社",
        "prefectureName": "大阪府",
        "cityName": "松原市",
        "streetName": "大堀３丁目１番４４号",
        "latitude": 34.5893888,
        "longitude": 135.57111138,
        "id": "73ce4bc7-6461-4d09-8ec2-543a7ece4278"
    },
    {
        "name": "八幡神社",
        "prefectureName": "大阪府",
        "cityName": "東大阪市",
        "streetName": "上小阪４丁目１１番１８号",
        "latitude": 34.65324607,
        "longitude": 135.5868528,
        "id": "a4f435b9-cd92-4cb4-a848-61d17eb06d00"
    },
    {
        "name": "八幡神社",
        "prefectureName": "大阪府",
        "cityName": "東大阪市",
        "streetName": "森河内５１９番地",
        "latitude": 34.6793101,
        "longitude": 135.6009206,
        "id": "8b42ef4f-3aab-4d92-b917-cf4b72b21298"
    },
    {
        "name": "八幡神社",
        "prefectureName": "大阪府",
        "cityName": "河内長野市",
        "streetName": "天見２２１１番地",
        "latitude": 34.39170206,
        "longitude": 135.59015959,
        "id": "f1aeca7d-2384-4f9c-85fa-7b93955cb78f"
    },
    {
        "name": "八幡神社",
        "prefectureName": "大阪府",
        "cityName": "大阪市鶴見区",
        "streetName": "諸口２丁目４番４１号",
        "latitude": 34.69861304,
        "longitude": 135.57981939,
        "id": "fb52f313-82e3-45aa-b989-c93f91fe949e"
    },
    {
        "name": "八幡神社",
        "prefectureName": "大阪府",
        "cityName": "柏原市",
        "streetName": "大字峠４９４番地",
        "latitude": 34.5792715,
        "longitude": 135.628687,
        "id": "9f880b56-372c-49d3-a3e8-a1b5bed8390a"
    },
    {
        "name": "八幡神社",
        "prefectureName": "大阪府",
        "cityName": "三島郡島本町",
        "streetName": "大字桜井６８４番地",
        "latitude": 34.8838298,
        "longitude": 135.6629916,
        "id": "4e408c29-73e9-4aab-ae55-9a206ab79954"
    },
    {
        "name": "八幡神社",
        "prefectureName": "大阪府",
        "cityName": "豊能郡豊能町",
        "streetName": "吉川９３６番地",
        "latitude": 34.9189391,
        "longitude": 135.4941564,
        "id": "1afdb3b4-7604-4baa-b8b3-4d69b9f829be"
    },
    {
        "name": "八幡神社",
        "prefectureName": "大阪府",
        "cityName": "枚方市",
        "streetName": "磯島元町５番７号",
        "latitude": 34.82320555,
        "longitude": 135.64760549,
        "id": "d4fbdb7e-06e2-453a-889f-393178e1cf72"
    },
    {
        "name": "八幡神社",
        "prefectureName": "大阪府",
        "cityName": "大東市",
        "streetName": "御供田２丁目３番２０号",
        "latitude": 34.70668802,
        "longitude": 135.62806204,
        "id": "e0e74152-5a96-4026-a547-16ee032121dc"
    },
    {
        "name": "八幡神社",
        "prefectureName": "大阪府",
        "cityName": "泉佐野市",
        "streetName": "南中安松２９２番地",
        "latitude": 34.39357379,
        "longitude": 135.30735276,
        "id": "41f60170-6f31-4b7b-8e72-8ff561dcb0a6"
    },
    {
        "name": "八幡神社",
        "prefectureName": "大阪府",
        "cityName": "寝屋川市",
        "streetName": "八幡台１１番５号",
        "latitude": 34.76859227,
        "longitude": 135.63971789,
        "id": "a4a7fd95-d178-48aa-830d-45a2bde9712c"
    },
    {
        "name": "八幡神社",
        "prefectureName": "大阪府",
        "cityName": "茨木市",
        "streetName": "大字大岩６７４番地",
        "latitude": 34.87751677,
        "longitude": 135.54198859,
        "id": "6fb0db69-44c5-4536-8e3f-813bd589de8f"
    },
    {
        "name": "八所神社",
        "prefectureName": "大阪府",
        "cityName": "茨木市",
        "streetName": "大字忍頂寺３０５番地",
        "latitude": 34.89589959,
        "longitude": 135.54487483,
        "id": "1cf6ff71-98c3-4326-afd2-405a1840616d"
    },
    {
        "name": "八王子神社",
        "prefectureName": "大阪府",
        "cityName": "大阪市東成区",
        "streetName": "中本４丁目２番４８号",
        "latitude": 34.67750361,
        "longitude": 135.54000669,
        "id": "bcc68aeb-82c2-46ea-bbe0-f3b8f98b1c91"
    },
    {
        "name": "八阪神社",
        "prefectureName": "大阪府",
        "cityName": "大阪市北区",
        "streetName": "大淀中３丁目１番２３号",
        "latitude": 34.70271623,
        "longitude": 135.48450252,
        "id": "9e6d0a61-1928-4504-8238-e40ff337e76a"
    },
    {
        "name": "八阪神社",
        "prefectureName": "大阪府",
        "cityName": "茨木市",
        "streetName": "宿久庄１丁目９番１号",
        "latitude": 34.84155931,
        "longitude": 135.54101727,
        "id": "bf84eee6-59ca-4df9-8543-6085237f10ac"
    },
    {
        "name": "八阪神社",
        "prefectureName": "大阪府",
        "cityName": "門真市",
        "streetName": "御堂町４番２８号",
        "latitude": 34.74211682,
        "longitude": 135.59609206,
        "id": "b08aa6cb-d0d7-4387-84d6-5b90ddf73447"
    },
    {
        "name": "八阪神社",
        "prefectureName": "大阪府",
        "cityName": "茨木市",
        "streetName": "東太田２丁目１８番４号",
        "latitude": 34.84237987,
        "longitude": 135.58037504,
        "id": "c202fd3c-69e2-45b4-bf14-2c9e79c70a61"
    },
    {
        "name": "八阪神社",
        "prefectureName": "大阪府",
        "cityName": "大阪市福島区",
        "streetName": "海老江６丁目４番２号",
        "latitude": 34.69877483,
        "longitude": 135.47091479,
        "id": "0e6b84c2-465a-4aa9-8658-8c1cee8bebd1"
    },
    {
        "name": "八阪神社",
        "prefectureName": "大阪府",
        "cityName": "八尾市",
        "streetName": "西山本町２丁目９番３２号",
        "latitude": 34.62958831,
        "longitude": 135.61856166,
        "id": "97c5e30a-0a3a-4ba7-a9a1-780fe5823bd6"
    },
    {
        "name": "八阪神社",
        "prefectureName": "大阪府",
        "cityName": "大阪市大正区",
        "streetName": "三軒家東６丁目１４番１２号",
        "latitude": 34.65633848,
        "longitude": 135.47651008,
        "id": "b4ff73d8-640d-4fc7-8ca6-4f485afb3595"
    },
    {
        "name": "八阪神社",
        "prefectureName": "大阪府",
        "cityName": "高槻市",
        "streetName": "大字原３２９７番地",
        "latitude": 34.8461611,
        "longitude": 135.6172738,
        "id": "24060115-411f-4bc9-b3ed-0b8b5e6eb86e"
    },
    {
        "name": "八阪神社",
        "prefectureName": "大阪府",
        "cityName": "和泉市",
        "streetName": "幸２丁目１４番１６号",
        "latitude": 34.50217158,
        "longitude": 135.43978328,
        "id": "fb6bb068-76ea-445d-80dc-4e582da2f445"
    },
    {
        "name": "八阪神社",
        "prefectureName": "大阪府",
        "cityName": "大阪市東成区",
        "streetName": "中道４丁目８番２０号",
        "latitude": 34.67546492,
        "longitude": 135.53805134,
        "id": "1330bdd7-4a03-4b93-8b94-f0ec42159a22"
    },
    {
        "name": "八雲神社",
        "prefectureName": "大阪府",
        "cityName": "守口市",
        "streetName": "八雲北町２丁目１５番１号",
        "latitude": 34.75024309,
        "longitude": 135.56171687,
        "id": "6c002553-02aa-4a89-ab97-19de16c5c220"
    },
    {
        "name": "兵主神社",
        "prefectureName": "大阪府",
        "cityName": "岸和田市",
        "streetName": "西之内町１番１号",
        "latitude": 34.47043572,
        "longitude": 135.39118528,
        "id": "1d4c5258-cae5-4273-ac9f-fb39ba2e53f5"
    },
    {
        "name": "冠須賀神社",
        "prefectureName": "大阪府",
        "cityName": "高槻市",
        "streetName": "辻子１丁目３番４号",
        "latitude": 34.8352845,
        "longitude": 135.63256773,
        "id": "a764ef72-ee1e-4d9e-8e9a-eb363d335127"
    },
    {
        "name": "冠須賀神社",
        "prefectureName": "大阪府",
        "cityName": "高槻市",
        "streetName": "須賀町１４番１２号",
        "latitude": 34.8461611,
        "longitude": 135.6172738,
        "id": "430e1222-86fc-4c01-bb3b-696809537bf3"
    },
    {
        "name": "加支多神社",
        "prefectureName": "大阪府",
        "cityName": "泉佐野市",
        "streetName": "鶴原１８３４番地の２",
        "latitude": 34.42605939,
        "longitude": 135.34189929,
        "id": "795eb92c-05fc-4ef8-ac58-0d5c069894da"
    },
    {
        "name": "加津良神社",
        "prefectureName": "大阪府",
        "cityName": "八尾市",
        "streetName": "萱振町５丁目２７番地",
        "latitude": 34.64143394,
        "longitude": 135.60599306,
        "id": "80b312d6-ee2d-4dbe-95ab-c848e959465a"
    },
    {
        "name": "加茂健豆美命神社",
        "prefectureName": "大阪府",
        "cityName": "枚方市",
        "streetName": "走谷１丁目１７番２号",
        "latitude": 34.80208822,
        "longitude": 135.63639289,
        "id": "a9a6969f-4a7a-4b87-ac52-6a0f0a8ea0fb"
    },
    {
        "name": "加茂神社",
        "prefectureName": "大阪府",
        "cityName": "阪南市",
        "streetName": "箱作１６５５番地",
        "latitude": 34.33958665,
        "longitude": 135.20777079,
        "id": "f964a181-e075-4bca-a575-03c560855485"
    },
    {
        "name": "加賀田神社",
        "prefectureName": "大阪府",
        "cityName": "河内長野市",
        "streetName": "加賀田１３５番地",
        "latitude": 34.42761799,
        "longitude": 135.56772846,
        "id": "330f4bb1-bbe3-43da-9481-4a0b33b6ff7e"
    },
    {
        "name": "助松神社",
        "prefectureName": "大阪府",
        "cityName": "泉大津市",
        "streetName": "助松町１丁目３番１９号",
        "latitude": 34.51564199,
        "longitude": 135.42365116,
        "id": "a55bf72d-2320-4dff-bb03-785d1455b09a"
    },
    {
        "name": "北条神社",
        "prefectureName": "大阪府",
        "cityName": "大東市",
        "streetName": "大字北条２１９７番地",
        "latitude": 34.7120179,
        "longitude": 135.6236596,
        "id": "7b1c1079-6ed1-4ee0-bce8-2af71b35c6d4"
    },
    {
        "name": "北野神社",
        "prefectureName": "大阪府",
        "cityName": "大東市",
        "streetName": "大東町５８３番地",
        "latitude": 34.71437596,
        "longitude": 135.62096526,
        "id": "8c5a49c7-3894-4d93-a37c-51a3bd6e9eb6"
    },
    {
        "name": "北野神社",
        "prefectureName": "大阪府",
        "cityName": "阪南市",
        "streetName": "新町２５０番地",
        "latitude": 34.35863768,
        "longitude": 135.23496764,
        "id": "b12b3f4c-7a1d-4aca-be77-89a1a195a420"
    },
    {
        "name": "十二神社",
        "prefectureName": "大阪府",
        "cityName": "池田市",
        "streetName": "豊島南１丁目２番９号",
        "latitude": 34.80260402,
        "longitude": 135.43671859,
        "id": "00c0b78d-8f47-49ec-bcd0-67e0d20136f3"
    },
    {
        "name": "千早神社",
        "prefectureName": "大阪府",
        "cityName": "南河内郡千早赤阪村",
        "streetName": "大字千早１２２８番地",
        "latitude": 34.41583376,
        "longitude": 135.65331158,
        "id": "ac360f72-d5d0-4855-b915-3524a33641eb"
    },
    {
        "name": "千里丘稲荷神社",
        "prefectureName": "大阪府",
        "cityName": "摂津市",
        "streetName": "千里丘東２丁目１１番１３号",
        "latitude": 34.79091827,
        "longitude": 135.55277011,
        "id": "36421e21-be08-4009-b7c3-35daeed6c67a"
    },
    {
        "name": "南條神社",
        "prefectureName": "大阪府",
        "cityName": "大東市",
        "streetName": "野崎２丁目７番１号",
        "latitude": 34.71885912,
        "longitude": 135.6450158,
        "id": "e25369b1-79a1-456a-96a5-1d8c5b1e2f4e"
    },
    {
        "name": "南近義神社",
        "prefectureName": "大阪府",
        "cityName": "貝塚市",
        "streetName": "王子１１９５番地",
        "latitude": 34.42733732,
        "longitude": 135.35189526,
        "id": "43467db8-588f-4372-87e4-8a9362cd8de2"
    },
    {
        "name": "原林神社",
        "prefectureName": "大阪府",
        "cityName": "豊能郡能勢町",
        "streetName": "下田尻１６２番地",
        "latitude": 34.96265959,
        "longitude": 135.43532196,
        "id": "6e13a408-9591-47b2-b82b-2fd4ae25db03"
    },
    {
        "name": "原田神社",
        "prefectureName": "大阪府",
        "cityName": "豊中市",
        "streetName": "中桜塚１丁目２番１８号",
        "latitude": 34.77943206,
        "longitude": 135.46582501,
        "id": "be773b2a-0437-4fd5-b464-14fb85e47c9b"
    },
    {
        "name": "厳島神社",
        "prefectureName": "大阪府",
        "cityName": "枚方市",
        "streetName": "尊延寺５丁目９番１１号",
        "latitude": 34.80229551,
        "longitude": 135.72932021,
        "id": "6b770e01-0156-4823-9c13-bfa4597f3584"
    },
    {
        "name": "友呂岐神社",
        "prefectureName": "大阪府",
        "cityName": "寝屋川市",
        "streetName": "香里本通町１９番１３号",
        "latitude": 34.78232948,
        "longitude": 135.63547081,
        "id": "3bd8f7a6-8246-46b5-b6e7-7cd1bc60a5a7"
    },
    {
        "name": "古室八幡神社",
        "prefectureName": "大阪府",
        "cityName": "藤井寺市",
        "streetName": "古室２丁目１番１５号",
        "latitude": 34.57008889,
        "longitude": 135.60963341,
        "id": "376917d0-535a-4eda-b0cb-0527c043d107"
    },
    {
        "name": "古宮神社",
        "prefectureName": "大阪府",
        "cityName": "大阪市鶴見区",
        "streetName": "浜４丁目１６番２０号",
        "latitude": 34.71242552,
        "longitude": 135.58482982,
        "id": "069288c9-e12d-444d-86f6-00f309d245d3"
    },
    {
        "name": "吉志部神社",
        "prefectureName": "大阪府",
        "cityName": "吹田市",
        "streetName": "岸部北４丁目１８番１号",
        "latitude": 34.78380468,
        "longitude": 135.53108045,
        "id": "03cbe914-7f0f-4dc6-bba7-41fe72630a84"
    },
    {
        "name": "名次神社",
        "prefectureName": "大阪府",
        "cityName": "吹田市",
        "streetName": "岸部中１丁目１２番１４号",
        "latitude": 34.77404197,
        "longitude": 135.53076941,
        "id": "3b0ffcbd-0e9e-4ae8-a408-d2e5931e5b22"
    },
    {
        "name": "呉服神社",
        "prefectureName": "大阪府",
        "cityName": "池田市",
        "streetName": "室町７番４号",
        "latitude": 34.82282373,
        "longitude": 135.42243601,
        "id": "65fb070c-c11a-484f-8a7d-46715c9490b8"
    },
    {
        "name": "味府神社",
        "prefectureName": "大阪府",
        "cityName": "摂津市",
        "streetName": "別府１丁目１番１４号",
        "latitude": 34.76868229,
        "longitude": 135.55484487,
        "id": "2cd3d6d1-eaaf-4966-8562-0a7c384147c7"
    },
    {
        "name": "味生神社",
        "prefectureName": "大阪府",
        "cityName": "摂津市",
        "streetName": "一津屋２丁目１８番１２号",
        "latitude": 34.75916989,
        "longitude": 135.56600243,
        "id": "5d0e7c62-5f0c-49ca-b1c3-06227e6c5b10"
    },
    {
        "name": "咸古神社",
        "prefectureName": "大阪府",
        "cityName": "富田林市",
        "streetName": "大字龍泉８８６番地",
        "latitude": 34.4995269,
        "longitude": 135.5971274,
        "id": "62ddc8c8-f2bd-4406-a5d4-a913030df9e7"
    },
    {
        "name": "嘉祥神社",
        "prefectureName": "大阪府",
        "cityName": "泉南郡田尻町",
        "streetName": "大字嘉祥寺７６１番地",
        "latitude": 34.39729547,
        "longitude": 135.29267007,
        "id": "c42884c2-ed59-4489-b096-4a4793a662a2"
    },
    {
        "name": "嚴島神社",
        "prefectureName": "大阪府",
        "cityName": "松原市",
        "streetName": "一津屋５丁目８番１９号",
        "latitude": 34.5796427,
        "longitude": 135.57599453,
        "id": "fe044b51-f4cd-4cf6-8b54-73249e89d860"
    },
    {
        "name": "四條畷神社",
        "prefectureName": "大阪府",
        "cityName": "四條畷市",
        "streetName": "南野２丁目１８番１号",
        "latitude": 34.73204653,
        "longitude": 135.64876517,
        "id": "43a76a36-7df9-479d-bab6-fc3458c6aebc"
    },
    {
        "name": "国分神社",
        "prefectureName": "大阪府",
        "cityName": "柏原市",
        "streetName": "国分市場１丁目６番３５号",
        "latitude": 34.56916393,
        "longitude": 135.64584381,
        "id": "913d9a14-b215-49e0-8486-56719045ed81"
    },
    {
        "name": "国玉神社",
        "prefectureName": "大阪府",
        "cityName": "泉南郡岬町",
        "streetName": "深日９２１番地",
        "latitude": 34.31936033,
        "longitude": 135.15181354,
        "id": "c397d960-e7e9-4c68-b546-f5f82e6adcb6"
    },
    {
        "name": "國中神社",
        "prefectureName": "大阪府",
        "cityName": "四條畷市",
        "streetName": "清滝中町４番４８号",
        "latitude": 34.73996509,
        "longitude": 135.65156196,
        "id": "96f1d4c3-1d78-443f-9ff8-c3496c6900fb"
    },
    {
        "name": "國守神社",
        "prefectureName": "大阪府",
        "cityName": "寝屋川市",
        "streetName": "明和２丁目２１番１号",
        "latitude": 34.75206366,
        "longitude": 135.64516223,
        "id": "51ec09fb-a8a4-44c2-8a3e-181d06c9233b"
    },
    {
        "name": "國府八幡神社",
        "prefectureName": "大阪府",
        "cityName": "藤井寺市",
        "streetName": "国府１丁目４番５６号",
        "latitude": 34.5742798,
        "longitude": 135.5974733,
        "id": "8b931856-2f0c-4894-8e19-1fd8123e7c3f"
    },
    {
        "name": "土佐稲荷神社",
        "prefectureName": "大阪府",
        "cityName": "大阪市西区",
        "streetName": "北堀江４丁目９番７号",
        "latitude": 34.67499747,
        "longitude": 135.48521706,
        "id": "82baf6da-8cdd-4a3a-8550-b25f5172a5db"
    },
    {
        "name": "土師里八幡神社",
        "prefectureName": "大阪府",
        "cityName": "藤井寺市",
        "streetName": "道明寺１丁目８番４号",
        "latitude": 34.57120277,
        "longitude": 135.6160078,
        "id": "8a7ac0a8-48e7-4ab5-8abd-a387de4b3044"
    },
    {
        "name": "土生神社",
        "prefectureName": "大阪府",
        "cityName": "岸和田市",
        "streetName": "土生町７丁目８番１５号",
        "latitude": 34.4434001,
        "longitude": 135.38992466,
        "id": "910cad24-4e16-4d1d-adab-94e6ca5d0deb"
    },
    {
        "name": "坐摩神社",
        "prefectureName": "大阪府",
        "cityName": "大東市",
        "streetName": "大字深野３１６番地",
        "latitude": 34.7120179,
        "longitude": 135.6236596,
        "id": "82824ef1-7fae-470c-88c1-5e34a4f742a4"
    },
    {
        "name": "坐摩神社",
        "prefectureName": "大阪府",
        "cityName": "大阪市中央区",
        "streetName": "久太郎町４丁目渡辺３号",
        "latitude": 34.68101091,
        "longitude": 135.49897966,
        "id": "ce24fbae-80c6-4a77-8a11-df3f8234ed2f"
    },
    {
        "name": "垂水神社",
        "prefectureName": "大阪府",
        "cityName": "吹田市",
        "streetName": "垂水町１丁目２４番６号",
        "latitude": 34.76620352,
        "longitude": 135.50412481,
        "id": "2630d969-6689-4823-a108-d1ddd209dc36"
    },
    {
        "name": "堀川神社",
        "prefectureName": "大阪府",
        "cityName": "大阪市北区",
        "streetName": "西天満５丁目４番１７号",
        "latitude": 34.69963144,
        "longitude": 135.50880146,
        "id": "62b0d225-7db9-4a08-b0d2-4dce26966fc5"
    },
    {
        "name": "堀越神社",
        "prefectureName": "大阪府",
        "cityName": "大阪市天王寺区",
        "streetName": "茶臼山町１番８号",
        "latitude": 34.65148948,
        "longitude": 135.51322625,
        "id": "f3b661ec-00ec-483f-893c-8708dab77f01"
    },
    {
        "name": "堤根神社",
        "prefectureName": "大阪府",
        "cityName": "門真市",
        "streetName": "大字薭島４２２番地",
        "latitude": 34.73850581,
        "longitude": 135.57378572,
        "id": "87085b7a-50d5-4f5b-8ca3-6cd970aaa3f0"
    },
    {
        "name": "堤根神社",
        "prefectureName": "大阪府",
        "cityName": "門真市",
        "streetName": "宮野町８番３４号",
        "latitude": 34.74486388,
        "longitude": 135.60413841,
        "id": "e4be1a17-d4fc-424e-a25d-a5c35bf6363b"
    },
    {
        "name": "堪輿神社",
        "prefectureName": "大阪府",
        "cityName": "堺市北区",
        "streetName": "百舌鳥本町２丁１３４番地の１",
        "latitude": 34.55372496,
        "longitude": 135.48914187,
        "id": "7aa660e2-ebd6-4b70-bf10-b2cba794758e"
    },
    {
        "name": "塚本神社",
        "prefectureName": "大阪府",
        "cityName": "大阪市淀川区",
        "streetName": "塚本２丁目２番７号",
        "latitude": 34.71517556,
        "longitude": 135.47386437,
        "id": "54755c4d-3bf6-494d-adda-525a1f9887de"
    },
    {
        "name": "壹須何神社",
        "prefectureName": "大阪府",
        "cityName": "南河内郡河南町",
        "streetName": "大字一須賀６２８番地",
        "latitude": 34.4916226,
        "longitude": 135.629741,
        "id": "d9592404-5327-4b7f-a501-87a154cb48bd"
    },
    {
        "name": "多治速比売神社",
        "prefectureName": "大阪府",
        "cityName": "堺市南区",
        "streetName": "宮山台２丁３番１号",
        "latitude": 34.50207796,
        "longitude": 135.49791412,
        "id": "02754d26-13cc-461c-8a7e-f2840a9578be"
    },
    {
        "name": "夜疑神社",
        "prefectureName": "大阪府",
        "cityName": "岸和田市",
        "streetName": "中井町２丁目７番１号",
        "latitude": 34.48030142,
        "longitude": 135.40389242,
        "id": "2b2c8bd4-6508-4be9-8f30-13aecbf4193f"
    },
    {
        "name": "大依羅神社",
        "prefectureName": "大阪府",
        "cityName": "大阪市住吉区",
        "streetName": "庭井２丁目１８番１６号",
        "latitude": 34.59486511,
        "longitude": 135.51792151,
        "id": "9fd2174b-e362-4729-a559-c9f8395dace4"
    },
    {
        "name": "大八嶋福徳神社",
        "prefectureName": "大阪府",
        "cityName": "豊能郡能勢町",
        "streetName": "平通４７番地の１",
        "latitude": 34.95378801,
        "longitude": 135.41200497,
        "id": "e4b5b31c-656c-4250-a7c9-6fe7e6c668ae"
    },
    {
        "name": "大利神社",
        "prefectureName": "大阪府",
        "cityName": "寝屋川市",
        "streetName": "大利町２３番１号",
        "latitude": 34.76600906,
        "longitude": 135.61700032,
        "id": "19ad7ffc-49c7-49fd-a1d8-31c8a11061d8"
    },
    {
        "name": "大宮神社",
        "prefectureName": "大阪府",
        "cityName": "大阪市旭区",
        "streetName": "大宮３丁目１番３７号",
        "latitude": 34.72520396,
        "longitude": 135.54489135,
        "id": "8ab6af08-b280-4a87-a9ef-78ebfae764ab"
    },
    {
        "name": "大山咋神社",
        "prefectureName": "大阪府",
        "cityName": "藤井寺市",
        "streetName": "船橋町８番３０号",
        "latitude": 34.57862707,
        "longitude": 135.62254867,
        "id": "8689319c-1073-45e7-ac32-a4e92420e2fb"
    },
    {
        "name": "大杜御祖神社",
        "prefectureName": "大阪府",
        "cityName": "寝屋川市",
        "streetName": "高宮２丁目１５番１号",
        "latitude": 34.75583261,
        "longitude": 135.63837383,
        "id": "e8264559-6199-423e-aedf-e9ef915ff0b2"
    },
    {
        "name": "大枝神社",
        "prefectureName": "大阪府",
        "cityName": "守口市",
        "streetName": "大枝東町２番２３号",
        "latitude": 34.73505609,
        "longitude": 135.56833626,
        "id": "b3fb1f2e-eab7-40e6-8a27-e2e1fb3d53f3"
    },
    {
        "name": "大森神社",
        "prefectureName": "大阪府",
        "cityName": "泉南郡熊取町",
        "streetName": "大宮１丁目１１番１８号",
        "latitude": 34.39780502,
        "longitude": 135.36824962,
        "id": "ea31c6b1-84a9-45b6-83ac-0f2dc4bf29ef"
    },
    {
        "name": "大歳神社",
        "prefectureName": "大阪府",
        "cityName": "豊能郡豊能町",
        "streetName": "寺田上東谷１５番地",
        "latitude": 34.9373712,
        "longitude": 135.50804982,
        "id": "c01952e8-b2af-4c9d-a873-89a86333f90e"
    },
    {
        "name": "大歳神社",
        "prefectureName": "大阪府",
        "cityName": "茨木市",
        "streetName": "大字大岩１７３番地",
        "latitude": 34.88547218,
        "longitude": 135.54536909,
        "id": "4b9d9d5a-49d7-407f-8ab7-6f419520335e"
    },
    {
        "name": "大江神社",
        "prefectureName": "大阪府",
        "cityName": "大阪市天王寺区",
        "streetName": "夕陽丘町５番４０号",
        "latitude": 34.65733048,
        "longitude": 135.51200403,
        "id": "84d7636a-4b40-45ff-9400-905debe0d6be"
    },
    {
        "name": "大津神社",
        "prefectureName": "大阪府",
        "cityName": "泉大津市",
        "streetName": "若宮町４番１２号",
        "latitude": 34.50502077,
        "longitude": 135.40495871,
        "id": "1a20115c-c595-45da-967b-7be0e64aee4f"
    },
    {
        "name": "大津神社",
        "prefectureName": "大阪府",
        "cityName": "羽曳野市",
        "streetName": "高鷲８丁目１番２号",
        "latitude": 34.56967447,
        "longitude": 135.58317191,
        "id": "c6e264da-44fb-4102-b27c-47d06a36a1ea"
    },
    {
        "name": "大津神社",
        "prefectureName": "大阪府",
        "cityName": "東大阪市",
        "streetName": "水走２丁目１５番４５号",
        "latitude": 34.67954104,
        "longitude": 135.6270461,
        "id": "80f4fd06-9314-4b23-91a3-4d906ebbc6a4"
    },
    {
        "name": "大澤神社",
        "prefectureName": "大阪府",
        "cityName": "岸和田市",
        "streetName": "大沢町４３９番地",
        "latitude": 34.4606337,
        "longitude": 135.3708288,
        "id": "7aac0e40-01d0-4bce-8664-42d4d7cef135"
    },
    {
        "name": "大狛神社",
        "prefectureName": "大阪府",
        "cityName": "柏原市",
        "streetName": "大字本堂３８８番地",
        "latitude": 34.5792715,
        "longitude": 135.628687,
        "id": "3ad7180c-d11b-44e3-ba1b-92d95eb1d630"
    },
    {
        "name": "大神社",
        "prefectureName": "大阪府",
        "cityName": "大東市",
        "streetName": "新田東本町８８４番地",
        "latitude": 34.7141007,
        "longitude": 135.60260307,
        "id": "f73b0797-9cb2-4610-9dae-36d7b8243559"
    },
    {
        "name": "大神社",
        "prefectureName": "大阪府",
        "cityName": "大阪市鶴見区",
        "streetName": "茨田大宮１丁目１８番１７号",
        "latitude": 34.71283946,
        "longitude": 135.58928494,
        "id": "a35d9798-16f0-4900-8ed5-66da4df641a3"
    },
    {
        "name": "大神社",
        "prefectureName": "大阪府",
        "cityName": "寝屋川市",
        "streetName": "河北西町４番８号",
        "latitude": 34.73409323,
        "longitude": 135.6247117,
        "id": "9d8fec75-522e-4026-abae-530ec333c7be"
    },
    {
        "name": "大織冠神社",
        "prefectureName": "大阪府",
        "cityName": "茨木市",
        "streetName": "大字安威２３７１番地",
        "latitude": 34.8163384,
        "longitude": 135.5685041,
        "id": "49c5560c-ce32-4b0d-934e-6b883fa3ec58"
    },
    {
        "name": "大谷神社",
        "prefectureName": "大阪府",
        "cityName": "大東市",
        "streetName": "寺川５丁目１７番３０号",
        "latitude": 34.7120179,
        "longitude": 135.6236596,
        "id": "97e165f1-5cd2-4376-9c0e-934f672ad597"
    },
    {
        "name": "大賀世神社",
        "prefectureName": "大阪府",
        "cityName": "東大阪市",
        "streetName": "横小路町１０５番地",
        "latitude": 34.6793101,
        "longitude": 135.6009206,
        "id": "ebed2362-a5e4-407a-a9f7-88b1ccda1113"
    },
    {
        "name": "大阪護國神社",
        "prefectureName": "大阪府",
        "cityName": "大阪市住之江区",
        "streetName": "南加賀屋１丁目１番７７号",
        "latitude": 34.61015772,
        "longitude": 135.47394207,
        "id": "4222f203-4025-4fed-999f-75d32e78564b"
    },
    {
        "name": "大隅神社",
        "prefectureName": "大阪府",
        "cityName": "大阪市東淀川区",
        "streetName": "大桐５丁目１４番８１号",
        "latitude": 34.74991222,
        "longitude": 135.55074003,
        "id": "69af43fa-2f26-4089-81ba-20f4a99a8df0"
    },
    {
        "name": "大鳥神社",
        "prefectureName": "大阪府",
        "cityName": "堺市西区",
        "streetName": "鳳北町１丁１番地の２",
        "latitude": 34.53605144,
        "longitude": 135.46016148,
        "id": "3add481d-f275-4440-83d8-4a587b1ce318"
    },
    {
        "name": "天乃神社",
        "prefectureName": "大阪府",
        "cityName": "守口市",
        "streetName": "橋波東之町２丁目１１番１８号",
        "latitude": 34.73413411,
        "longitude": 135.57589123,
        "id": "603c1a7b-3ba7-41e2-aa74-87fac64a4e05"
    },
    {
        "name": "天兒屋根命神社",
        "prefectureName": "大阪府",
        "cityName": "箕面市",
        "streetName": "瀬川１丁目２２番２０号",
        "latitude": 34.81754978,
        "longitude": 135.45154199,
        "id": "1e11f8a7-12f8-4878-be88-ff86267d2de6"
    },
    {
        "name": "天湯川田神社",
        "prefectureName": "大阪府",
        "cityName": "柏原市",
        "streetName": "大字高井田８９番地",
        "latitude": 34.57371094,
        "longitude": 135.63288949,
        "id": "5d90ecc6-ff74-4a9c-aa20-e68adf914388"
    },
    {
        "name": "天満神社",
        "prefectureName": "大阪府",
        "cityName": "高槻市",
        "streetName": "下田部町１丁目２１番２７号",
        "latitude": 34.83517047,
        "longitude": 135.6196132,
        "id": "2f7eaa56-274d-4535-990f-1703cc848c57"
    },
    {
        "name": "天照大神高座神社",
        "prefectureName": "大阪府",
        "cityName": "八尾市",
        "streetName": "大字教興寺５５０番地",
        "latitude": 34.626866,
        "longitude": 135.6009771,
        "id": "c5cfbadc-3592-4940-84bb-5460059dc681"
    },
    {
        "name": "天照皇大神社",
        "prefectureName": "大阪府",
        "cityName": "大阪市平野区",
        "streetName": "長吉出戸４丁目４番３６号",
        "latitude": 34.6101754,
        "longitude": 135.56850545,
        "id": "6bd004b5-a924-4d04-b0b6-62022e3fa179"
    },
    {
        "name": "天田神社",
        "prefectureName": "大阪府",
        "cityName": "交野市",
        "streetName": "私市１丁目３０番１１号",
        "latitude": 34.7739175,
        "longitude": 135.68785786,
        "id": "f70c0e76-8fdb-4882-bbb0-a7e00a1af753"
    },
    {
        "name": "天神社",
        "prefectureName": "大阪府",
        "cityName": "大阪市福島区",
        "streetName": "玉川１丁目４番５号",
        "latitude": 34.68859019,
        "longitude": 135.48248913,
        "id": "7d4db77a-6ff9-4dbc-ade0-98643dfa644a"
    },
    {
        "name": "天神社",
        "prefectureName": "大阪府",
        "cityName": "門真市",
        "streetName": "月出町２２番２号",
        "latitude": 34.74483856,
        "longitude": 135.58281814,
        "id": "4a6fa214-8371-4372-87e0-876ac97a60aa"
    },
    {
        "name": "天神社",
        "prefectureName": "大阪府",
        "cityName": "大阪市東住吉区",
        "streetName": "桑津３丁目４番１７号",
        "latitude": 34.63898269,
        "longitude": 135.52997212,
        "id": "7257785e-2cdd-499b-960b-230660115b26"
    },
    {
        "name": "天神社",
        "prefectureName": "大阪府",
        "cityName": "八尾市",
        "streetName": "渋川町５丁目４８番地",
        "latitude": 34.626866,
        "longitude": 135.6009771,
        "id": "1b5e8012-2478-4e2b-bdc2-503da1c51914"
    },
    {
        "name": "天神社",
        "prefectureName": "大阪府",
        "cityName": "東大阪市",
        "streetName": "御厨１丁目４番２９号",
        "latitude": 34.67205503,
        "longitude": 135.58530537,
        "id": "08d885c1-d3d6-4406-82c0-5f875393c52d"
    },
    {
        "name": "天神社",
        "prefectureName": "大阪府",
        "cityName": "豊中市",
        "streetName": "上新田１丁目１７番１号",
        "latitude": 34.8039131,
        "longitude": 135.49697747,
        "id": "f547e846-df0e-4e17-8f50-5c0f389aa246"
    },
    {
        "name": "天神社",
        "prefectureName": "大阪府",
        "cityName": "河内長野市",
        "streetName": "滝畑７３１番地",
        "latitude": 34.38284704,
        "longitude": 135.52183142,
        "id": "ac2c2b36-3123-4665-bd9d-1a877dbff0ac"
    },
    {
        "name": "天神社",
        "prefectureName": "大阪府",
        "cityName": "茨木市",
        "streetName": "大字野々宮４７５番地",
        "latitude": 34.8163384,
        "longitude": 135.5685041,
        "id": "9386680d-816e-45c9-81cf-356b070a69bc"
    },
    {
        "name": "天神社",
        "prefectureName": "大阪府",
        "cityName": "大阪市北区",
        "streetName": "（大阪市大淀区国分寺一丁目４番１号）",
        "latitude": 34.7053638,
        "longitude": 135.5100281,
        "id": "3bdaf73e-0c8d-4392-8e31-f64604909ee7"
    },
    {
        "name": "太川神社",
        "prefectureName": "大阪府",
        "cityName": "八尾市",
        "streetName": "南太子堂６丁目１１番地",
        "latitude": 34.626866,
        "longitude": 135.6009771,
        "id": "ac00248c-ce67-45b0-a709-28a09956bb4a"
    },
    {
        "name": "太歳神社",
        "prefectureName": "大阪府",
        "cityName": "豊能郡豊能町",
        "streetName": "牧西口１番地の６",
        "latitude": 34.93791839,
        "longitude": 135.48971249,
        "id": "a8b8faec-4253-4bb3-ae4d-3965af3c058b"
    },
    {
        "name": "太田神社",
        "prefectureName": "大阪府",
        "cityName": "茨木市",
        "streetName": "太田３丁目１５番１号",
        "latitude": 34.84415732,
        "longitude": 135.57689198,
        "id": "1b3d233d-27d2-4b11-8a6e-c3cc0b08c776"
    },
    {
        "name": "奈加美神社",
        "prefectureName": "大阪府",
        "cityName": "泉佐野市",
        "streetName": "中庄８３４番地",
        "latitude": 34.41354377,
        "longitude": 135.32973179,
        "id": "4b624a32-ec82-467f-9810-762e568782ca"
    },
    {
        "name": "女九神社",
        "prefectureName": "大阪府",
        "cityName": "茨木市",
        "streetName": "東太田３丁目５番３２号",
        "latitude": 34.8163384,
        "longitude": 135.5685041,
        "id": "c71a0e52-b31a-4519-a949-497a1845bed3"
    },
    {
        "name": "姫嶋神社",
        "prefectureName": "大阪府",
        "cityName": "大阪市西淀川区",
        "streetName": "姫島４丁目１４番２号",
        "latitude": 34.70460995,
        "longitude": 135.45319128,
        "id": "3c6dc236-531a-4127-a110-2ef920d3d9ed"
    },
    {
        "name": "守居神社",
        "prefectureName": "大阪府",
        "cityName": "守口市",
        "streetName": "土居町２番２２号",
        "latitude": 34.73222011,
        "longitude": 135.55902878,
        "id": "17278afa-6fb6-4ffb-a9e1-d18fa0aa25da"
    },
    {
        "name": "安井神社",
        "prefectureName": "大阪府",
        "cityName": "大阪市天王寺区",
        "streetName": "逢阪１丁目３番２４号",
        "latitude": 34.65416693,
        "longitude": 135.51079587,
        "id": "dd495e19-17af-4ecd-bbbe-077f152ef23e"
    },
    {
        "name": "宿奈川田神社",
        "prefectureName": "大阪府",
        "cityName": "柏原市",
        "streetName": "大字高井田６６１番地",
        "latitude": 34.57094173,
        "longitude": 135.63778351,
        "id": "b1b7dbc8-dafa-4143-b2ef-5fbfb37cc51f"
    },
    {
        "name": "富島神社",
        "prefectureName": "大阪府",
        "cityName": "大阪市北区",
        "streetName": "中津２丁目５番１０号",
        "latitude": 34.71347344,
        "longitude": 135.49525408,
        "id": "241bf6cc-ad32-4b2c-8e62-a0903c027139"
    },
    {
        "name": "寝屋神社",
        "prefectureName": "大阪府",
        "cityName": "寝屋川市",
        "streetName": "寝屋南２丁目１３番１８号",
        "latitude": 34.76905622,
        "longitude": 135.65347787,
        "id": "128c1115-a234-4ec8-affd-763870501cff"
    },
    {
        "name": "寳殿神社",
        "prefectureName": "大阪府",
        "cityName": "八尾市",
        "streetName": "大字沼１７９番地",
        "latitude": 34.626866,
        "longitude": 135.6009771,
        "id": "16f788dd-f295-4d35-b97c-bd6b53090e4b"
    },
    {
        "name": "小吹八坂神社",
        "prefectureName": "大阪府",
        "cityName": "南河内郡千早赤阪村",
        "streetName": "大字小吹１１３６番地の２",
        "latitude": 34.43255674,
        "longitude": 135.61808128,
        "id": "6af92e1b-451a-41ae-8766-89894215f652"
    },
    {
        "name": "小坂神社",
        "prefectureName": "大阪府",
        "cityName": "東大阪市",
        "streetName": "下小阪３丁目５番４３号",
        "latitude": 34.66063132,
        "longitude": 135.58518613,
        "id": "de9b94c4-c504-4f69-989c-cb9e5c2e6399"
    },
    {
        "name": "少彦名神社",
        "prefectureName": "大阪府",
        "cityName": "大阪市中央区",
        "streetName": "道修町２丁目１番８号",
        "latitude": 34.68862962,
        "longitude": 135.50598447,
        "id": "bd74047e-8150-4f77-9678-790ecd2b06f0"
    },
    {
        "name": "尾崎神社",
        "prefectureName": "大阪府",
        "cityName": "阪南市",
        "streetName": "尾崎町２丁目８番３号",
        "latitude": 34.36288448,
        "longitude": 135.23884773,
        "id": "dad57654-32a4-4ade-af7b-c32d2d053fd5"
    },
    {
        "name": "屯倉神社",
        "prefectureName": "大阪府",
        "cityName": "松原市",
        "streetName": "三宅中４丁目１番８号",
        "latitude": 34.5890469,
        "longitude": 135.55512675,
        "id": "95fbf996-8af5-4702-8cb9-e3a7b58a0a9e"
    },
    {
        "name": "山田神社",
        "prefectureName": "大阪府",
        "cityName": "枚方市",
        "streetName": "田口１丁目６６番１８号",
        "latitude": 34.8277723,
        "longitude": 135.67762748,
        "id": "9264712a-4588-44d2-8c92-ba4f5439153e"
    },
    {
        "name": "山田神社",
        "prefectureName": "大阪府",
        "cityName": "枚方市",
        "streetName": "山之上４丁目１５番３６号",
        "latitude": 34.79661134,
        "longitude": 135.65545243,
        "id": "9b211ad2-082e-46f8-ac0a-57638d7ecb14"
    },
    {
        "name": "山直神社",
        "prefectureName": "大阪府",
        "cityName": "岸和田市",
        "streetName": "内畑町３６１９番地",
        "latitude": 34.41824532,
        "longitude": 135.43601807,
        "id": "030e8b6f-7143-4c0f-9001-d42a35a0b78e"
    },
    {
        "name": "山辺神社",
        "prefectureName": "大阪府",
        "cityName": "豊能郡能勢町",
        "streetName": "山辺１６１８番地の１",
        "latitude": 34.98360419,
        "longitude": 135.39253674,
        "id": "290044c9-f042-46b6-aff0-4eac1ba4c174"
    },
    {
        "name": "山阪神社",
        "prefectureName": "大阪府",
        "cityName": "大阪市東住吉区",
        "streetName": "山坂２丁目１９番２３号",
        "latitude": 34.6235398,
        "longitude": 135.52256757,
        "id": "4b7224d4-857c-45e0-a361-31d7659c7b54"
    },
    {
        "name": "岐尼神社",
        "prefectureName": "大阪府",
        "cityName": "豊能郡能勢町",
        "streetName": "森上１０３番地の３",
        "latitude": 34.96826977,
        "longitude": 135.39335912,
        "id": "1c988009-c42a-4ccd-a430-13d3522ef95c"
    },
    {
        "name": "岸城神社",
        "prefectureName": "大阪府",
        "cityName": "岸和田市",
        "streetName": "岸城町１１番３０号",
        "latitude": 34.45898946,
        "longitude": 135.37265923,
        "id": "82737e97-2fe9-4c16-aeb0-c5ffd810b5a5"
    },
    {
        "name": "川上神社",
        "prefectureName": "大阪府",
        "cityName": "河内長野市",
        "streetName": "鳩原７８８番地",
        "latitude": 34.42756263,
        "longitude": 135.61003458,
        "id": "6704597f-badf-4e67-82eb-469ba84c4a43"
    },
    {
        "name": "川俣神社",
        "prefectureName": "大阪府",
        "cityName": "東大阪市",
        "streetName": "川俣本町１０番３８号",
        "latitude": 34.68113447,
        "longitude": 135.58080007,
        "id": "123c0a25-2365-42af-b1c0-b9e3aed2d9fa"
    },
    {
        "name": "川東神社",
        "prefectureName": "大阪府",
        "cityName": "交野市",
        "streetName": "森南２丁目４７０番地",
        "latitude": 34.77420914,
        "longitude": 135.68808283,
        "id": "7082b24f-48e9-4564-8fd2-cf74dd3dece4"
    },
    {
        "name": "川辺八幡神社",
        "prefectureName": "大阪府",
        "cityName": "大阪市平野区",
        "streetName": "長吉川辺１丁目４番３８号",
        "latitude": 34.59570478,
        "longitude": 135.5702946,
        "id": "86acdae0-f251-4de7-9d3b-49a97e329102"
    },
    {
        "name": "巽神社",
        "prefectureName": "大阪府",
        "cityName": "大阪市生野区",
        "streetName": "巽南３丁目１７番１９号",
        "latitude": 34.64173557,
        "longitude": 135.55395598,
        "id": "4388c4aa-9e65-4bec-8d3f-534facb2c39a"
    },
    {
        "name": "市軸稲荷神社",
        "prefectureName": "大阪府",
        "cityName": "豊中市",
        "streetName": "刀根山２丁目２番３３号",
        "latitude": 34.79667727,
        "longitude": 135.45826137,
        "id": "596a14c6-9734-4031-924f-8cb2533eb4e4"
    },
    {
        "name": "布忍神社",
        "prefectureName": "大阪府",
        "cityName": "松原市",
        "streetName": "北新町２丁目４番１１号",
        "latitude": 34.57908385,
        "longitude": 135.5363564,
        "id": "b06103e1-9dbe-4369-b12d-72f05f1567d7"
    },
    {
        "name": "布施戎神社",
        "prefectureName": "大阪府",
        "cityName": "東大阪市",
        "streetName": "足代１丁目１５番２１号",
        "latitude": 34.66243616,
        "longitude": 135.56131313,
        "id": "29cae7cb-575a-4bd6-8a9b-ce91c79dbe70"
    },
    {
        "name": "常世岐姫神社",
        "prefectureName": "大阪府",
        "cityName": "八尾市",
        "streetName": "神宮寺５丁目１７３番地",
        "latitude": 34.60159977,
        "longitude": 135.63243879,
        "id": "48daa963-8f1a-4686-8026-ce639d9cf20e"
    },
    {
        "name": "広田神社",
        "prefectureName": "大阪府",
        "cityName": "大阪市浪速区",
        "streetName": "日本橋西２丁目４番１４号",
        "latitude": 34.65679433,
        "longitude": 135.50275211,
        "id": "3f474ecb-a239-41d7-97f0-5871b97c1ab8"
    },
    {
        "name": "庄内神社",
        "prefectureName": "大阪府",
        "cityName": "豊中市",
        "streetName": "庄内幸町５丁目２２番１号",
        "latitude": 34.74434159,
        "longitude": 135.46973927,
        "id": "ec2b3ea0-bd73-489a-88c6-8396af6882e8"
    },
    {
        "name": "廣國神社",
        "prefectureName": "大阪府",
        "cityName": "堺市美原区",
        "streetName": "大保２４８番地",
        "latitude": 34.55011233,
        "longitude": 135.55421661,
        "id": "7013e61c-68ac-4a2e-811e-f02a3ac5dca4"
    },
    {
        "name": "建水分神社",
        "prefectureName": "大阪府",
        "cityName": "南河内郡千早赤阪村",
        "streetName": "大字水分３５７番地",
        "latitude": 34.46005128,
        "longitude": 135.63145536,
        "id": "e5ea82c4-4853-43af-bb6d-d65f80afd9b4"
    },
    {
        "name": "式内楯原神社",
        "prefectureName": "大阪府",
        "cityName": "大阪市平野区",
        "streetName": "喜連６丁目１番３８号",
        "latitude": 34.61319982,
        "longitude": 135.55539268,
        "id": "d2cb157f-d0c1-43eb-9bfb-b04808b5994e"
    },
    {
        "name": "弓削神社",
        "prefectureName": "大阪府",
        "cityName": "八尾市",
        "streetName": "東弓削１丁目１６６番地",
        "latitude": 34.60184679,
        "longitude": 135.6170291,
        "id": "711890a3-a51a-4bbe-af37-6f4a4b17072d"
    },
    {
        "name": "弓削神社",
        "prefectureName": "大阪府",
        "cityName": "八尾市",
        "streetName": "弓削町１丁目３６番地",
        "latitude": 34.59984696,
        "longitude": 135.61495712,
        "id": "259abe3d-32c3-425c-935c-a34508ec9ec5"
    },
    {
        "name": "弥刀神社",
        "prefectureName": "大阪府",
        "cityName": "東大阪市",
        "streetName": "近江堂１丁目１２番１５号",
        "latitude": 34.64628561,
        "longitude": 135.58113955,
        "id": "26922632-100c-44c9-bffb-6647c614ced7"
    },
    {
        "name": "弥栄神社",
        "prefectureName": "大阪府",
        "cityName": "岸和田市",
        "streetName": "八幡町１３番２５号",
        "latitude": 34.48266199,
        "longitude": 135.38806323,
        "id": "5c23506a-a8b4-4ca8-a190-a81d9f8864f4"
    },
    {
        "name": "彌栄神社",
        "prefectureName": "大阪府",
        "cityName": "東大阪市",
        "streetName": "宝持２丁目７番１２号",
        "latitude": 34.65478205,
        "longitude": 135.58866651,
        "id": "2c3e441e-1825-486e-a4bb-d0e03af382a8"
    },
    {
        "name": "彌榮神社",
        "prefectureName": "大阪府",
        "cityName": "大阪市生野区",
        "streetName": "桃谷２丁目１６番２２号",
        "latitude": 34.66053589,
        "longitude": 135.53285201,
        "id": "8f282a05-25ed-48f5-aacb-7251c02cea9c"
    },
    {
        "name": "彌榮神社",
        "prefectureName": "大阪府",
        "cityName": "東大阪市",
        "streetName": "中小阪２丁目３番２２号",
        "latitude": 34.65922316,
        "longitude": 135.58606109,
        "id": "dbd6d14f-9b88-4ff9-ab9e-5ee9139ee8bc"
    },
    {
        "name": "御剱神社",
        "prefectureName": "大阪府",
        "cityName": "柏原市",
        "streetName": "本郷２丁目５番６号",
        "latitude": 34.58927034,
        "longitude": 135.61816267,
        "id": "8d8e8a0f-714e-40f7-9e67-34e7b3ed8344"
    },
    {
        "name": "御劔神社",
        "prefectureName": "大阪府",
        "cityName": "八尾市",
        "streetName": "刑部４丁目２１８番地",
        "latitude": 34.61319565,
        "longitude": 135.61960081,
        "id": "151daba9-069e-46ab-8008-2181c84520f2"
    },
    {
        "name": "御机神社",
        "prefectureName": "大阪府",
        "cityName": "四條畷市",
        "streetName": "南野６丁目１２番１号",
        "latitude": 34.7349851,
        "longitude": 135.65144543,
        "id": "6906b046-bdf3-4d50-ab7a-09c7f51d6286"
    },
    {
        "name": "御狩野神社",
        "prefectureName": "大阪府",
        "cityName": "枚方市",
        "streetName": "禁野本町２丁目７番４１号",
        "latitude": 34.81959503,
        "longitude": 135.65532427,
        "id": "3305b107-bbd6-4b81-86ff-3bcce7593871"
    },
    {
        "name": "御野県主神社",
        "prefectureName": "大阪府",
        "cityName": "八尾市",
        "streetName": "上之島町南１丁目７１番地",
        "latitude": 34.63462115,
        "longitude": 135.62101135,
        "id": "4d01eb3e-e503-411b-a29c-07a4e22cbea7"
    },
    {
        "name": "御靈神社",
        "prefectureName": "大阪府",
        "cityName": "大阪市中央区",
        "streetName": "淡路町４丁目４番３号",
        "latitude": 34.68741293,
        "longitude": 135.49917949,
        "id": "8a2a7aa2-d0f7-4bd4-b196-bca3e0e49bd8"
    },
    {
        "name": "徳庵神社",
        "prefectureName": "大阪府",
        "cityName": "東大阪市",
        "streetName": "徳庵本町８番１１号",
        "latitude": 34.69602173,
        "longitude": 135.58301913,
        "id": "04045103-f991-4e68-9087-f606963c5e66"
    },
    {
        "name": "忍陵神社",
        "prefectureName": "大阪府",
        "cityName": "四條畷市",
        "streetName": "岡山２丁目７番１２号",
        "latitude": 34.74657258,
        "longitude": 135.6416571,
        "id": "3e27ead3-0896-4a2c-95ea-41d9e3093ebb"
    },
    {
        "name": "志疑神社",
        "prefectureName": "大阪府",
        "cityName": "藤井寺市",
        "streetName": "大井３丁目９番１６号",
        "latitude": 34.58098221,
        "longitude": 135.61091078,
        "id": "c23d46c9-0b78-4d97-b8e1-02d76619dc3d"
    },
    {
        "name": "志紀長吉神社",
        "prefectureName": "大阪府",
        "cityName": "大阪市平野区",
        "streetName": "長吉長原２丁目８番２３号",
        "latitude": 34.60400389,
        "longitude": 135.57070821,
        "id": "fbc9ccda-d239-4c71-917a-a177b73b4aa7"
    },
    {
        "name": "志貴縣主神社",
        "prefectureName": "大阪府",
        "cityName": "藤井寺市",
        "streetName": "惣社１丁目６番２３号",
        "latitude": 34.57634392,
        "longitude": 135.61845189,
        "id": "3e58504d-4451-44c8-a3c2-a13d48b0b825"
    },
    {
        "name": "忠岡神社",
        "prefectureName": "大阪府",
        "cityName": "泉北郡忠岡町",
        "streetName": "忠岡中１丁目２６番３号",
        "latitude": 34.49219714,
        "longitude": 135.39673463,
        "id": "fe009d2b-6d15-472c-92d4-33c7c38ce1bd"
    },
    {
        "name": "恩智神社",
        "prefectureName": "大阪府",
        "cityName": "八尾市",
        "streetName": "恩智中町５丁目１０番地",
        "latitude": 34.60653813,
        "longitude": 135.63862141,
        "id": "5d8295d5-78c6-48bc-9d83-b94bf07c136b"
    },
    {
        "name": "恵美須神社",
        "prefectureName": "大阪府",
        "cityName": "大阪市福島区",
        "streetName": "玉川４丁目１番１号",
        "latitude": 34.68853181,
        "longitude": 135.47930882,
        "id": "2bb56fbf-566b-4c03-a068-f8a81f801311"
    },
    {
        "name": "意賀美神社",
        "prefectureName": "大阪府",
        "cityName": "泉佐野市",
        "streetName": "上之郷４５番地",
        "latitude": 34.36951895,
        "longitude": 135.32828139,
        "id": "19bc8493-c602-48b6-a278-fd38af77ce57"
    },
    {
        "name": "意賀美神社",
        "prefectureName": "大阪府",
        "cityName": "岸和田市",
        "streetName": "土生滝町１７番地",
        "latitude": 34.41596486,
        "longitude": 135.41085935,
        "id": "aaaeaf32-e60f-4a12-8ea6-4a6905db19f4"
    },
    {
        "name": "意賀美神社",
        "prefectureName": "大阪府",
        "cityName": "枚方市",
        "streetName": "枚方上之町１番１２号",
        "latitude": 34.81355097,
        "longitude": 135.64387267,
        "id": "47e559f1-fb2e-4926-91b3-c1cd364fc245"
    },
    {
        "name": "愛宕神社",
        "prefectureName": "大阪府",
        "cityName": "吹田市",
        "streetName": "出口町３番３号素盞烏尊神社社務所内",
        "latitude": 34.76508725,
        "longitude": 135.51832072,
        "id": "230444e4-206f-4b65-a5c0-4d59d6042773"
    },
    {
        "name": "愛宕神社",
        "prefectureName": "大阪府",
        "cityName": "吹田市",
        "streetName": "佐井寺２丁目２４番１号",
        "latitude": 34.78325728,
        "longitude": 135.51621236,
        "id": "e5847749-1ca1-4bf0-9026-9abda18f766e"
    },
    {
        "name": "愛宕神社",
        "prefectureName": "大阪府",
        "cityName": "堺市中区",
        "streetName": "福田４８４番地の９",
        "latitude": 34.52168708,
        "longitude": 135.52624752,
        "id": "1ea0b30a-3b80-45ef-9b61-2db11b8df5ad"
    },
    {
        "name": "感田神社",
        "prefectureName": "大阪府",
        "cityName": "貝塚市",
        "streetName": "中９０５番地",
        "latitude": 34.44707122,
        "longitude": 135.35883856,
        "id": "83fe3a53-5fe0-4eed-98c4-de8f1d39289e"
    },
    {
        "name": "打上神社",
        "prefectureName": "大阪府",
        "cityName": "寝屋川市",
        "streetName": "打上元町３８番１号",
        "latitude": 34.75264426,
        "longitude": 135.65795833,
        "id": "a4c42f40-46e4-4583-99bb-ef3302494acd"
    },
    {
        "name": "指出森神社",
        "prefectureName": "大阪府",
        "cityName": "阪南市",
        "streetName": "貝掛１４６２番地",
        "latitude": 34.34294199,
        "longitude": 135.21685035,
        "id": "096e9a40-a415-4661-976c-8302e72436a5"
    },
    {
        "name": "揖取神社",
        "prefectureName": "大阪府",
        "cityName": "阪南市",
        "streetName": "鳥取７０６番地",
        "latitude": 34.35236609,
        "longitude": 135.22945999,
        "id": "a3bbe026-03fd-4b3e-ac6e-e7dde10e0e8c"
    },
    {
        "name": "新屋坐天照御魂神社",
        "prefectureName": "大阪府",
        "cityName": "茨木市",
        "streetName": "西河原３丁目１番２号",
        "latitude": 34.83471956,
        "longitude": 135.57617557,
        "id": "73dd8bc2-f158-4f78-bc71-ecd0eb909088"
    },
    {
        "name": "新屋座天照御魂神社",
        "prefectureName": "大阪府",
        "cityName": "茨木市",
        "streetName": "宿久庄５丁目１７番１号",
        "latitude": 34.84022305,
        "longitude": 135.52635755,
        "id": "5b6c2809-90b9-4c3d-93a8-e51f7538e3fe"
    },
    {
        "name": "方違神社",
        "prefectureName": "大阪府",
        "cityName": "堺市堺区",
        "streetName": "北三国ヶ丘町２丁２番１号",
        "latitude": 34.5769113,
        "longitude": 135.48956344,
        "id": "65c5e122-de5f-4274-89bf-a41d5fa7bc71"
    },
    {
        "name": "日吉神社",
        "prefectureName": "大阪府",
        "cityName": "高槻市",
        "streetName": "萩之庄２丁目４番１号",
        "latitude": 34.8461611,
        "longitude": 135.6172738,
        "id": "faeeef30-7e91-4d8a-95b1-ab79bfe1104e"
    },
    {
        "name": "日吉神社",
        "prefectureName": "大阪府",
        "cityName": "大阪市旭区",
        "streetName": "赤川４丁目１９番１３号",
        "latitude": 34.73014205,
        "longitude": 135.53138679,
        "id": "a1aecc64-513f-43df-a84d-b94369712b0f"
    },
    {
        "name": "日吉神社",
        "prefectureName": "大阪府",
        "cityName": "高槻市",
        "streetName": "古曽部町３丁目１４番１６号",
        "latitude": 34.86144591,
        "longitude": 135.62160328,
        "id": "b96cb8d4-27a6-4f37-8216-7751aac4b955"
    },
    {
        "name": "日吉神社",
        "prefectureName": "大阪府",
        "cityName": "羽曳野市",
        "streetName": "西浦５丁目３７６番地",
        "latitude": 34.54577458,
        "longitude": 135.59802107,
        "id": "3c473a2e-4836-4732-9981-5533b7b4484a"
    },
    {
        "name": "日枝神社",
        "prefectureName": "大阪府",
        "cityName": "泉佐野市",
        "streetName": "南中樫井４４０番地",
        "latitude": 34.38231393,
        "longitude": 135.29404243,
        "id": "dab89001-3d29-40e2-bb39-e6db03428a88"
    },
    {
        "name": "日根神社",
        "prefectureName": "大阪府",
        "cityName": "泉佐野市",
        "streetName": "日根野６３１番地",
        "latitude": 34.37421584,
        "longitude": 135.34271333,
        "id": "e2de8fdc-a116-4d56-b950-3c12a13e35d5"
    },
    {
        "name": "日置天神社",
        "prefectureName": "大阪府",
        "cityName": "枚方市",
        "streetName": "招提南町２丁目２８番１号",
        "latitude": 34.83438283,
        "longitude": 135.6841239,
        "id": "145b2f31-f14f-43bb-8975-5418b1a7b107"
    },
    {
        "name": "日部神社",
        "prefectureName": "大阪府",
        "cityName": "堺市西区",
        "streetName": "草部２６２番地",
        "latitude": 34.52047554,
        "longitude": 135.46563344,
        "id": "31268f10-16b1-4cac-baae-155d23c3df45"
    },
    {
        "name": "早尾神社",
        "prefectureName": "大阪府",
        "cityName": "三島郡島本町",
        "streetName": "大字大沢６０８番地",
        "latitude": 34.91570648,
        "longitude": 135.64128157,
        "id": "fc000262-f710-4481-a5cf-ce9216ddd54d"
    },
    {
        "name": "旭神社",
        "prefectureName": "大阪府",
        "cityName": "大阪市平野区",
        "streetName": "加美正覚寺１丁目１７番３０号",
        "latitude": 34.63129791,
        "longitude": 135.55826139,
        "id": "4647301e-74e6-4249-ad62-79046b44634a"
    },
    {
        "name": "星田神社",
        "prefectureName": "大阪府",
        "cityName": "交野市",
        "streetName": "星田２丁目５番１４号",
        "latitude": 34.76559854,
        "longitude": 135.67249288,
        "id": "8a9dba04-513e-4f2c-ac95-01c185b9cff8"
    },
    {
        "name": "春日神社",
        "prefectureName": "大阪府",
        "cityName": "茨木市",
        "streetName": "春日５丁目６番１号",
        "latitude": 34.82443444,
        "longitude": 135.56457663,
        "id": "744ad978-9c33-49ed-ba4d-4b0feb7b10f7"
    },
    {
        "name": "春日神社",
        "prefectureName": "大阪府",
        "cityName": "東大阪市",
        "streetName": "布市町３丁目８番６４号",
        "latitude": 34.69438112,
        "longitude": 135.63535616,
        "id": "6438012c-0a95-4ab2-abea-5b4506423474"
    },
    {
        "name": "春日神社",
        "prefectureName": "大阪府",
        "cityName": "枚方市",
        "streetName": "春日元町２丁目１８番１号",
        "latitude": 34.80053682,
        "longitude": 135.68912693,
        "id": "bfb65ce7-6818-4490-91af-2f420e1f3b97"
    },
    {
        "name": "春日神社",
        "prefectureName": "大阪府",
        "cityName": "和泉市",
        "streetName": "春木町６１５番地",
        "latitude": 34.43088857,
        "longitude": 135.45193316,
        "id": "b36c2a62-e0e1-4be0-92a1-48d9a8c3c38f"
    },
    {
        "name": "春日神社",
        "prefectureName": "大阪府",
        "cityName": "茨木市",
        "streetName": "天王１丁目１番２２号",
        "latitude": 34.80751952,
        "longitude": 135.56041071,
        "id": "305848cd-a432-40b6-aba5-1de764c55a34"
    },
    {
        "name": "春日神社",
        "prefectureName": "大阪府",
        "cityName": "高槻市",
        "streetName": "春日町８番１４号",
        "latitude": 34.83630657,
        "longitude": 135.6276403,
        "id": "fd65a82a-88a4-4a19-8c1f-562bb4d5d797"
    },
    {
        "name": "春日神社",
        "prefectureName": "大阪府",
        "cityName": "高槻市",
        "streetName": "成合北の町１３０１番地",
        "latitude": 34.8461611,
        "longitude": 135.6172738,
        "id": "56e59e9e-430a-4643-a42c-968235459e7a"
    },
    {
        "name": "春日神社",
        "prefectureName": "大阪府",
        "cityName": "箕面市",
        "streetName": "小野原西５丁目３番１７号",
        "latitude": 34.83134338,
        "longitude": 135.51145355,
        "id": "0ae32038-66ab-432e-89f7-9f31632470f5"
    },
    {
        "name": "春日神社",
        "prefectureName": "大阪府",
        "cityName": "東大阪市",
        "streetName": "善根寺町６丁目７番６７号",
        "latitude": 34.70131115,
        "longitude": 135.65166281,
        "id": "ee15d1bc-e8d0-4018-bc3e-ce64ba4c8cb1"
    },
    {
        "name": "春日神社",
        "prefectureName": "大阪府",
        "cityName": "富田林市",
        "streetName": "大字彼方３２９番地の乙",
        "latitude": 34.47874586,
        "longitude": 135.59189749,
        "id": "f06cb862-971d-4d62-9a29-89caa8a44358"
    },
    {
        "name": "春日神社",
        "prefectureName": "大阪府",
        "cityName": "和泉市",
        "streetName": "三林町５９１番地",
        "latitude": 34.45070597,
        "longitude": 135.48328568,
        "id": "b40c6d68-52cc-40a6-841a-34060e3c245d"
    },
    {
        "name": "春日神社",
        "prefectureName": "大阪府",
        "cityName": "茨木市",
        "streetName": "西穂積町４番３号",
        "latitude": 34.82403125,
        "longitude": 135.55387761,
        "id": "4df9f30c-9642-4104-bc01-b8d98b5452c0"
    },
    {
        "name": "春日神社",
        "prefectureName": "大阪府",
        "cityName": "東大阪市",
        "streetName": "吉田２丁目６番２２号",
        "latitude": 34.66671187,
        "longitude": 135.61932201,
        "id": "622a6305-e3f2-41b0-a0a6-ff831661f03b"
    },
    {
        "name": "春日神社",
        "prefectureName": "大阪府",
        "cityName": "大阪市東淀川区",
        "streetName": "上新庄２丁目２０番１５号",
        "latitude": 34.74888405,
        "longitude": 135.53202795,
        "id": "251382b8-3eaf-4d2a-8115-669379429bbb"
    },
    {
        "name": "春日神社",
        "prefectureName": "大阪府",
        "cityName": "枚方市",
        "streetName": "茄子作３丁目１５番２６号",
        "latitude": 34.78493787,
        "longitude": 135.6634851,
        "id": "64130529-d3ae-471c-bfad-f07536bf1b9f"
    },
    {
        "name": "春日神社",
        "prefectureName": "大阪府",
        "cityName": "吹田市",
        "streetName": "春日３丁目３４３番地",
        "latitude": 34.7592519,
        "longitude": 135.5167709,
        "id": "6b531160-8640-46e8-8aa4-ec9d6db3abdc"
    },
    {
        "name": "春日神社",
        "prefectureName": "大阪府",
        "cityName": "高槻市",
        "streetName": "上牧町２丁目１２番１２号",
        "latitude": 34.86448436,
        "longitude": 135.66231435,
        "id": "af9082c6-92a0-4e70-83b3-ff04ec4d2386"
    },
    {
        "name": "春日神社",
        "prefectureName": "大阪府",
        "cityName": "高槻市",
        "streetName": "大字杉生小字千ケ谷",
        "latitude": 34.8461611,
        "longitude": 135.6172738,
        "id": "5c4a85a8-3f9f-4152-bf07-65b1ff717e27"
    },
    {
        "name": "春日神社",
        "prefectureName": "大阪府",
        "cityName": "東大阪市",
        "streetName": "横枕南３番１６号",
        "latitude": 34.67796313,
        "longitude": 135.60690341,
        "id": "667de8ef-9b49-411f-ad82-f5bfe1e8a577"
    },
    {
        "name": "春日神社",
        "prefectureName": "大阪府",
        "cityName": "大阪市福島区",
        "streetName": "玉川２丁目２番７号",
        "latitude": 34.68978166,
        "longitude": 135.47974764,
        "id": "15d6c7a9-0bcc-44a0-bb0f-e6a363ef4014"
    },
    {
        "name": "春日神社",
        "prefectureName": "大阪府",
        "cityName": "高槻市",
        "streetName": "宮田町３丁目５番１号",
        "latitude": 34.84542721,
        "longitude": 135.5921125,
        "id": "97cac462-830b-4dcb-b09e-5afab3b642ed"
    },
    {
        "name": "春日神社",
        "prefectureName": "大阪府",
        "cityName": "柏原市",
        "streetName": "田辺１丁目１６番３４号",
        "latitude": 34.56010953,
        "longitude": 135.64256112,
        "id": "9eb0cbd3-c423-4aca-ab5b-24871a008a4e"
    },
    {
        "name": "春日神社",
        "prefectureName": "大阪府",
        "cityName": "枚方市",
        "streetName": "野村南町１番１号",
        "latitude": 34.80590571,
        "longitude": 135.69490124,
        "id": "5e3ffd29-eaaf-49e2-ae70-31a715ed1c17"
    },
    {
        "name": "春日神社",
        "prefectureName": "大阪府",
        "cityName": "泉南郡田尻町",
        "streetName": "大字吉見９５２番地",
        "latitude": 34.39326252,
        "longitude": 135.28746218,
        "id": "a1d738af-9cf0-4ad8-8ca5-91a0dbe81f65"
    },
    {
        "name": "春日神社",
        "prefectureName": "大阪府",
        "cityName": "茨木市",
        "streetName": "庄１丁目１０番６号",
        "latitude": 34.82638738,
        "longitude": 135.57820047,
        "id": "478f34c2-514e-4146-94d9-bec9b7f05e53"
    },
    {
        "name": "春日神社",
        "prefectureName": "大阪府",
        "cityName": "高槻市",
        "streetName": "桜ケ丘南町１９番１３号",
        "latitude": 34.83685048,
        "longitude": 135.5988511,
        "id": "e6d7035c-50aa-43c3-ae9c-eaceafecdd63"
    },
    {
        "name": "春日神社",
        "prefectureName": "大阪府",
        "cityName": "東大阪市",
        "streetName": "今米１丁目１８番３６号",
        "latitude": 34.68396554,
        "longitude": 135.6274793,
        "id": "5e490b4d-95e2-4adb-9e48-2c1b031f15b3"
    },
    {
        "name": "春日神社",
        "prefectureName": "大阪府",
        "cityName": "枚方市",
        "streetName": "津田元町１丁目１０番１号",
        "latitude": 34.80788057,
        "longitude": 135.70264208,
        "id": "5de7d0f7-eda2-4836-8c5f-43176b6e621f"
    },
    {
        "name": "春日神社",
        "prefectureName": "大阪府",
        "cityName": "泉佐野市",
        "streetName": "土丸５９番地",
        "latitude": 34.37101638,
        "longitude": 135.35560394,
        "id": "a5ab23b4-99db-469a-9bb9-9501cba84517"
    },
    {
        "name": "春日神社",
        "prefectureName": "大阪府",
        "cityName": "高槻市",
        "streetName": "東天川１丁目８７５番地",
        "latitude": 34.8461611,
        "longitude": 135.6172738,
        "id": "3c72d562-f865-4e0d-aef5-8cdf76067abe"
    },
    {
        "name": "春日神社",
        "prefectureName": "大阪府",
        "cityName": "泉佐野市",
        "streetName": "春日町４番１２号",
        "latitude": 34.41509614,
        "longitude": 135.31775227,
        "id": "b2ed0964-db8d-4472-a0f0-f746cdc12346"
    },
    {
        "name": "春日神社",
        "prefectureName": "大阪府",
        "cityName": "茨木市",
        "streetName": "下穂積３丁目１３番１３号",
        "latitude": 34.81414622,
        "longitude": 135.55213913,
        "id": "63bb6da4-6993-40ad-8e37-5280590ed9cc"
    },
    {
        "name": "春日神社",
        "prefectureName": "大阪府",
        "cityName": "茨木市",
        "streetName": "清水２丁目１０番１号",
        "latitude": 34.83850656,
        "longitude": 135.5246911,
        "id": "2c8664fc-e9b1-49e7-8654-daf58ea261bd"
    },
    {
        "name": "春日神社",
        "prefectureName": "大阪府",
        "cityName": "豊中市",
        "streetName": "利倉１丁目３番１４号",
        "latitude": 34.7646726,
        "longitude": 135.46045352,
        "id": "799fe1ea-0c14-43a9-863b-3201b784adf2"
    },
    {
        "name": "春日神社",
        "prefectureName": "大阪府",
        "cityName": "茨木市",
        "streetName": "中穂積２丁目１６番３４号",
        "latitude": 34.8195123,
        "longitude": 135.55266672,
        "id": "08771ae8-7414-449e-950d-218fc090cc0f"
    },
    {
        "name": "春日神社",
        "prefectureName": "大阪府",
        "cityName": "茨木市",
        "streetName": "豊川１丁目２３番１号",
        "latitude": 34.83201035,
        "longitude": 135.53659846,
        "id": "63f58528-aa05-4e7b-9fca-7ab5fc2fe8b6"
    },
    {
        "name": "春日神社",
        "prefectureName": "大阪府",
        "cityName": "高槻市",
        "streetName": "野田１丁目１２番２号",
        "latitude": 34.85539348,
        "longitude": 135.64066111,
        "id": "0634df76-7dc3-4e8d-bc14-0ab843bc4eee"
    },
    {
        "name": "春日神社",
        "prefectureName": "大阪府",
        "cityName": "箕面市",
        "streetName": "粟生新家２丁目１番５号",
        "latitude": 34.8365788,
        "longitude": 135.50623721,
        "id": "791b94cb-bc2e-42b8-8105-2c33e8a3f667"
    },
    {
        "name": "春日神社",
        "prefectureName": "大阪府",
        "cityName": "豊中市",
        "streetName": "宮山町１丁目１０番１号",
        "latitude": 34.80749278,
        "longitude": 135.4642384,
        "id": "f6e3a6a7-2d1f-4d18-b34a-8201299cbb04"
    },
    {
        "name": "春日若宮神社",
        "prefectureName": "大阪府",
        "cityName": "東大阪市",
        "streetName": "荒本１４９番地の２",
        "latitude": 34.6759883,
        "longitude": 135.60404814,
        "id": "0b3f523d-2840-4b4b-bcc9-1120e7cc88f3"
    },
    {
        "name": "曽禰神社",
        "prefectureName": "大阪府",
        "cityName": "泉大津市",
        "streetName": "曽根町１丁目４番１２号",
        "latitude": 34.50332958,
        "longitude": 135.42589287,
        "id": "619b8200-75f9-4f43-a89a-eed6426a0fb6"
    },
    {
        "name": "月洲神社",
        "prefectureName": "大阪府",
        "cityName": "堺市堺区",
        "streetName": "南島町２丁１２５番地の２",
        "latitude": 34.59610366,
        "longitude": 135.47665592,
        "id": "d6e6eee2-692c-42c2-9bb3-6911c703fb9c"
    },
    {
        "name": "村野神社",
        "prefectureName": "大阪府",
        "cityName": "枚方市",
        "streetName": "村野本町２９番１号",
        "latitude": 34.80379708,
        "longitude": 135.66965377,
        "id": "6dfdb0dc-7110-402e-833e-81b8ba58bb36"
    },
    {
        "name": "杜本神社",
        "prefectureName": "大阪府",
        "cityName": "羽曳野市",
        "streetName": "駒ケ谷６４番地",
        "latitude": 34.54566109,
        "longitude": 135.62571303,
        "id": "d9b5a4a5-84fc-4f05-be24-310106e56963"
    },
    {
        "name": "杭全神社",
        "prefectureName": "大阪府",
        "cityName": "大阪市平野区",
        "streetName": "平野宮町２丁目１番６７号",
        "latitude": 34.62894255,
        "longitude": 135.55495618,
        "id": "b2f6c1bb-c718-4a36-8707-b851ca675c88"
    },
    {
        "name": "東葛城神社",
        "prefectureName": "大阪府",
        "cityName": "岸和田市",
        "streetName": "河合町１８９３番地",
        "latitude": 34.40639084,
        "longitude": 135.41567838,
        "id": "d09eafe8-b548-4d54-8fb6-82d353467a5e"
    },
    {
        "name": "杵築神社",
        "prefectureName": "大阪府",
        "cityName": "八尾市",
        "streetName": "佐堂町２丁目２番９号",
        "latitude": 34.63487603,
        "longitude": 135.59294432,
        "id": "f5f6932c-7d2a-4435-aa5c-545a9ca73536"
    },
    {
        "name": "松山神社",
        "prefectureName": "大阪府",
        "cityName": "大阪市東淀川区",
        "streetName": "小松４丁目１５番３８号",
        "latitude": 34.75454464,
        "longitude": 135.54047698,
        "id": "cd3aef64-7d5b-4cd8-889a-99b6af3792a0"
    },
    {
        "name": "板茂神社",
        "prefectureName": "大阪府",
        "cityName": "富田林市",
        "streetName": "大字西板持９７１番地",
        "latitude": 34.4995269,
        "longitude": 135.5971274,
        "id": "4d27c609-a528-4d33-bdce-1afac46c6ecf"
    },
    {
        "name": "枚岡神社",
        "prefectureName": "大阪府",
        "cityName": "東大阪市",
        "streetName": "出雲井町７番１６号",
        "latitude": 34.66994521,
        "longitude": 135.6507192,
        "id": "43383e00-1218-4f6c-995a-b3a51bbb6029"
    },
    {
        "name": "柏原神社",
        "prefectureName": "大阪府",
        "cityName": "柏原市",
        "streetName": "今町２丁目１番２０号",
        "latitude": 34.58982311,
        "longitude": 135.62089852,
        "id": "bad1f78f-fa8c-4562-804b-eb168e6a44e1"
    },
    {
        "name": "柏原黒田神社",
        "prefectureName": "大阪府",
        "cityName": "柏原市",
        "streetName": "今町１丁目３番１３号",
        "latitude": 34.58766223,
        "longitude": 135.6214263,
        "id": "07152a96-49a2-49ed-ba70-121598825ede"
    },
    {
        "name": "柴島神社",
        "prefectureName": "大阪府",
        "cityName": "大阪市東淀川区",
        "streetName": "柴島３丁目７番３０号",
        "latitude": 34.73095813,
        "longitude": 135.51447157,
        "id": "0e56925b-292b-43a2-a22c-2795134300f1"
    },
    {
        "name": "柴籬神社",
        "prefectureName": "大阪府",
        "cityName": "松原市",
        "streetName": "上田７丁目１２番２２号",
        "latitude": 34.57180162,
        "longitude": 135.5596462,
        "id": "95eadb21-24f9-400e-9b33-d7b58a33bedd"
    },
    {
        "name": "栗原神社",
        "prefectureName": "大阪府",
        "cityName": "東大阪市",
        "streetName": "吉原２丁目１０番３３号",
        "latitude": 34.68817886,
        "longitude": 135.62079645,
        "id": "8743f01a-180f-4fb7-9695-83b6c67cedea"
    },
    {
        "name": "梶無神社",
        "prefectureName": "大阪府",
        "cityName": "東大阪市",
        "streetName": "六万寺町３丁目１４番３１号",
        "latitude": 34.65336103,
        "longitude": 135.64233691,
        "id": "1490e886-b4ab-4c2c-b4a7-7175f5395dbc"
    },
    {
        "name": "椎尾神社",
        "prefectureName": "大阪府",
        "cityName": "三島郡島本町",
        "streetName": "山崎５丁目１０４９番地",
        "latitude": 34.89488723,
        "longitude": 135.67372362,
        "id": "24c7b88b-ef6c-450f-87a2-0e40ddec0d4a"
    },
    {
        "name": "楠本神社",
        "prefectureName": "大阪府",
        "cityName": "岸和田市",
        "streetName": "包近町１４４８番地",
        "latitude": 34.45062217,
        "longitude": 135.42936263,
        "id": "e16fd7bd-4a87-43c5-9c2b-6d16f808c351"
    },
    {
        "name": "榎神社",
        "prefectureName": "大阪府",
        "cityName": "大阪市東住吉区",
        "streetName": "大塚町６９番地",
        "latitude": 34.6220428,
        "longitude": 135.5265673,
        "id": "08ae959b-8256-423f-bac5-c8f6f617fd1f"
    },
    {
        "name": "樟本神社",
        "prefectureName": "大阪府",
        "cityName": "八尾市",
        "streetName": "木の本１丁目５９番地",
        "latitude": 34.60104902,
        "longitude": 135.58794283,
        "id": "af994f1c-1321-4b14-86f9-3adff0b56c7c"
    },
    {
        "name": "樟本神社",
        "prefectureName": "大阪府",
        "cityName": "八尾市",
        "streetName": "北木の本５丁目７３番地",
        "latitude": 34.60897598,
        "longitude": 135.5894258,
        "id": "335a00a5-009f-4a0a-b71f-6586ef0f8c75"
    },
    {
        "name": "樟本神社",
        "prefectureName": "大阪府",
        "cityName": "八尾市",
        "streetName": "南木の本７丁目３３番地",
        "latitude": 34.60174342,
        "longitude": 135.58935935,
        "id": "cfdeac0f-2b7d-4a58-9fc8-7e0b3671317c"
    },
    {
        "name": "樫船神社",
        "prefectureName": "大阪府",
        "cityName": "高槻市",
        "streetName": "大字田能小字コブケ８番地",
        "latitude": 34.96328744,
        "longitude": 135.59218265,
        "id": "4838ba1a-b7f3-475f-b43c-2ccfe0f1f35b"
    },
    {
        "name": "機物神社",
        "prefectureName": "大阪府",
        "cityName": "交野市",
        "streetName": "倉治１丁目１番７号",
        "latitude": 34.79457092,
        "longitude": 135.69467081,
        "id": "82cd918c-d278-40ba-8c9e-5cbaffb14221"
    },
    {
        "name": "櫻井神社",
        "prefectureName": "大阪府",
        "cityName": "堺市南区",
        "streetName": "片蔵６４５番地",
        "latitude": 34.48541611,
        "longitude": 135.50617468,
        "id": "af691e0b-5d39-473b-bc08-c42c5c865831"
    },
    {
        "name": "歌垣神社",
        "prefectureName": "大阪府",
        "cityName": "豊能郡能勢町",
        "streetName": "倉垣１７６４番地",
        "latitude": 34.98378825,
        "longitude": 135.46437472,
        "id": "4bc75fed-3e89-4501-bacd-db15798acb76"
    },
    {
        "name": "止々呂美神社",
        "prefectureName": "大阪府",
        "cityName": "箕面市",
        "streetName": "大字上止々呂美９０９番地",
        "latitude": 34.8271297,
        "longitude": 135.4703845,
        "id": "c8cf4a5b-60a2-48a6-8c97-9451e3450b5c"
    },
    {
        "name": "止止呂支比賣命神社",
        "prefectureName": "大阪府",
        "cityName": "大阪市住吉区",
        "streetName": "沢之町１丁目１０番４号",
        "latitude": 34.60478344,
        "longitude": 135.49733992,
        "id": "5f073987-3963-4d59-8e6c-2f1126118c57"
    },
    {
        "name": "武内神社",
        "prefectureName": "大阪府",
        "cityName": "三島郡島本町",
        "streetName": "大字高浜８０５番地",
        "latitude": 34.8838298,
        "longitude": 135.6629916,
        "id": "cd3e77b9-86f1-4398-a426-8e49b4a1d26e"
    },
    {
        "name": "比枝神社",
        "prefectureName": "大阪府",
        "cityName": "八尾市",
        "streetName": "相生町３丁目７番地",
        "latitude": 34.61286475,
        "longitude": 135.60214402,
        "id": "fc641932-6ed8-4188-b840-ffd11d71b07f"
    },
    {
        "name": "比枝神社",
        "prefectureName": "大阪府",
        "cityName": "大阪市鶴見区",
        "streetName": "今津中５丁目５番２３号",
        "latitude": 34.69243872,
        "longitude": 135.57939173,
        "id": "25b189af-14d1-46c4-bbf8-1d349494743c"
    },
    {
        "name": "比賣許曽神社",
        "prefectureName": "大阪府",
        "cityName": "大阪市東成区",
        "streetName": "東小橋３丁目８番１４号",
        "latitude": 34.66704077,
        "longitude": 135.53417125,
        "id": "b4813223-4667-4931-a223-b5c711a017c0"
    },
    {
        "name": "氏神社",
        "prefectureName": "大阪府",
        "cityName": "寝屋川市",
        "streetName": "仁和寺本町４丁目１１番２９号",
        "latitude": 34.76675028,
        "longitude": 135.5955329,
        "id": "9dd9c052-f9cf-4ca1-a90d-fc7b7b579593"
    },
    {
        "name": "水神社",
        "prefectureName": "大阪府",
        "cityName": "大阪市城東区",
        "streetName": "野江４丁目１番３９号",
        "latitude": 34.70863066,
        "longitude": 135.53883138,
        "id": "02b4f26c-8757-4afe-9014-e24c59bc0c95"
    },
    {
        "name": "池島神社",
        "prefectureName": "大阪府",
        "cityName": "東大阪市",
        "streetName": "池島町３丁目８番８号",
        "latitude": 34.65253322,
        "longitude": 135.63286831,
        "id": "2fa43f6e-4021-4c1d-82f4-c1eff13f2de0"
    },
    {
        "name": "河堀稲生神社",
        "prefectureName": "大阪府",
        "cityName": "大阪市天王寺区",
        "streetName": "大道３丁目７番３号",
        "latitude": 34.64994526,
        "longitude": 135.51978399,
        "id": "a67bffc7-cb84-4ada-9a01-c92af06ae25c"
    },
    {
        "name": "泉井上神社",
        "prefectureName": "大阪府",
        "cityName": "和泉市",
        "streetName": "府中町６丁目２番３８号",
        "latitude": 34.48690379,
        "longitude": 135.4275152,
        "id": "31a220c9-be32-4494-94e1-7d374205175e"
    },
    {
        "name": "泉尾神社",
        "prefectureName": "大阪府",
        "cityName": "大阪市大正区",
        "streetName": "泉尾２丁目１７番８号",
        "latitude": 34.65960465,
        "longitude": 135.47166873,
        "id": "ab3244f7-7bd0-41a4-86a2-45c982e82f9c"
    },
    {
        "name": "泉州磐船神社",
        "prefectureName": "大阪府",
        "cityName": "泉佐野市",
        "streetName": "上瓦屋３９２番地の１",
        "latitude": 34.41338843,
        "longitude": 135.33670318,
        "id": "0cb57b2a-20b1-4964-88bc-0be7b88345d3"
    },
    {
        "name": "泉穴師神社",
        "prefectureName": "大阪府",
        "cityName": "泉大津市",
        "streetName": "豊中町１丁目１番１号",
        "latitude": 34.49653029,
        "longitude": 135.41977689,
        "id": "f8db8966-87e8-4e87-a73d-656e2053e133"
    },
    {
        "name": "波多神社",
        "prefectureName": "大阪府",
        "cityName": "岸和田市",
        "streetName": "畑町４２８番地",
        "latitude": 34.43993928,
        "longitude": 135.38337251,
        "id": "5088d5d6-10a5-4d73-8f70-cfc3eed6f3ce"
    },
    {
        "name": "波太神社",
        "prefectureName": "大阪府",
        "cityName": "阪南市",
        "streetName": "石田１６７番地",
        "latitude": 34.34395907,
        "longitude": 135.24487261,
        "id": "c4fb3a9a-ce9e-4df1-8e6c-e36fc0acf6ae"
    },
    {
        "name": "波牟許曾神社",
        "prefectureName": "大阪府",
        "cityName": "東大阪市",
        "streetName": "長瀬町１丁目１０番９号",
        "latitude": 34.65068223,
        "longitude": 135.57572604,
        "id": "1e007c16-c7ac-434f-be95-7b5c1b8052fc"
    },
    {
        "name": "津原神社",
        "prefectureName": "大阪府",
        "cityName": "東大阪市",
        "streetName": "花園本町１丁目４番２３号",
        "latitude": 34.6603876,
        "longitude": 135.61906381,
        "id": "46bc96ce-821d-42c7-8d79-dce3e9ef3f13"
    },
    {
        "name": "津堂八幡神社",
        "prefectureName": "大阪府",
        "cityName": "藤井寺市",
        "streetName": "津堂４１番地",
        "latitude": 34.58210949,
        "longitude": 135.5931068,
        "id": "f71f863d-9b60-4d3d-8689-c7054e9823c2"
    },
    {
        "name": "津守神社",
        "prefectureName": "大阪府",
        "cityName": "大阪市西成区",
        "streetName": "津守３丁目４番１号",
        "latitude": 34.6410126,
        "longitude": 135.48297104,
        "id": "a1dcf266-7d7d-43ad-9fc8-52e88027a539"
    },
    {
        "name": "津嶋部神社",
        "prefectureName": "大阪府",
        "cityName": "守口市",
        "streetName": "金田町６丁目１５番６号",
        "latitude": 34.76192304,
        "longitude": 135.59679128,
        "id": "1a86c27c-9a31-4d74-bbef-65911493a59a"
    },
    {
        "name": "淀川神社",
        "prefectureName": "大阪府",
        "cityName": "大阪市都島区",
        "streetName": "毛馬町１丁目２番１１号",
        "latitude": 34.71820456,
        "longitude": 135.52126289,
        "id": "200bd352-f87b-43b1-a575-09362159bbc6"
    },
    {
        "name": "淡路神社",
        "prefectureName": "大阪府",
        "cityName": "岸和田市",
        "streetName": "摩湯町５７６番地",
        "latitude": 34.46319571,
        "longitude": 135.43570085,
        "id": "c2f64fb8-d9b6-42cd-9bab-03a4311218cc"
    },
    {
        "name": "深居神社",
        "prefectureName": "大阪府",
        "cityName": "松原市",
        "streetName": "小川５丁目２６番４号",
        "latitude": 34.58777242,
        "longitude": 135.57696644,
        "id": "cd395145-1190-40d4-82bb-c55d5964c861"
    },
    {
        "name": "深山神社",
        "prefectureName": "大阪府",
        "cityName": "豊能郡能勢町",
        "streetName": "天王４０８番地",
        "latitude": 35.03620925,
        "longitude": 135.35759504,
        "id": "d53cb4ef-bd1a-4c2f-b6ca-4151b2dcf471"
    },
    {
        "name": "深江稲荷神社",
        "prefectureName": "大阪府",
        "cityName": "大阪市東成区",
        "streetName": "深江南３丁目１６番１７号",
        "latitude": 34.66948812,
        "longitude": 135.56071578,
        "id": "2aab99f3-ca1e-488e-b80d-40195ab3f2c7"
    },
    {
        "name": "清見原神社",
        "prefectureName": "大阪府",
        "cityName": "大阪市生野区",
        "streetName": "小路２丁目２４番３５号",
        "latitude": 34.65996687,
        "longitude": 135.55489435,
        "id": "18e9c0b5-bb5e-4b80-8208-ac0b21db3f64"
    },
    {
        "name": "渋川神社",
        "prefectureName": "大阪府",
        "cityName": "八尾市",
        "streetName": "植松町３丁目３番６号",
        "latitude": 34.61615595,
        "longitude": 135.59750268,
        "id": "d5c73742-0b09-4228-8a5f-47624c946afa"
    },
    {
        "name": "溝咋神社",
        "prefectureName": "大阪府",
        "cityName": "茨木市",
        "streetName": "五十鈴町５２４番",
        "latitude": 34.8163384,
        "longitude": 135.5685041,
        "id": "55d92534-0876-4b83-9591-ac60624c1d52"
    },
    {
        "name": "澤田八幡神社",
        "prefectureName": "大阪府",
        "cityName": "藤井寺市",
        "streetName": "沢田４丁目２番３号",
        "latitude": 34.57095827,
        "longitude": 135.61152488,
        "id": "82e900b1-7096-48c5-a2d5-145ecce072a8"
    },
    {
        "name": "澪標住吉神社",
        "prefectureName": "大阪府",
        "cityName": "大阪市此花区",
        "streetName": "伝法３丁目１番６号",
        "latitude": 34.68961733,
        "longitude": 135.45424974,
        "id": "5aa5bf18-09e7-446e-8d4f-a60f46700f7d"
    },
    {
        "name": "火走神社",
        "prefectureName": "大阪府",
        "cityName": "泉佐野市",
        "streetName": "大木１５３４番地",
        "latitude": 34.3517659,
        "longitude": 135.36983921,
        "id": "44c21872-08fe-44f2-818f-a68e068f3b48"
    },
    {
        "name": "烏帽子形八幡神社",
        "prefectureName": "大阪府",
        "cityName": "河内長野市",
        "streetName": "喜多町３０５番地",
        "latitude": 34.44444112,
        "longitude": 135.56641992,
        "id": "f6dddb3a-66f8-456b-bd81-e30a9f8c86da"
    },
    {
        "name": "熱田神社",
        "prefectureName": "大阪府",
        "cityName": "松原市",
        "streetName": "別所６丁目５番２８号",
        "latitude": 34.5890026,
        "longitude": 135.56389261,
        "id": "a8fdea41-f7cf-419a-883f-8dcef82f3c9d"
    },
    {
        "name": "熱田神社",
        "prefectureName": "大阪府",
        "cityName": "寝屋川市",
        "streetName": "太秦中町４番１３号",
        "latitude": 34.76430941,
        "longitude": 135.63792923,
        "id": "7d19b3f6-35f4-4b26-a5ac-4fbfc5257bc8"
    },
    {
        "name": "片埜神社",
        "prefectureName": "大阪府",
        "cityName": "枚方市",
        "streetName": "牧野阪２丁目２１番１５号",
        "latitude": 34.84186747,
        "longitude": 135.66767538,
        "id": "cbe527d5-72d1-45d2-b59e-e35e6791be31"
    },
    {
        "name": "牟禮神社",
        "prefectureName": "大阪府",
        "cityName": "茨木市",
        "streetName": "中村町５番５号",
        "latitude": 34.82079926,
        "longitude": 135.58090862,
        "id": "9841fc5a-fc18-4ccd-b788-444b9e135f8c"
    },
    {
        "name": "狭山神社",
        "prefectureName": "大阪府",
        "cityName": "大阪狭山市",
        "streetName": "半田１丁目２２３番地",
        "latitude": 34.49481296,
        "longitude": 135.55696158,
        "id": "2954c16b-1d2c-4419-b0b6-afbc3e25180a"
    },
    {
        "name": "猿田彦神社",
        "prefectureName": "大阪府",
        "cityName": "茨木市",
        "streetName": "大字水尾７４６番地",
        "latitude": 34.8163384,
        "longitude": 135.5685041,
        "id": "a1757686-9faa-4992-88bb-33dfb8672cb8"
    },
    {
        "name": "玉祖神社",
        "prefectureName": "大阪府",
        "cityName": "八尾市",
        "streetName": "神立５丁目９３番地",
        "latitude": 34.63635194,
        "longitude": 135.64947548,
        "id": "3bf64f24-6d00-4227-b113-250d13db6959"
    },
    {
        "name": "瓜破天神社",
        "prefectureName": "大阪府",
        "cityName": "大阪市平野区",
        "streetName": "瓜破５丁目４番１９号",
        "latitude": 34.60203714,
        "longitude": 135.55475698,
        "id": "8043c437-cc16-4907-ad62-fddaa95d81a4"
    },
    {
        "name": "瓢簞山稲荷神社",
        "prefectureName": "大阪府",
        "cityName": "東大阪市",
        "streetName": "瓢箪山町８番１号",
        "latitude": 34.66074902,
        "longitude": 135.64203125,
        "id": "6bba904b-caa5-468d-b90c-8b31b38a049d"
    },
    {
        "name": "生國魂神社",
        "prefectureName": "大阪府",
        "cityName": "大阪市天王寺区",
        "streetName": "生玉町１３番９号",
        "latitude": 34.66507407,
        "longitude": 135.51248439,
        "id": "214d2d90-d7eb-49c2-b915-3d47b49394aa"
    },
    {
        "name": "生根神社",
        "prefectureName": "大阪府",
        "cityName": "大阪市住吉区",
        "streetName": "住吉２丁目３番１５号",
        "latitude": 34.61552398,
        "longitude": 135.49387616,
        "id": "5c12e47b-a3e1-43e8-8e47-7ec4e380529c"
    },
    {
        "name": "生根神社",
        "prefectureName": "大阪府",
        "cityName": "大阪市西成区",
        "streetName": "玉出西２丁目１番１０号",
        "latitude": 34.62601444,
        "longitude": 135.49017628,
        "id": "484e0dcf-3692-48db-bbdd-05a685f645ba"
    },
    {
        "name": "生野八坂神社",
        "prefectureName": "大阪府",
        "cityName": "大阪市生野区",
        "streetName": "生野東４丁目７番１１号",
        "latitude": 34.6461875,
        "longitude": 135.53561033,
        "id": "5e2ce9ae-4dae-44dc-a9aa-5322470eb362"
    },
    {
        "name": "生野神社",
        "prefectureName": "大阪府",
        "cityName": "大阪市生野区",
        "streetName": "舎利寺１丁目２番２７号",
        "latitude": 34.65090919,
        "longitude": 135.5361213,
        "id": "57c53e18-6a83-4a40-8920-60cb2715178a"
    },
    {
        "name": "産土神社",
        "prefectureName": "大阪府",
        "cityName": "大阪市平野区",
        "streetName": "長吉出戸６丁目１０番１４号",
        "latitude": 34.60990606,
        "longitude": 135.57228288,
        "id": "ef40de4b-b731-44ec-95a8-a09e748c65e2"
    },
    {
        "name": "産土神社",
        "prefectureName": "大阪府",
        "cityName": "大東市",
        "streetName": "灰塚３丁目７番１３号",
        "latitude": 34.70204935,
        "longitude": 135.60823612,
        "id": "1fb7a4bb-7763-487d-8973-09d00bdf14b5"
    },
    {
        "name": "産土神社",
        "prefectureName": "大阪府",
        "cityName": "大阪市大正区",
        "streetName": "小林町１番地",
        "latitude": 34.6503503,
        "longitude": 135.4726968,
        "id": "bc6c578f-e543-4b98-ab63-bfd79598241d"
    },