[
    {
        "name": "ニ宮神社",
        "prefectureName": "兵庫県",
        "cityName": "丹波篠山市",
        "streetName": "上板井字中島ノ坪９３２番地",
        "latitude": 35.0756937,
        "longitude": 135.219198,
        "id": "3b721c60-8d06-40a9-b8d8-a164ce747902"
    },
    {
        "name": "㕝代主神社",
        "prefectureName": "兵庫県",
        "cityName": "洲本市",
        "streetName": "炬口字宮ノ上続１９７番地",
        "latitude": 34.3428731,
        "longitude": 134.8953663,
        "id": "66752034-f561-4697-9540-76755c5748a8"
    },
    {
        "name": "䆴神社",
        "prefectureName": "兵庫県",
        "cityName": "豊岡市",
        "streetName": "出石町奥小野５５９番地",
        "latitude": 35.51358495,
        "longitude": 134.89192806,
        "id": "c148fe04-de77-47c6-8ea3-637261adfefb"
    },
    {
        "name": "䆴神社",
        "prefectureName": "兵庫県",
        "cityName": "豊岡市",
        "streetName": "出石町口小野２４番地",
        "latitude": 35.50191682,
        "longitude": 134.88815621,
        "id": "1fd217b4-7ea5-4033-bb7f-44e5ebd222d1"
    },
    {
        "name": "一の宮神社",
        "prefectureName": "兵庫県",
        "cityName": "丹波篠山市",
        "streetName": "中９８番地",
        "latitude": 35.0756937,
        "longitude": 135.219198,
        "id": "1f275563-5924-4870-bbc1-cfec32859b90"
    },
    {
        "name": "一ノ宮神社",
        "prefectureName": "兵庫県",
        "cityName": "養父市",
        "streetName": "大屋町加保字馬場崎１６４番地",
        "latitude": 35.35336421,
        "longitude": 134.7019792,
        "id": "5372dbc5-292c-4a62-bc87-9ce3cfb00b18"
    },
    {
        "name": "一ノ宮神社",
        "prefectureName": "兵庫県",
        "cityName": "養父市",
        "streetName": "八鹿町米里１番地",
        "latitude": 35.39166328,
        "longitude": 134.75233901,
        "id": "7afbb5be-5ff6-4f24-93b3-05ff2c65add2"
    },
    {
        "name": "一ノ宮神社",
        "prefectureName": "兵庫県",
        "cityName": "丹波市",
        "streetName": "氷上町上成松字京尾山３５番地の１",
        "latitude": 35.17302525,
        "longitude": 135.04373889,
        "id": "748b9129-12d9-476c-8142-ad437372eac0"
    },
    {
        "name": "一ノ宮神社",
        "prefectureName": "兵庫県",
        "cityName": "丹波市",
        "streetName": "春日町栢野３１９番地の３",
        "latitude": 35.13911825,
        "longitude": 135.19706532,
        "id": "abfe88c0-7fc6-470a-a3f0-34ff499c8b27"
    },
    {
        "name": "一ノ宮神社",
        "prefectureName": "兵庫県",
        "cityName": "丹波市",
        "streetName": "春日町下三井庄８６３番地",
        "latitude": 35.14804688,
        "longitude": 135.16086609,
        "id": "ac0d8786-11a0-4584-9679-fc12e5de43bb"
    },
    {
        "name": "一ノ宮神社",
        "prefectureName": "兵庫県",
        "cityName": "養父市",
        "streetName": "大屋町中字宮山２０９番地",
        "latitude": 35.35336421,
        "longitude": 134.7019792,
        "id": "d855b9bc-7dd8-45a7-abcf-d4f00a20eee2"
    },
    {
        "name": "一之宮神社",
        "prefectureName": "兵庫県",
        "cityName": "神崎郡福崎町",
        "streetName": "高岡字上の山１９１０番地の８、字東垣内３１７番地",
        "latitude": 34.9501765,
        "longitude": 134.7600753,
        "id": "469560ce-0ee7-4ab1-889d-0ac598e9e8f8"
    },
    {
        "name": "一之宮神社",
        "prefectureName": "兵庫県",
        "cityName": "加東市",
        "streetName": "天神６０１番地",
        "latitude": 34.91099106,
        "longitude": 135.0628034,
        "id": "dfd0fa47-b130-4e00-8a96-3c30e902c4f8"
    },
    {
        "name": "一倉神社",
        "prefectureName": "兵庫県",
        "cityName": "養父市",
        "streetName": "三谷２３７番地",
        "latitude": 35.3321117,
        "longitude": 134.73408898,
        "id": "b2dd8ab2-9bae-471d-bb48-c3e1520bdb2a"
    },
    {
        "name": "一原神社",
        "prefectureName": "兵庫県",
        "cityName": "姫路市",
        "streetName": "香寺町香呂３９２番地",
        "latitude": 34.91272184,
        "longitude": 134.73743594,
        "id": "8853b008-f04a-4461-9b34-4f28cd86fdff"
    },
    {
        "name": "一原神社",
        "prefectureName": "兵庫県",
        "cityName": "姫路市",
        "streetName": "香寺町広瀬２０１番地",
        "latitude": 34.91272184,
        "longitude": 134.73743594,
        "id": "68bbca07-8234-4c2f-9be6-0a5c8cf2e3c3"
    },
    {
        "name": "一宮熊野神社",
        "prefectureName": "兵庫県",
        "cityName": "丹波市",
        "streetName": "氷上町横田字藏谷１００番地",
        "latitude": 35.17302525,
        "longitude": 135.04373889,
        "id": "601f0295-f891-45bd-944b-b62872052b92"
    },
    {
        "name": "一宮神社",
        "prefectureName": "兵庫県",
        "cityName": "朝来市",
        "streetName": "羽渕字中村２０番地",
        "latitude": 35.3396567,
        "longitude": 134.8531613,
        "id": "ed9adc92-4888-47f9-89b5-801399725840"
    },
    {
        "name": "一宮神社",
        "prefectureName": "兵庫県",
        "cityName": "豊岡市",
        "streetName": "但東町正法寺５番地",
        "latitude": 35.4113984,
        "longitude": 135.00774059,
        "id": "443c679e-0c87-41a9-9a8d-f2d829826b06"
    },
    {
        "name": "一宮神社",
        "prefectureName": "兵庫県",
        "cityName": "神戸市中央区",
        "streetName": "山本通１丁目３番５号",
        "latitude": 34.69881206,
        "longitude": 135.19230268,
        "id": "4d17207f-7664-442c-be09-69f93d315651"
    },
    {
        "name": "一宮神社",
        "prefectureName": "兵庫県",
        "cityName": "豊岡市",
        "streetName": "但東町久畑宮ヶ市８７５番地",
        "latitude": 35.4113984,
        "longitude": 135.00774059,
        "id": "c53fe01d-d95d-41d1-96a0-82b5b91f684f"
    },
    {
        "name": "一宮神社",
        "prefectureName": "兵庫県",
        "cityName": "丹波市",
        "streetName": "市島町中竹田１１９７番地の１",
        "latitude": 35.24202682,
        "longitude": 135.13009189,
        "id": "19d867ca-e376-4153-89b0-0eeae38787f0"
    },
    {
        "name": "一宮神社",
        "prefectureName": "兵庫県",
        "cityName": "朝来市",
        "streetName": "立脇字赤溝２７の２番地",
        "latitude": 35.3396567,
        "longitude": 134.8531613,
        "id": "14562789-4ffe-43fd-8a1d-c9f68aeb6f3d"
    },
    {
        "name": "一宮神社",
        "prefectureName": "兵庫県",
        "cityName": "丹波市",
        "streetName": "山南町南中１番地の１",
        "latitude": 35.09376557,
        "longitude": 134.99786514,
        "id": "7d973dc4-4f13-4c82-9e38-2005761b0377"
    },
    {
        "name": "一宮神社",
        "prefectureName": "兵庫県",
        "cityName": "丹波篠山市",
        "streetName": "南矢代７０番地",
        "latitude": 35.0756937,
        "longitude": 135.219198,
        "id": "d6e8905f-4780-40fb-be1b-a605604ee693"
    },
    {
        "name": "七宮神社",
        "prefectureName": "兵庫県",
        "cityName": "神戸市兵庫区",
        "streetName": "七宮町２丁目３番２１号",
        "latitude": 34.67183984,
        "longitude": 135.17575466,
        "id": "6d33a9f4-dbe2-4d01-ab4c-76e467dc20b0"
    },
    {
        "name": "七社神社",
        "prefectureName": "兵庫県",
        "cityName": "宍粟市",
        "streetName": "一宮町嶋田字石橋２７９番地",
        "latitude": 35.14891742,
        "longitude": 134.60931987,
        "id": "a8734dad-8285-4a59-8dcd-c49752c7c3f3"
    },
    {
        "name": "七社神社",
        "prefectureName": "兵庫県",
        "cityName": "神戸市北区",
        "streetName": "山田町東下字翁ケ谷３６番地",
        "latitude": 34.724067,
        "longitude": 135.1461811,
        "id": "3c339751-ff9e-4095-8a91-e7a960ef68fc"
    },
    {
        "name": "七社神社",
        "prefectureName": "兵庫県",
        "cityName": "朝来市",
        "streetName": "山東町大月２４０４番地",
        "latitude": 35.30617311,
        "longitude": 134.90211608,
        "id": "da1ef1b0-78b7-429e-982d-65ce9551fe42"
    },
    {
        "name": "七種神社",
        "prefectureName": "兵庫県",
        "cityName": "神崎郡福崎町",
        "streetName": "田口７０２番地",
        "latitude": 35.0118083,
        "longitude": 134.70159075,
        "id": "6c20f2b2-dafa-4784-a830-5ddcb52aecba"
    },
    {
        "name": "七荒神社",
        "prefectureName": "兵庫県",
        "cityName": "たつの市",
        "streetName": "神岡町筒井茶ノ木畑２９９番地",
        "latitude": 34.88995583,
        "longitude": 134.55593195,
        "id": "b81f7457-5149-411d-81b2-f4031545b170"
    },
    {
        "name": "三ノ宮神社",
        "prefectureName": "兵庫県",
        "cityName": "養父市",
        "streetName": "大屋町筏字神田４３７番地",
        "latitude": 35.35336421,
        "longitude": 134.7019792,
        "id": "f77759b5-af96-4b84-b8c4-3c29b5afe822"
    },
    {
        "name": "三之宮神社",
        "prefectureName": "兵庫県",
        "cityName": "神崎郡福崎町",
        "streetName": "高岡１９３６番地",
        "latitude": 34.9501765,
        "longitude": 134.7600753,
        "id": "02fbef5b-c9a9-4f94-b9a0-addd05bba9dd"
    },
    {
        "name": "三十八神社",
        "prefectureName": "兵庫県",
        "cityName": "西脇市",
        "streetName": "寺内１０７番地",
        "latitude": 35.0036738,
        "longitude": 134.99163335,
        "id": "59b2d1c2-29f1-44cb-801b-91041f28d8f4"
    },
    {
        "name": "三坂神社",
        "prefectureName": "兵庫県",
        "cityName": "三木市",
        "streetName": "細川町豊地５８９番地",
        "latitude": 34.82737934,
        "longitude": 135.02771214,
        "id": "fd7bfb05-b6f7-43f8-8dbd-bb4580344e1f"
    },
    {
        "name": "三坂神社",
        "prefectureName": "兵庫県",
        "cityName": "三木市",
        "streetName": "加佐９１１番地",
        "latitude": 34.80503692,
        "longitude": 134.98817715,
        "id": "cea9a69e-8fc4-4024-9794-8c132a6b9b0c"
    },
    {
        "name": "三坂神社",
        "prefectureName": "兵庫県",
        "cityName": "たつの市",
        "streetName": "龍野町北龍野町５５番地",
        "latitude": 34.8578927,
        "longitude": 134.5453708,
        "id": "0466b841-fdb8-4b95-8fcc-976cfccd219c"
    },
    {
        "name": "三坂神社",
        "prefectureName": "兵庫県",
        "cityName": "神戸市西区",
        "streetName": "神出町北４８１番地",
        "latitude": 34.75128693,
        "longitude": 134.98143947,
        "id": "9fe7a4ee-48e1-49c5-94ee-3e969d0d36a9"
    },
    {
        "name": "三宝荒神社",
        "prefectureName": "兵庫県",
        "cityName": "美方郡新温泉町",
        "streetName": "千谷字奥畑１７１番地",
        "latitude": 35.6234999,
        "longitude": 134.4489467,
        "id": "cedec69b-cd3c-4b90-b6d7-1ad26fde423c"
    },
    {
        "name": "三宮神社",
        "prefectureName": "兵庫県",
        "cityName": "丹波市",
        "streetName": "市島町下竹田３０６番地の２",
        "latitude": 35.25253394,
        "longitude": 135.14327661,
        "id": "40c534de-627f-4419-9f85-14064a379af8"
    },
    {
        "name": "三宮神社",
        "prefectureName": "兵庫県",
        "cityName": "神戸市中央区",
        "streetName": "三宮町２丁目４番４号",
        "latitude": 34.68955476,
        "longitude": 135.19133348,
        "id": "c4c8d98e-6d21-4484-aaf9-7b9e5a75538f"
    },
    {
        "name": "三嶋神社",
        "prefectureName": "兵庫県",
        "cityName": "豊岡市",
        "streetName": "城崎町楽々浦字家ノ谷３３６番地",
        "latitude": 35.62486876,
        "longitude": 134.81266974,
        "id": "4d9c7f40-8c66-44b8-9a0b-3cecef2725ad"
    },
    {
        "name": "三嶺神社",
        "prefectureName": "兵庫県",
        "cityName": "宍粟市",
        "streetName": "波賀町谷字中山６９７番地",
        "latitude": 35.2054471,
        "longitude": 134.51692486,
        "id": "e9fc4693-9b10-4052-98a7-c2b58c7eed7c"
    },
    {
        "name": "三所神社",
        "prefectureName": "兵庫県",
        "cityName": "朝来市",
        "streetName": "山東町矢名瀬町２８７番地",
        "latitude": 35.32004593,
        "longitude": 134.88654217,
        "id": "6b26838a-ced6-452e-8dd9-481bcf2328f8"
    },
    {
        "name": "三木嶋神社",
        "prefectureName": "兵庫県",
        "cityName": "豊岡市",
        "streetName": "清冷寺字宮の上１１３２番地の１・１１３２番地の２",
        "latitude": 35.5444916,
        "longitude": 134.8201815,
        "id": "d7d52777-1c17-489e-84f5-7183bf5e571b"
    },
    {
        "name": "三柱神社",
        "prefectureName": "兵庫県",
        "cityName": "養父市",
        "streetName": "八鹿町石原８０７番地の２",
        "latitude": 35.41159122,
        "longitude": 134.71201399,
        "id": "407d02ff-29f1-4fb8-b064-20a2a05e2229"
    },
    {
        "name": "三柱神社",
        "prefectureName": "兵庫県",
        "cityName": "養父市",
        "streetName": "八鹿町高柳１２９２番地の１",
        "latitude": 35.39342942,
        "longitude": 134.73128765,
        "id": "bdc16167-0507-4b21-895e-04b4e8bf9326"
    },
    {
        "name": "三柱神社",
        "prefectureName": "兵庫県",
        "cityName": "豊岡市",
        "streetName": "新堂４０６番地の１",
        "latitude": 35.5680771,
        "longitude": 134.78581231,
        "id": "27ae4149-1c18-4f25-a7ee-c6293794ad56"
    },
    {
        "name": "三柱神社",
        "prefectureName": "兵庫県",
        "cityName": "豊岡市",
        "streetName": "竹野町田久日字宮ノ前７７番地の２",
        "latitude": 35.65872545,
        "longitude": 134.76270636,
        "id": "7937d20e-d7fd-4868-bbdc-f3b29d0a5bdb"
    },
    {
        "name": "三柱神社",
        "prefectureName": "兵庫県",
        "cityName": "豊岡市",
        "streetName": "日高町栗山字近江谷９２８番地",
        "latitude": 35.49553725,
        "longitude": 134.7620994,
        "id": "8a9002b1-8b01-46d9-a38f-03c1fe3a5729"
    },
    {
        "name": "三柱神社",
        "prefectureName": "兵庫県",
        "cityName": "美方郡香美町",
        "streetName": "香住区藤１１２番地の２",
        "latitude": 35.58256018,
        "longitude": 134.61023041,
        "id": "d5de859c-f5bd-4285-84ea-d5b575eb4712"
    },
    {
        "name": "三柱神社",
        "prefectureName": "兵庫県",
        "cityName": "豊岡市",
        "streetName": "但東町畑５９４番地",
        "latitude": 35.44609627,
        "longitude": 134.92703294,
        "id": "bdf6961a-e939-4746-a41a-da64e4432808"
    },
    {
        "name": "三柱神社",
        "prefectureName": "兵庫県",
        "cityName": "養父市",
        "streetName": "八鹿町八木２８２１番地の１",
        "latitude": 35.404651,
        "longitude": 134.7676736,
        "id": "b78632cf-fd9e-463b-a1ca-ce58350421b2"
    },
    {
        "name": "三柱神社",
        "prefectureName": "兵庫県",
        "cityName": "養父市",
        "streetName": "中瀬１２５８番地",
        "latitude": 35.404651,
        "longitude": 134.7676736,
        "id": "0a69d8ce-9c37-401b-b8ab-d10743f912a4"
    },
    {
        "name": "三柱神社",
        "prefectureName": "兵庫県",
        "cityName": "豊岡市",
        "streetName": "一日市字昆沙門１７０番地の２",
        "latitude": 35.5444916,
        "longitude": 134.8201815,
        "id": "1cfab525-cc49-4937-a49a-894adebe5fef"
    },
    {
        "name": "三柱神社",
        "prefectureName": "兵庫県",
        "cityName": "豊岡市",
        "streetName": "伊賀谷字城山２５２番地の３",
        "latitude": 35.5444916,
        "longitude": 134.8201815,
        "id": "d6bd90d3-141b-4fd9-8f45-af5a183de993"
    },
    {
        "name": "三柱神社",
        "prefectureName": "兵庫県",
        "cityName": "豊岡市",
        "streetName": "竹野町宇日字シモ地無番地",
        "latitude": 35.65872545,
        "longitude": 134.76270636,
        "id": "62cdf2a1-501d-4f41-aaba-5070619a595d"
    },
    {
        "name": "三柱神社",
        "prefectureName": "兵庫県",
        "cityName": "豊岡市",
        "streetName": "但東町久畑５７９番地",
        "latitude": 35.4113984,
        "longitude": 135.00774059,
        "id": "33d46c9c-ddfe-4a3b-85e9-70dbdcfac359"
    },
    {
        "name": "三柱神社",
        "prefectureName": "兵庫県",
        "cityName": "美方郡新温泉町",
        "streetName": "内山２６６番地",
        "latitude": 35.51745056,
        "longitude": 134.43843282,
        "id": "6afcaf86-ead4-48b2-9f35-7b145e26a36c"
    },
    {
        "name": "三柱神社",
        "prefectureName": "兵庫県",
        "cityName": "美方郡新温泉町",
        "streetName": "福富５４１番地",
        "latitude": 35.62044255,
        "longitude": 134.47217541,
        "id": "a3043be8-caf4-4d08-8745-3ac591ae479e"
    },
    {
        "name": "三柱神社",
        "prefectureName": "兵庫県",
        "cityName": "養父市",
        "streetName": "八鹿町高柳２８３４番地の３",
        "latitude": 35.3930712,
        "longitude": 134.7364428,
        "id": "6e6cdd77-5c93-4579-aa53-30b5e12e0b03"
    },
    {
        "name": "三柱神社",
        "prefectureName": "兵庫県",
        "cityName": "養父市",
        "streetName": "八鹿町宿南２４８番地",
        "latitude": 35.404651,
        "longitude": 134.7676736,
        "id": "1941a177-31bd-4594-9725-830049b853e5"
    },
    {
        "name": "三柱神社",
        "prefectureName": "兵庫県",
        "cityName": "養父市",
        "streetName": "関宮２５番地の１",
        "latitude": 35.37958816,
        "longitude": 134.64820009,
        "id": "9e66d784-f503-4aeb-a84b-23f3016bdfae"
    },
    {
        "name": "三柱神社",
        "prefectureName": "兵庫県",
        "cityName": "豊岡市",
        "streetName": "中郷市谷字森ノ下５４４番地",
        "latitude": 35.49040267,
        "longitude": 134.81506897,
        "id": "463af9d4-92de-4f31-826c-e411e62c3efd"
    },
    {
        "name": "三柱神社",
        "prefectureName": "兵庫県",
        "cityName": "養父市",
        "streetName": "八鹿町下小田１０１番地",
        "latitude": 35.42317986,
        "longitude": 134.78834609,
        "id": "d2ece63c-f048-463d-b9cb-e050538431af"
    },
    {
        "name": "三柱神社",
        "prefectureName": "兵庫県",
        "cityName": "豊岡市",
        "streetName": "日高町栗栖野１８４番地",
        "latitude": 35.49553725,
        "longitude": 134.7620994,
        "id": "9309bbcd-f553-4d6e-bac5-b3418a64758c"
    },
    {
        "name": "三柱神社",
        "prefectureName": "兵庫県",
        "cityName": "美方郡香美町",
        "streetName": "香住区大野３２２番地",
        "latitude": 35.59944182,
        "longitude": 134.61819047,
        "id": "e5da4979-8bc6-42e1-9b72-0b920dd015af"
    },
    {
        "name": "三柱神社",
        "prefectureName": "兵庫県",
        "cityName": "美方郡香美町",
        "streetName": "香住区相谷字金山１３４番地の２",
        "latitude": 35.6321935,
        "longitude": 134.6293697,
        "id": "24ca9ee6-8192-4f71-8915-010596b20eb5"
    },
    {
        "name": "三柱神社",
        "prefectureName": "兵庫県",
        "cityName": "豊岡市",
        "streetName": "出石町谷山２３９番地",
        "latitude": 35.46101836,
        "longitude": 134.87364765,
        "id": "29b3464c-d909-4afc-bc25-3f4cfa08e5ce"
    },
    {
        "name": "三柱神社",
        "prefectureName": "兵庫県",
        "cityName": "養父市",
        "streetName": "八鹿町八鹿１０２２番地",
        "latitude": 35.40744793,
        "longitude": 134.76524594,
        "id": "4605fc39-cda6-4856-b368-f712bc6190e9"
    },
    {
        "name": "三柱神社",
        "prefectureName": "兵庫県",
        "cityName": "豊岡市",
        "streetName": "日高町山田５５９番地",
        "latitude": 35.50474362,
        "longitude": 134.65507703,
        "id": "c89df9db-1c8a-4624-8f2c-eabac9e0399e"
    },
    {
        "name": "三柱神社",
        "prefectureName": "兵庫県",
        "cityName": "美方郡香美町",
        "streetName": "香住区下岡字宮ノ上５０１番地",
        "latitude": 35.6321935,
        "longitude": 134.6293697,
        "id": "1770cadc-2552-4242-bea1-f6011192e722"
    },
    {
        "name": "三柱神社",
        "prefectureName": "兵庫県",
        "cityName": "豊岡市",
        "streetName": "出石町暮坂４５７番地",
        "latitude": 35.46101836,
        "longitude": 134.87364765,
        "id": "c9caf694-9032-487e-98f7-065bde84f1a3"
    },
    {
        "name": "三柱神社",
        "prefectureName": "兵庫県",
        "cityName": "丹波市",
        "streetName": "青垣町東芦田２２８８番地",
        "latitude": 35.24572419,
        "longitude": 135.00229965,
        "id": "b4b619d0-8199-4006-9c06-f487c00bdeaf"
    },
    {
        "name": "三柱神社",
        "prefectureName": "兵庫県",
        "cityName": "養父市",
        "streetName": "八鹿町小佐５６４番地",
        "latitude": 35.40938883,
        "longitude": 134.73118728,
        "id": "1a770c7d-1212-4fab-9f2e-641790b532c7"
    },
    {
        "name": "三柱神社",
        "prefectureName": "兵庫県",
        "cityName": "朝来市",
        "streetName": "和田山町東谷１１６５番地",
        "latitude": 35.33691261,
        "longitude": 134.85706102,
        "id": "75d73047-10ac-4942-86a4-a728ea0d33df"
    },
    {
        "name": "三柱神社",
        "prefectureName": "兵庫県",
        "cityName": "豊岡市",
        "streetName": "日高町万劫６７番地",
        "latitude": 35.51105955,
        "longitude": 134.65312997,
        "id": "b8375744-13fb-423c-a659-1af416f37456"
    },
    {
        "name": "三柱神社",
        "prefectureName": "兵庫県",
        "cityName": "美方郡香美町",
        "streetName": "香住区中野３００番地の３",
        "latitude": 35.58829294,
        "longitude": 134.61119963,
        "id": "24a6b854-3487-49c5-a92f-2dca90f5efb6"
    },
    {
        "name": "三柱神社",
        "prefectureName": "兵庫県",
        "cityName": "豊岡市",
        "streetName": "出石町丸中５５番地",
        "latitude": 35.48136799,
        "longitude": 134.84407167,
        "id": "c85d0c74-c5eb-4391-8677-4bc1a13adab7"
    },
    {
        "name": "三柱神社",
        "prefectureName": "兵庫県",
        "cityName": "美方郡新温泉町",
        "streetName": "辺地字后山５７番地",
        "latitude": 35.6234999,
        "longitude": 134.4489467,
        "id": "7e4abf0c-69b3-41a6-a35b-c2c2e98a431b"
    },
    {
        "name": "三柱神社",
        "prefectureName": "兵庫県",
        "cityName": "養父市",
        "streetName": "八鹿町小佐２２１番地",
        "latitude": 35.404651,
        "longitude": 134.7676736,
        "id": "0091842a-e953-476d-8130-72067aef8bb6"
    },
    {
        "name": "三柱神社",
        "prefectureName": "兵庫県",
        "cityName": "豊岡市",
        "streetName": "日高町谷字宮ノ下９２番地",
        "latitude": 35.49553725,
        "longitude": 134.7620994,
        "id": "1735cb13-02a1-4826-a53c-36ec0a7a3f2d"
    },
    {
        "name": "三柱神社",
        "prefectureName": "兵庫県",
        "cityName": "美方郡香美町",
        "streetName": "香住区下岡字東山７７３番地",
        "latitude": 35.6321935,
        "longitude": 134.6293697,
        "id": "aa286387-6bff-4269-b403-264af63a56d2"
    },
    {
        "name": "三柱神社",
        "prefectureName": "兵庫県",
        "cityName": "豊岡市",
        "streetName": "出石町丸中２１６番地",
        "latitude": 35.46101836,
        "longitude": 134.87364765,
        "id": "e3a53cd8-aa38-41cc-b5db-fe8ac9106383"
    },
    {
        "name": "三柱神社",
        "prefectureName": "兵庫県",
        "cityName": "美方郡新温泉町",
        "streetName": "赤崎２３０番地",
        "latitude": 35.6234999,
        "longitude": 134.4489467,
        "id": "4f18c940-c066-4bc8-8d02-70b533012b20"
    },
    {
        "name": "三柱神社",
        "prefectureName": "兵庫県",
        "cityName": "美方郡新温泉町",
        "streetName": "三尾５４番地",
        "latitude": 35.65448051,
        "longitude": 134.50256282,
        "id": "58bbf34b-0e71-45f0-bba2-3fc353ace1c5"
    },
    {
        "name": "三柱神社",
        "prefectureName": "兵庫県",
        "cityName": "養父市",
        "streetName": "新津５３９番地",
        "latitude": 35.3667546,
        "longitude": 134.727122,
        "id": "6ac6f214-d34f-4560-9ce7-a1cb1c0840f1"
    },
    {
        "name": "三柱神社",
        "prefectureName": "兵庫県",
        "cityName": "養父市",
        "streetName": "大屋町樽見字宮ノ段４５３番地",
        "latitude": 35.35336421,
        "longitude": 134.7019792,
        "id": "902d6673-67ac-46bb-bde2-93646b05aa6d"
    },
    {
        "name": "三柱神社",
        "prefectureName": "兵庫県",
        "cityName": "朝来市",
        "streetName": "岩津３７番地",
        "latitude": 35.21190057,
        "longitude": 134.79877369,
        "id": "789d086b-c9f9-4cbb-ba4f-f2d70f85dd06"
    },
    {
        "name": "三柱神社",
        "prefectureName": "兵庫県",
        "cityName": "豊岡市",
        "streetName": "岩井字福井６２５番地ノ１",
        "latitude": 35.5351555,
        "longitude": 134.79002927,
        "id": "23075ce8-5739-4a3e-8a3b-cf8c81c16ea5"
    },
    {
        "name": "三柱神社",
        "prefectureName": "兵庫県",
        "cityName": "豊岡市",
        "streetName": "城崎町今津字堂ノ奥４７５番地の１",
        "latitude": 35.62486876,
        "longitude": 134.81266974,
        "id": "e6b0c370-2933-471b-b796-787eb4d05c3f"
    },
    {
        "name": "三柱神社",
        "prefectureName": "兵庫県",
        "cityName": "豊岡市",
        "streetName": "日高町頃垣５７１番地",
        "latitude": 35.49553725,
        "longitude": 134.7620994,
        "id": "90b2136c-6c75-427d-93c3-82ab80590c6d"
    },
    {
        "name": "三柱神社",
        "prefectureName": "兵庫県",
        "cityName": "美方郡新温泉町",
        "streetName": "清富８０１番地の２",
        "latitude": 35.62865233,
        "longitude": 134.4634929,
        "id": "23a31b28-4c5e-4686-a628-f56ac606cdec"
    },
    {
        "name": "三柱神社",
        "prefectureName": "兵庫県",
        "cityName": "養父市",
        "streetName": "八鹿町日畑４８７番地",
        "latitude": 35.42187852,
        "longitude": 134.68164705,
        "id": "63387fee-5b8b-4a9f-86d9-09ce70de5946"
    },
    {
        "name": "三柱神社",
        "prefectureName": "兵庫県",
        "cityName": "養父市",
        "streetName": "八鹿町三谷５１番地の２",
        "latitude": 35.42237958,
        "longitude": 134.76569272,
        "id": "2339414c-1b4b-4de6-b82f-fc0c35d47e23"
    },
    {
        "name": "三柱神社",
        "prefectureName": "兵庫県",
        "cityName": "養父市",
        "streetName": "森１１３番地の４",
        "latitude": 35.32242926,
        "longitude": 134.73665258,
        "id": "9f27974f-bf71-4144-97d2-e158237eaeae"
    },
    {
        "name": "三柱神社",
        "prefectureName": "兵庫県",
        "cityName": "豊岡市",
        "streetName": "庄字フスガ谷４７３番地ノ１",
        "latitude": 35.5444916,
        "longitude": 134.8201815,
        "id": "49ddfef4-c23a-415d-a9fa-acd47947f5cd"
    },
    {
        "name": "三柱神社",
        "prefectureName": "兵庫県",
        "cityName": "豊岡市",
        "streetName": "竹野町切浜字浜頭１１２１番地の１",
        "latitude": 35.65872545,
        "longitude": 134.76270636,
        "id": "4082074d-d037-46f2-96b0-c470ff6c38e6"
    },
    {
        "name": "三柱神社",
        "prefectureName": "兵庫県",
        "cityName": "豊岡市",
        "streetName": "日高町稲葉７３番地",
        "latitude": 35.51615615,
        "longitude": 134.64994701,
        "id": "07e799b4-e743-45cf-b7f5-97b609668bab"
    },
    {
        "name": "三柱神社",
        "prefectureName": "兵庫県",
        "cityName": "美方郡香美町",
        "streetName": "香住区八原３９４番地の１",
        "latitude": 35.57938821,
        "longitude": 134.60608926,
        "id": "710c6bb7-b581-4685-ba8d-0956a00c85ef"
    },
    {
        "name": "三柱神社",
        "prefectureName": "兵庫県",
        "cityName": "美方郡香美町",
        "streetName": "香住区若松５９２番地の１",
        "latitude": 35.64581405,
        "longitude": 134.63366076,
        "id": "c3310ba2-bd14-4c71-bde9-d86136b1f45e"
    },
    {
        "name": "三柱神社",
        "prefectureName": "兵庫県",
        "cityName": "美方郡香美町",
        "streetName": "香住区三谷５２５番地の２",
        "latitude": 35.61318481,
        "longitude": 134.62652024,
        "id": "8392deaa-e1fd-4659-b8e8-850fe2a232e7"
    },
    {
        "name": "三柱神社",
        "prefectureName": "兵庫県",
        "cityName": "豊岡市",
        "streetName": "但東町相田１２２３番地",
        "latitude": 35.44423602,
        "longitude": 134.97307611,
        "id": "ca9c4e41-9142-4a6c-8d7d-0f653bdd1574"
    },
    {
        "name": "三柱神社",
        "prefectureName": "兵庫県",
        "cityName": "美方郡新温泉町",
        "streetName": "釜屋字宮山１番地",
        "latitude": 35.6234999,
        "longitude": 134.4489467,
        "id": "71b5dc18-cb8d-4d20-a104-6c35d72b78ad"
    },
    {
        "name": "三森神社",
        "prefectureName": "兵庫県",
        "cityName": "姫路市",
        "streetName": "豊富町御蔭１５５６番地",
        "latitude": 34.88405526,
        "longitude": 134.73665904,
        "id": "4c230c87-7e30-46f7-bdbd-59b1121d2e47"
    },
    {
        "name": "三王ノ森神社",
        "prefectureName": "兵庫県",
        "cityName": "南あわじ市",
        "streetName": "榎列小榎列６４６番地",
        "latitude": 34.2944793,
        "longitude": 134.779858,
        "id": "42545d04-e8fa-4768-b018-a71a3fbd6049"
    },
    {
        "name": "三王神社",
        "prefectureName": "兵庫県",
        "cityName": "宍粟市",
        "streetName": "一宮町福野２３２番地",
        "latitude": 35.14891742,
        "longitude": 134.60931987,
        "id": "54963e0a-66ce-4c36-91ac-0a07a69a6956"
    },
    {
        "name": "三王神社",
        "prefectureName": "兵庫県",
        "cityName": "神戸市東灘区",
        "streetName": "田中町２丁目２番１号",
        "latitude": 34.72307732,
        "longitude": 135.27511732,
        "id": "4e45af5e-8f65-47bc-8be0-5582ae78917a"
    },
    {
        "name": "三石神社",
        "prefectureName": "兵庫県",
        "cityName": "神戸市兵庫区",
        "streetName": "和田宮通３丁目２番５１号",
        "latitude": 34.65762754,
        "longitude": 135.17460499,
        "id": "94870ecf-e9dc-4b22-9f41-713b6ee48f50"
    },
    {
        "name": "三社八幡神社",
        "prefectureName": "兵庫県",
        "cityName": "佐用郡佐用町",
        "streetName": "大酒３４０番地",
        "latitude": 34.93893029,
        "longitude": 134.34016613,
        "id": "4da68513-a456-42ff-8536-172f65768451"
    },
    {
        "name": "三社大神社",
        "prefectureName": "兵庫県",
        "cityName": "高砂市",
        "streetName": "荒井町小松原３丁目４番９号",
        "latitude": 34.76342417,
        "longitude": 134.80203961,
        "id": "aa421507-98dd-4ad0-b6a3-62e9746a0aa8"
    },
    {
        "name": "三社神社",
        "prefectureName": "兵庫県",
        "cityName": "南あわじ市",
        "streetName": "志知鈩１４０番地",
        "latitude": 34.29890304,
        "longitude": 134.7421001,
        "id": "cbf85341-de2d-44f6-aaff-7368320543cb"
    },
    {
        "name": "三社神社",
        "prefectureName": "兵庫県",
        "cityName": "養父市",
        "streetName": "大屋町若杉４８２番地",
        "latitude": 35.29354106,
        "longitude": 134.59800008,
        "id": "69bdd749-2db3-424f-9bc2-b618752d2de3"
    },
    {
        "name": "三社神社",
        "prefectureName": "兵庫県",
        "cityName": "朝来市",
        "streetName": "山東町新堂２２３番地",
        "latitude": 35.30617311,
        "longitude": 134.90211608,
        "id": "7e891e44-ca96-4a9b-98dd-37ca3d4cb8c6"
    },
    {
        "name": "三社神社",
        "prefectureName": "兵庫県",
        "cityName": "明石市",
        "streetName": "小久保２丁目９番地の４",
        "latitude": 34.66829832,
        "longitude": 134.95955893,
        "id": "93cce5e5-144c-4091-88c0-a3e0b5499bba"
    },
    {
        "name": "三社神社",
        "prefectureName": "兵庫県",
        "cityName": "朝来市",
        "streetName": "和田山町東和田２７６番地",
        "latitude": 35.35075926,
        "longitude": 134.89224084,
        "id": "626b43e6-e515-468a-88dc-8c933db7a5a7"
    },
    {
        "name": "三神社",
        "prefectureName": "兵庫県",
        "cityName": "豊岡市",
        "streetName": "下鉢山５９番地",
        "latitude": 35.51245935,
        "longitude": 134.84900945,
        "id": "c12a734c-8de9-40b8-bb3f-5124b84d45a9"
    },
    {
        "name": "三神社",
        "prefectureName": "兵庫県",
        "cityName": "姫路市",
        "streetName": "余部区上余部字西畑５３９番地",
        "latitude": 34.8151488,
        "longitude": 134.6853548,
        "id": "9cabdb99-c19c-4c82-8c83-d60be8538500"
    },
    {
        "name": "三谷神社",
        "prefectureName": "兵庫県",
        "cityName": "朝来市",
        "streetName": "山東町粟鹿１４６０番地",
        "latitude": 35.29775489,
        "longitude": 134.91095159,
        "id": "23d7ab4e-3ee2-4b9c-9c12-1b06fe23d9df"
    },
    {
        "name": "三輪神社",
        "prefectureName": "兵庫県",
        "cityName": "三田市",
        "streetName": "三輪３丁目５番１号",
        "latitude": 34.89297051,
        "longitude": 135.22855897,
        "id": "632ced77-53bf-48b1-a005-c9ed8af6daa6"
    },
    {
        "name": "三輪神社",
        "prefectureName": "兵庫県",
        "cityName": "川西市",
        "streetName": "出在家町２１番５号",
        "latitude": 34.84076055,
        "longitude": 135.4217495,
        "id": "06b414a6-1ad5-4f59-bb62-78aa9ee6b155"
    },
    {
        "name": "三輪神社",
        "prefectureName": "兵庫県",
        "cityName": "川西市",
        "streetName": "滝山町１８番６号",
        "latitude": 34.84476007,
        "longitude": 135.42034953,
        "id": "2c508bc4-5968-44fd-96a2-20b755577349"
    },
    {
        "name": "三輪神社",
        "prefectureName": "兵庫県",
        "cityName": "丹波市",
        "streetName": "市島町与戸１４０９番地",
        "latitude": 35.20254535,
        "longitude": 135.10088892,
        "id": "76795948-a050-48c1-9206-657344d3d604"
    },
    {
        "name": "三野神社",
        "prefectureName": "兵庫県",
        "cityName": "豊岡市",
        "streetName": "日高町野々庄字下小屋７８２番地",
        "latitude": 35.49553725,
        "longitude": 134.7620994,
        "id": "59f0e3f4-a884-4763-8a3b-700c946d9dd1"
    },
    {
        "name": "上之庄神社",
        "prefectureName": "兵庫県",
        "cityName": "加古川市",
        "streetName": "上荘町井ノ口５９１番地",
        "latitude": 34.80686996,
        "longitude": 134.90159066,
        "id": "e89873d9-2933-4422-992a-84ee530779d3"
    },
    {
        "name": "上森神社",
        "prefectureName": "兵庫県",
        "cityName": "養父市",
        "streetName": "大屋町蔵垣字黒山１００５番地",
        "latitude": 35.35336421,
        "longitude": 134.7019792,
        "id": "a2c72a33-0d3c-4ca6-af9c-b779871dde2f"
    },
    {
        "name": "上野神社",
        "prefectureName": "兵庫県",
        "cityName": "西宮市",
        "streetName": "今津上野町７番１５号",
        "latitude": 34.72884418,
        "longitude": 135.35869927,
        "id": "b5c5be60-b64a-48ba-b87c-3f2d9ca555bf"
    },
    {
        "name": "下村神社",
        "prefectureName": "兵庫県",
        "cityName": "豊岡市",
        "streetName": "但東町東里１３番地",
        "latitude": 35.49169959,
        "longitude": 134.97327719,
        "id": "1f2b2e88-9bab-44b2-86c0-1cde3fc74e39"
    },
    {
        "name": "両皇大神社",
        "prefectureName": "兵庫県",
        "cityName": "加西市",
        "streetName": "栄町２５７番地",
        "latitude": 34.86870754,
        "longitude": 134.88526664,
        "id": "5cc89c60-2f23-49b9-8023-33c246822fe8"
    },
    {
        "name": "中ノ宮神社",
        "prefectureName": "兵庫県",
        "cityName": "宍粟市",
        "streetName": "千種町河内１４９４番地",
        "latitude": 35.0044194,
        "longitude": 134.5494685,
        "id": "a8e03910-d429-4e75-916d-0116e61464d2"
    },
    {
        "name": "中尾神社",
        "prefectureName": "兵庫県",
        "cityName": "養父市",
        "streetName": "能座６５番地の２",
        "latitude": 35.29816482,
        "longitude": 134.73667483,
        "id": "c52097cd-33e3-4f6f-ae11-c631a19da4ce"
    },
    {
        "name": "中尾神社",
        "prefectureName": "兵庫県",
        "cityName": "神戸市北区",
        "streetName": "有野町有野字平井４６２番地",
        "latitude": 34.724067,
        "longitude": 135.1461811,
        "id": "b1b46516-a28b-4c79-9440-00d88fc1acbb"
    },
    {
        "name": "中山神社",
        "prefectureName": "兵庫県",
        "cityName": "神戸市北区",
        "streetName": "淡河町勝雄１４３４番地",
        "latitude": 34.79850778,
        "longitude": 135.0833741,
        "id": "048f9903-59ff-49c7-b86b-6f33f4cd3f01"
    },
    {
        "name": "中山神社",
        "prefectureName": "兵庫県",
        "cityName": "宍粟市",
        "streetName": "山崎町三谷９７番地の１２",
        "latitude": 35.00564129,
        "longitude": 134.54299681,
        "id": "9947e9c6-c1e5-4050-be94-3aace7890102"
    },
    {
        "name": "中山神社",
        "prefectureName": "兵庫県",
        "cityName": "豊岡市",
        "streetName": "加陽字太市山８１番地の１",
        "latitude": 35.5444916,
        "longitude": 134.8201815,
        "id": "24b909fb-0b5e-4ac8-a949-2398df332e8c"
    },
    {
        "name": "中嶋神社",
        "prefectureName": "兵庫県",
        "cityName": "豊岡市",
        "streetName": "三宅１番地",
        "latitude": 35.52569148,
        "longitude": 134.86250531,
        "id": "6658931a-f54a-4981-bd34-36d72765060a"
    },
    {
        "name": "中臣印達神社",
        "prefectureName": "兵庫県",
        "cityName": "たつの市",
        "streetName": "揖保町中臣字宮下１３６０番地",
        "latitude": 34.8578927,
        "longitude": 134.5453708,
        "id": "4820efa9-bc0e-48e0-9499-d03c6a8b84e7"
    },
    {
        "name": "丸山建神社",
        "prefectureName": "兵庫県",
        "cityName": "淡路市",
        "streetName": "興隆寺字丸山６２６番地",
        "latitude": 34.4397541,
        "longitude": 134.915054,
        "id": "4c66c02e-03af-472d-b30d-66bc36a3868f"
    },
    {
        "name": "丸山神社",
        "prefectureName": "兵庫県",
        "cityName": "丹波篠山市",
        "streetName": "福住字丸山２番地の１",
        "latitude": 35.0756937,
        "longitude": 135.219198,
        "id": "00587c24-3fdb-4468-9d82-132324821b74"
    },
    {
        "name": "丸越神社",
        "prefectureName": "兵庫県",
        "cityName": "加古川市",
        "streetName": "加古川町粟津字丸越２８４番地",
        "latitude": 34.7569499,
        "longitude": 134.8411773,
        "id": "df4e8bd9-d172-4428-93fa-2bf43169e56a"
    },
    {
        "name": "丹生神社",
        "prefectureName": "兵庫県",
        "cityName": "神戸市北区",
        "streetName": "山田町坂本字丹生山３８４番地",
        "latitude": 34.724067,
        "longitude": 135.1461811,
        "id": "bfe07c0c-426d-4ebf-956a-90c905609403"
    },
    {
        "name": "丹生神社",
        "prefectureName": "兵庫県",
        "cityName": "美方郡香美町",
        "streetName": "香住区浦上字川東１１８５番地の２",
        "latitude": 35.6321935,
        "longitude": 134.6293697,
        "id": "3ff6a1cd-13c7-40ee-802e-236383ea8534"
    },
    {
        "name": "丹生神社",
        "prefectureName": "兵庫県",
        "cityName": "神戸市灘区",
        "streetName": "高羽町４丁目２番２号",
        "latitude": 34.7223852,
        "longitude": 135.23857052,
        "id": "911924fe-0734-48e7-b58b-0fa6cc1569bb"
    },
    {
        "name": "久久比神社",
        "prefectureName": "兵庫県",
        "cityName": "豊岡市",
        "streetName": "下宮字谷口３１８番地の２",
        "latitude": 35.5444916,
        "longitude": 134.8201815,
        "id": "ba2251c0-15bc-4ff7-8cac-44c717c879af"
    },
    {
        "name": "久刀寸兵主神社",
        "prefectureName": "兵庫県",
        "cityName": "豊岡市",
        "streetName": "日高町久斗字クルビ４９１番地",
        "latitude": 35.49553725,
        "longitude": 134.7620994,
        "id": "f3c5eb65-71fd-47f7-9264-611ce41ed56a"
    },
    {
        "name": "久度神社",
        "prefectureName": "兵庫県",
        "cityName": "南あわじ市",
        "streetName": "神代國衙１４１７番地",
        "latitude": 34.2944793,
        "longitude": 134.779858,
        "id": "f7df19f6-3bf8-4a5e-9ff6-1e1999bc84c5"
    },
    {
        "name": "久流比神社",
        "prefectureName": "兵庫県",
        "cityName": "豊岡市",
        "streetName": "城崎町来日字口５８７番地の２",
        "latitude": 35.62486876,
        "longitude": 134.81266974,
        "id": "11b2a379-c706-441b-86bc-d9cc49cef6dc"
    },
    {
        "name": "久麻神社",
        "prefectureName": "兵庫県",
        "cityName": "豊岡市",
        "streetName": "福田字大門１９６番地",
        "latitude": 35.55340676,
        "longitude": 134.79891402,
        "id": "d0459f73-24f3-4d25-b921-c84641290778"
    },
    {
        "name": "乎疑原神社",
        "prefectureName": "兵庫県",
        "cityName": "加西市",
        "streetName": "繁昌町５２９番地",
        "latitude": 34.90426687,
        "longitude": 134.88255962,
        "id": "039f6d50-9483-483b-b8ef-9ba73d8d45da"
    },
    {
        "name": "乎疑原神社",
        "prefectureName": "兵庫県",
        "cityName": "加西市",
        "streetName": "豊倉町２０番地",
        "latitude": 34.90087006,
        "longitude": 134.8685332,
        "id": "0cc9a425-8d7a-4930-8701-6d92f1a98bba"
    },
    {
        "name": "乙屋神社",
        "prefectureName": "兵庫県",
        "cityName": "養父市",
        "streetName": "畑１５０８番地の３",
        "latitude": 35.34689133,
        "longitude": 134.78167348,
        "id": "3bd860ec-28b6-4b5a-869f-b2f0cd12f3cb"
    },
    {
        "name": "九所御霊天神社",
        "prefectureName": "兵庫県",
        "cityName": "姫路市",
        "streetName": "大善町７番地",
        "latitude": 34.8300752,
        "longitude": 134.70851888,
        "id": "26540442-76cc-47f2-8a5d-7d4bf6c636f3"
    },
    {
        "name": "九社神社",
        "prefectureName": "兵庫県",
        "cityName": "三木市",
        "streetName": "細川町西６４０番地",
        "latitude": 34.79691,
        "longitude": 134.9901854,
        "id": "8c3adb96-474f-4217-8bdd-0e898d082a43"
    },
    {
        "name": "九竜神社",
        "prefectureName": "兵庫県",
        "cityName": "豊岡市",
        "streetName": "栃江字宮ノ下５０２番地",
        "latitude": 35.5444916,
        "longitude": 134.8201815,
        "id": "33ec1a79-3e86-474b-8646-99c94c1cb529"
    },
    {
        "name": "九野木神社",
        "prefectureName": "兵庫県",
        "cityName": "豊岡市",
        "streetName": "日高町奈佐路字イセキ７４４番地",
        "latitude": 35.49553725,
        "longitude": 134.7620994,
        "id": "f2de207a-3e6d-4310-9a95-6f48fade2c40"
    },
    {
        "name": "九頭女神社",
        "prefectureName": "兵庫県",
        "cityName": "丹波篠山市",
        "streetName": "下筱見９１２番地",
        "latitude": 35.11827759,
        "longitude": 135.31355219,
        "id": "feaadca7-2b15-4315-9552-e984020d48ae"
    },
    {
        "name": "亀ノ森神社",
        "prefectureName": "兵庫県",
        "cityName": "南あわじ市",
        "streetName": "榎列小榎列５１９番地の１",
        "latitude": 34.2944793,
        "longitude": 134.779858,
        "id": "4662ae55-1f5e-40b6-bd23-a62e29926715"
    },
    {
        "name": "事代主淡島神社",
        "prefectureName": "兵庫県",
        "cityName": "洲本市",
        "streetName": "安乎町平安浦１９８７番地",
        "latitude": 34.39043145,
        "longitude": 134.89423476,
        "id": "ae41bb0d-39d3-4a60-92bc-05824a6d63a0"
    },
    {
        "name": "事代主神社",
        "prefectureName": "兵庫県",
        "cityName": "淡路市",
        "streetName": "富島１４４８番地",
        "latitude": 34.54644227,
        "longitude": 134.92926672,
        "id": "9b4f8140-9325-4ed4-bb87-2951b5d88f53"
    },
    {
        "name": "事代主神社",
        "prefectureName": "兵庫県",
        "cityName": "南あわじ市",
        "streetName": "松帆江尻５０２番地",
        "latitude": 34.2944793,
        "longitude": 134.779858,
        "id": "843cd794-76d2-44aa-a809-056d74af6ae8"
    },
    {
        "name": "事代主神社",
        "prefectureName": "兵庫県",
        "cityName": "淡路市",
        "streetName": "富島１０４５番地",
        "latitude": 34.54664776,
        "longitude": 134.9263392,
        "id": "4916a61f-7c66-48e5-bfc1-7abc4ddad7f6"
    },
    {
        "name": "事代主神社",
        "prefectureName": "兵庫県",
        "cityName": "南あわじ市",
        "streetName": "松帆慶野１０９１番地",
        "latitude": 34.34471457,
        "longitude": 134.73869921,
        "id": "14753e67-f2b7-4b80-aa1b-0e83a466ba17"
    },
    {
        "name": "事代主神社",
        "prefectureName": "兵庫県",
        "cityName": "淡路市",
        "streetName": "下田２１７番地",
        "latitude": 34.50917231,
        "longitude": 134.98100201,
        "id": "55694cdd-cde4-4fd6-8764-f4b6c8fe161b"
    },
    {
        "name": "事代主神社",
        "prefectureName": "兵庫県",
        "cityName": "南あわじ市",
        "streetName": "市市３７番地",
        "latitude": 34.29590101,
        "longitude": 134.76568147,
        "id": "df271033-8b59-432a-a51a-991d77569d22"
    },
    {
        "name": "事代主神社",
        "prefectureName": "兵庫県",
        "cityName": "淡路市",
        "streetName": "谷２４８番地",
        "latitude": 34.4397541,
        "longitude": 134.915054,
        "id": "4061f608-63b5-4ccc-bcad-eb4be59d93e1"
    },
    {
        "name": "事代主神社",
        "prefectureName": "兵庫県",
        "cityName": "洲本市",
        "streetName": "由良１丁目１２番２４号",
        "latitude": 34.28869091,
        "longitude": 134.94563841,
        "id": "7146b166-6281-4fc8-a7ff-9e883aacf63e"
    },
    {
        "name": "事代主神社",
        "prefectureName": "兵庫県",
        "cityName": "淡路市",
        "streetName": "仮屋字ヱビス２４０番地",
        "latitude": 34.4397541,
        "longitude": 134.915054,
        "id": "607458c1-251c-47da-b31c-2dc29bdbcb22"
    },
    {
        "name": "事代主神社",
        "prefectureName": "兵庫県",
        "cityName": "洲本市",
        "streetName": "海岸通２丁目７番２５号",
        "latitude": 34.34427017,
        "longitude": 134.89779936,
        "id": "d8d1c292-4e17-4ea9-974b-2eac863be8d2"
    },
    {
        "name": "事代主神社",
        "prefectureName": "兵庫県",
        "cityName": "淡路市",
        "streetName": "志筑３２５７番地",
        "latitude": 34.4397541,
        "longitude": 134.915054,
        "id": "84f3a92e-a9ca-446b-9c35-ad87603893d8"
    },
    {
        "name": "事代主神社",
        "prefectureName": "兵庫県",
        "cityName": "洲本市",
        "streetName": "五色町都志万歳４８９番地",
        "latitude": 34.35520038,
        "longitude": 134.79553587,
        "id": "e702abb2-95c2-4ca1-add1-4d5df7db4898"
    },
    {
        "name": "事比羅神社",
        "prefectureName": "兵庫県",
        "cityName": "淡路市",
        "streetName": "志筑２１５８番地",
        "latitude": 34.42437196,
        "longitude": 134.89196474,
        "id": "71de356c-ad28-444d-b90e-4886181f2aad"
    },
    {
        "name": "二ツ森神社",
        "prefectureName": "兵庫県",
        "cityName": "丹波市",
        "streetName": "山南町谷川字生田２００６番地",
        "latitude": 35.07759305,
        "longitude": 135.03608945,
        "id": "7b5077d2-4345-440e-9f44-bbe8e05fb74b"
    },
    {
        "name": "二ノ宮神社",
        "prefectureName": "兵庫県",
        "cityName": "養父市",
        "streetName": "大屋町大杉字奥山８６５番地",
        "latitude": 35.35336421,
        "longitude": 134.7019792,
        "id": "0d20adda-1396-47bd-b852-05d89225c1b9"
    },
    {
        "name": "二ノ宮神社",
        "prefectureName": "兵庫県",
        "cityName": "養父市",
        "streetName": "大屋町夏梅字栃尾前５０４番地",
        "latitude": 35.35336421,
        "longitude": 134.7019792,
        "id": "6b2b3252-dea0-4c63-bb91-e8942abadcc0"
    },
    {
        "name": "二ノ宮神社",
        "prefectureName": "兵庫県",
        "cityName": "姫路市",
        "streetName": "香寺町中仁野１４６番地の１",
        "latitude": 34.91272184,
        "longitude": 134.73743594,
        "id": "b393a48b-4a46-4679-97ee-ee8b6ac9af57"
    },
    {
        "name": "二ノ宮神社",
        "prefectureName": "兵庫県",
        "cityName": "丹波篠山市",
        "streetName": "大山新字川向イ筋坪８番地の４",
        "latitude": 35.0756937,
        "longitude": 135.219198,
        "id": "381a9c44-a67a-497a-8bbc-f26795bc85d1"
    },
    {
        "name": "二之宮神社",
        "prefectureName": "兵庫県",
        "cityName": "神崎郡福崎町",
        "streetName": "山崎１０１１番地",
        "latitude": 34.97044685,
        "longitude": 134.75622024,
        "id": "9372926f-015e-49e0-b82f-032dfd3b166c"
    },
    {
        "name": "二国神社",
        "prefectureName": "兵庫県",
        "cityName": "朝来市",
        "streetName": "山東町金浦３９０番地",
        "latitude": 35.3311316,
        "longitude": 134.92800477,
        "id": "4037f4bc-994e-49f0-a334-1df2a8239252"
    },
    {
        "name": "二宮神社",
        "prefectureName": "兵庫県",
        "cityName": "丹波市",
        "streetName": "氷上町市辺字山根１５５番地",
        "latitude": 35.17302525,
        "longitude": 135.04373889,
        "id": "d57ed929-d2e5-496e-b780-0ca09af3e438"
    },
    {
        "name": "二宮神社",
        "prefectureName": "兵庫県",
        "cityName": "宍粟市",
        "streetName": "千種町岩野辺１６４８番地",
        "latitude": 35.15762251,
        "longitude": 134.45712329,
        "id": "0b4de5e5-5f61-43f6-828b-80426432d8bb"
    },
    {
        "name": "二宮神社",
        "prefectureName": "兵庫県",
        "cityName": "朝来市",
        "streetName": "和田山町和田山４９３番地",
        "latitude": 35.33699864,
        "longitude": 134.8550862,
        "id": "026c0e90-6180-4aee-ad22-1916c9462891"
    },
    {
        "name": "二宮神社",
        "prefectureName": "兵庫県",
        "cityName": "豊岡市",
        "streetName": "但東町後１４９番地の１",
        "latitude": 35.41062626,
        "longitude": 135.00774617,
        "id": "0f94fe50-3adf-4a9e-9b31-42be9a964ebe"
    },
    {
        "name": "二宮神社",
        "prefectureName": "兵庫県",
        "cityName": "神戸市中央区",
        "streetName": "二宮町３丁目１番１２号",
        "latitude": 34.69874823,
        "longitude": 135.19671896,
        "id": "e493b3b5-02b5-4ed4-b59a-d5205ac8ff3a"
    },
    {
        "name": "二宮神社",
        "prefectureName": "兵庫県",
        "cityName": "丹波市",
        "streetName": "市島町下竹田２５９８番地",
        "latitude": 35.24635703,
        "longitude": 135.1554507,
        "id": "52f4b07b-0155-4195-9223-f5714c6ae6eb"
    },
    {
        "name": "二方神社",
        "prefectureName": "兵庫県",
        "cityName": "美方郡新温泉町",
        "streetName": "指杭字仲瀬８４５番地",
        "latitude": 35.6234999,
        "longitude": 134.4489467,
        "id": "b7384970-6cfd-4834-b5fa-77775fd310f6"
    },
    {
        "name": "二村神社",
        "prefectureName": "兵庫県",
        "cityName": "丹波篠山市",
        "streetName": "西吹字蔵ノ欠坪２４９番地",
        "latitude": 35.0756937,
        "longitude": 135.219198,
        "id": "3e0dd94d-58ae-4594-a980-e009b631b66c"
    },
    {
        "name": "二村神社",
        "prefectureName": "兵庫県",
        "cityName": "丹波篠山市",
        "streetName": "真南条中１４２番地の１",
        "latitude": 35.0756937,
        "longitude": 135.219198,
        "id": "3f727596-f75e-4cc4-888a-5c3031358ecc"
    },
    {
        "name": "二村神社",
        "prefectureName": "兵庫県",
        "cityName": "丹波篠山市",
        "streetName": "味間奥字松本２８０番地",
        "latitude": 35.0756937,
        "longitude": 135.219198,
        "id": "ce2a5585-d8b0-4911-8846-8664d177811a"
    },
    {
        "name": "二村神社",
        "prefectureName": "兵庫県",
        "cityName": "丹波篠山市",
        "streetName": "見内１番地の３",
        "latitude": 35.0756937,
        "longitude": 135.219198,
        "id": "40007fca-7997-4b83-80de-1f08901971a3"
    },
    {
        "name": "二柱神社",
        "prefectureName": "兵庫県",
        "cityName": "南あわじ市",
        "streetName": "灘惣川１２２番地",
        "latitude": 34.21844165,
        "longitude": 134.82399749,
        "id": "4590ddd0-2b25-4ff2-98cd-1bb0b56db567"
    },
    {
        "name": "二柱神社",
        "prefectureName": "兵庫県",
        "cityName": "美方郡香美町",
        "streetName": "村岡区村岡字若一王神６３番地の２",
        "latitude": 35.6321935,
        "longitude": 134.6293697,
        "id": "71e67dc5-2ef6-40df-a82c-dbe53a2c988d"
    },
    {
        "name": "二柱神社",
        "prefectureName": "兵庫県",
        "cityName": "美方郡新温泉町",
        "streetName": "井土字大野垣９３７番地",
        "latitude": 35.6234999,
        "longitude": 134.4489467,
        "id": "549bd0b9-0422-4db7-9b65-6d0ccf0a3683"
    },
    {
        "name": "二柱神社",
        "prefectureName": "兵庫県",
        "cityName": "美方郡新温泉町",
        "streetName": "越坂字宮ノ前２５７番地",
        "latitude": 35.6234999,
        "longitude": 134.4489467,
        "id": "ed735ae4-2169-4645-a610-c68f94e3c2d9"
    },
    {
        "name": "二森神社",
        "prefectureName": "兵庫県",
        "cityName": "丹波市",
        "streetName": "市島町喜多１７８５番地２",
        "latitude": 35.1958133,
        "longitude": 135.15656327,
        "id": "da916230-fa1a-47af-a122-d40751826bc2"
    },
    {
        "name": "二森神社",
        "prefectureName": "兵庫県",
        "cityName": "姫路市",
        "streetName": "豊富町御蔭１６０６番地",
        "latitude": 34.88533014,
        "longitude": 134.73459531,
        "id": "ab78fce5-41e8-4fe0-aeb2-54a279f85e27"
    },
    {
        "name": "二百余神社",
        "prefectureName": "兵庫県",
        "cityName": "姫路市",
        "streetName": "夢前町護持７１２番地",
        "latitude": 34.95622781,
        "longitude": 134.67911957,
        "id": "75a031d8-9186-426e-906d-d16b552842cb"
    },
    {
        "name": "二神社",
        "prefectureName": "兵庫県",
        "cityName": "姫路市",
        "streetName": "余部区下余部字村中５７２番地",
        "latitude": 34.8151488,
        "longitude": 134.6853548,
        "id": "d79f7fe0-1a93-4abb-beb4-5ecae6b2c893"
    },
    {
        "name": "五ノ宮神社",
        "prefectureName": "兵庫県",
        "cityName": "神戸市兵庫区",
        "streetName": "五宮町２２番１０号",
        "latitude": 34.69342353,
        "longitude": 135.1705851,
        "id": "ab799018-390e-4b66-ab2b-15bd0af06ecd"
    },
    {
        "name": "五世神社",
        "prefectureName": "兵庫県",
        "cityName": "たつの市",
        "streetName": "新宮町下笹字南山９２５番地",
        "latitude": 34.91876643,
        "longitude": 134.5482127,
        "id": "cd08b8ba-d04a-4d2e-959d-1f94f1910b26"
    },
    {
        "name": "五十鈴神社",
        "prefectureName": "兵庫県",
        "cityName": "美方郡新温泉町",
        "streetName": "用土字宮谷２番地",
        "latitude": 35.6234999,
        "longitude": 134.4489467,
        "id": "69f8e893-18e7-4a61-8793-7f40347b0c6d"
    },
    {
        "name": "五社八幡神社",
        "prefectureName": "兵庫県",
        "cityName": "神戸市北区",
        "streetName": "有野町有野字惣山３９８８番地の１",
        "latitude": 34.724067,
        "longitude": 135.1461811,
        "id": "3c83fa11-c408-4135-b85a-0695135806c0"
    },
    {
        "name": "五社八幡神社",
        "prefectureName": "兵庫県",
        "cityName": "赤穂郡上郡町",
        "streetName": "赤松２７１番地",
        "latitude": 34.91400866,
        "longitude": 134.35710728,
        "id": "ece3e852-9741-4305-b358-1c8067350371"
    },
    {
        "name": "五社大神社",
        "prefectureName": "兵庫県",
        "cityName": "加古郡稲美町",
        "streetName": "和田字東山４７１番地",
        "latitude": 34.7487621,
        "longitude": 134.9134817,
        "id": "aeca99c9-1388-46a7-bb0e-3f83e282ff5e"
    },
    {
        "name": "五社大神社",
        "prefectureName": "兵庫県",
        "cityName": "加古川市",
        "streetName": "平岡町新在家字明神２２９３番地",
        "latitude": 34.7569499,
        "longitude": 134.8411773,
        "id": "026d257e-e5ba-472e-8703-bce0a372ea2a"
    },
    {
        "name": "五社大神社",
        "prefectureName": "兵庫県",
        "cityName": "加古川市",
        "streetName": "平岡町土山字堂ノ後３４５番地",
        "latitude": 34.7569499,
        "longitude": 134.8411773,
        "id": "41e103d4-862b-4fc6-8d51-6ac4f80ef7db"
    },
    {
        "name": "五社大神社",
        "prefectureName": "兵庫県",
        "cityName": "加古川市",
        "streetName": "平岡町高畑字馬場田６８２番地",
        "latitude": 34.7569499,
        "longitude": 134.8411773,
        "id": "cd3a7002-64e1-4415-a93c-9619b939bdb8"
    },
    {
        "name": "五社大神社",
        "prefectureName": "兵庫県",
        "cityName": "加古川市",
        "streetName": "野口町北野字山ノ神１２８９番地の１０",
        "latitude": 34.7569499,
        "longitude": 134.8411773,
        "id": "3a489110-cc97-4d3f-9d50-e0b1a368d07c"
    },
    {
        "name": "五社大神社",
        "prefectureName": "兵庫県",
        "cityName": "神崎郡市川町",
        "streetName": "小畑２７６８番地",
        "latitude": 35.00133838,
        "longitude": 134.7889634,
        "id": "213c6ce3-c903-4058-a37e-0171a96da2d6"
    },
    {
        "name": "五社大神社",
        "prefectureName": "兵庫県",
        "cityName": "加古郡稲美町",
        "streetName": "中一色字鈍々岡９２番地",
        "latitude": 34.76296052,
        "longitude": 134.8844869,
        "id": "8f88199f-ae83-4009-be7a-6c34b43a05cb"
    },
    {
        "name": "五社神社",
        "prefectureName": "兵庫県",
        "cityName": "豊岡市",
        "streetName": "但東町相田６３４番地の１",
        "latitude": 35.45286542,
        "longitude": 134.96459051,
        "id": "264a2772-b398-47ed-b2ba-29f2c559b3a5"
    },
    {
        "name": "五社神社",
        "prefectureName": "兵庫県",
        "cityName": "多可郡多可町",
        "streetName": "加美区豊部１４１３番地",
        "latitude": 35.0502096,
        "longitude": 134.9232806,
        "id": "7e8c596f-8e3d-45b7-ad41-dfd2a8edd0bf"
    },
    {
        "name": "五社神社",
        "prefectureName": "兵庫県",
        "cityName": "神戸市須磨区",
        "streetName": "妙法寺字毘沙門山１２８７番地",
        "latitude": 34.6586353,
        "longitude": 135.1337028,
        "id": "eebe42e1-72f8-4992-ba33-c808cdecdf4e"
    },
    {
        "name": "五社神社",
        "prefectureName": "兵庫県",
        "cityName": "宍粟市",
        "streetName": "山崎町大沢９３６番地",
        "latitude": 35.00564129,
        "longitude": 134.54299681,
        "id": "e8fe81e6-88d8-43e8-953e-67d4ba30ddec"
    },
    {
        "name": "五社神社",
        "prefectureName": "兵庫県",
        "cityName": "養父市",
        "streetName": "八鹿町岩崎２７０番地１",
        "latitude": 35.42973508,
        "longitude": 134.81714566,
        "id": "606d14d5-775a-45fc-a2f1-f57ebefbbd68"
    },
    {
        "name": "五社神社",
        "prefectureName": "兵庫県",
        "cityName": "宍粟市",
        "streetName": "千種町黒土字城ケ乢８４４番地",
        "latitude": 35.0044194,
        "longitude": 134.5494685,
        "id": "6909958d-57a3-4748-8f3d-f75ff4009034"
    },
    {
        "name": "五社神社",
        "prefectureName": "兵庫県",
        "cityName": "淡路市",
        "streetName": "野島常盤４１２番地",
        "latitude": 34.4397541,
        "longitude": 134.915054,
        "id": "64845b5b-62a7-4531-a2ea-bd39a5dd8667"
    },
    {
        "name": "五社神社",
        "prefectureName": "兵庫県",
        "cityName": "加西市",
        "streetName": "大内町９７４番地",
        "latitude": 34.9593884,
        "longitude": 134.84061003,
        "id": "d1ed4ea5-d018-4877-bded-a885195e64f7"
    },
    {
        "name": "五霊神社",
        "prefectureName": "兵庫県",
        "cityName": "多可郡多可町",
        "streetName": "加美区岩座神５１番地",
        "latitude": 35.12556442,
        "longitude": 134.88819893,
        "id": "12e4031a-beea-4de9-9389-fcc9987d4bbe"
    },
    {
        "name": "五靈天神社",
        "prefectureName": "兵庫県",
        "cityName": "姫路市",
        "streetName": "花田町一本松字宮ノ前３９９番地",
        "latitude": 34.8151488,
        "longitude": 134.6853548,
        "id": "2ca968cc-866e-428e-8a3d-ec56be0223e6"
    },
    {
        "name": "井ノ大神社",
        "prefectureName": "兵庫県",
        "cityName": "加古川市",
        "streetName": "八幡町野村字与リ一８０３番地",
        "latitude": 34.7569499,
        "longitude": 134.8411773,
        "id": "3172ad0c-2127-44f4-bf2c-bd3a55c1436d"
    },
    {
        "name": "井ノ大神社",
        "prefectureName": "兵庫県",
        "cityName": "加古川市",
        "streetName": "八幡町下村字井ノ明神１６１９番地",
        "latitude": 34.7569499,
        "longitude": 134.8411773,
        "id": "172eb026-0826-47ed-81db-6e17d2b47b06"
    },
    {
        "name": "井上神社",
        "prefectureName": "兵庫県",
        "cityName": "養父市",
        "streetName": "吉井１６５６番地の１",
        "latitude": 35.36923891,
        "longitude": 134.63037924,
        "id": "e6c03ad5-1589-4d46-bdeb-6e26afb808a7"
    },
    {
        "name": "井田神社",
        "prefectureName": "兵庫県",
        "cityName": "豊岡市",
        "streetName": "日高町鶴岡字城山１２２番地",
        "latitude": 35.49553725,
        "longitude": 134.7620994,
        "id": "0d103f8c-ca39-4e73-88d3-21ed405ccef5"
    },
    {
        "name": "井關三神社",
        "prefectureName": "兵庫県",
        "cityName": "たつの市",
        "streetName": "揖西町中垣内甲７９９番地の１",
        "latitude": 34.87587936,
        "longitude": 134.52025343,
        "id": "346eeee4-9a2d-4ac7-9f7b-e32314c2b0fd"
    },
    {
        "name": "人麻呂神社",
        "prefectureName": "兵庫県",
        "cityName": "高砂市",
        "streetName": "伊保町今市字西所３６７番地",
        "latitude": 34.7662043,
        "longitude": 134.7904408,
        "id": "f3ed8784-e9d8-4ff0-85bd-7fa965894317"
    },
    {
        "name": "今宮神社",
        "prefectureName": "兵庫県",
        "cityName": "淡路市",
        "streetName": "仮屋４１７番地",
        "latitude": 34.51490226,
        "longitude": 134.98557925,
        "id": "208fcf9a-be31-429f-93a5-7b2bf7bf0ecf"
    },
    {
        "name": "伊久刀神社",
        "prefectureName": "兵庫県",
        "cityName": "豊岡市",
        "streetName": "日高町赤崎４３８番地",
        "latitude": 35.44821553,
        "longitude": 134.78005722,
        "id": "664b6114-6d1e-4a14-b675-94fcdc540afa"
    },
    {
        "name": "伊伎佐神社",
        "prefectureName": "兵庫県",
        "cityName": "美方郡香美町",
        "streetName": "香住区余部字宮ノ内２７４６番地の２",
        "latitude": 35.6321935,
        "longitude": 134.6293697,
        "id": "b9010c2c-91e2-4049-9b74-84507f09a6b9"
    },
    {
        "name": "伊佐具神社",
        "prefectureName": "兵庫県",
        "cityName": "尼崎市",
        "streetName": "上坂部３丁目２５番１８号",
        "latitude": 34.74866005,
        "longitude": 135.43174482,
        "id": "f4f3a8a2-925e-478a-81a8-3af4f9733a2a"
    },
    {
        "name": "伊佐間神社",
        "prefectureName": "兵庫県",
        "cityName": "姫路市",
        "streetName": "飾東町豊国字居垣内３７０番地",
        "latitude": 34.8151488,
        "longitude": 134.6853548,
        "id": "2b2fe22e-0c52-45ea-ad77-5ed40b97e52b"
    },
    {
        "name": "伊勢久留麻神社",
        "prefectureName": "兵庫県",
        "cityName": "淡路市",
        "streetName": "久留麻字神田２０３３番地",
        "latitude": 34.4397541,
        "longitude": 134.915054,
        "id": "98fe4ba3-64f4-4419-b8fe-ed642ce8ffa1"
    },
    {
        "name": "伊勢宮神社",
        "prefectureName": "兵庫県",
        "cityName": "淡路市",
        "streetName": "野田尾１４６９番地の１",
        "latitude": 34.4397541,
        "longitude": 134.915054,
        "id": "6c9b6d83-f241-4c4d-852d-544a5047a7c9"
    },
    {
        "name": "伊勢神社",
        "prefectureName": "兵庫県",
        "cityName": "淡路市",
        "streetName": "池ノ内５２８番地",
        "latitude": 34.45839032,
        "longitude": 134.8855394,
        "id": "9aceb682-70ff-4177-8148-6e61dce0983e"
    },
    {
        "name": "伊勢神社",
        "prefectureName": "兵庫県",
        "cityName": "南あわじ市",
        "streetName": "北阿万新田中２３２番地",
        "latitude": 34.2474674,
        "longitude": 134.7533394,
        "id": "0aea5131-d82a-4d24-9c8d-e356e41ec8e9"
    },
    {
        "name": "伊勢神社",
        "prefectureName": "兵庫県",
        "cityName": "南あわじ市",
        "streetName": "志知難波４４９番地",
        "latitude": 34.29486748,
        "longitude": 134.74743584,
        "id": "bc831497-aff4-4826-8227-6ba07dd0dabb"
    },
    {
        "name": "伊勢神社",
        "prefectureName": "兵庫県",
        "cityName": "南あわじ市",
        "streetName": "志知松本２８１番地",
        "latitude": 34.30094179,
        "longitude": 134.74737183,
        "id": "7b5d49bf-f1cd-456d-87b3-7fab71d868ce"
    },
    {
        "name": "伊勢神社",
        "prefectureName": "兵庫県",
        "cityName": "洲本市",
        "streetName": "上物部２丁目７番２号",
        "latitude": 34.33555142,
        "longitude": 134.88638112,
        "id": "a771f144-b4a0-4778-b483-5324d7efe5f6"
    },
    {
        "name": "伊勢神社",
        "prefectureName": "兵庫県",
        "cityName": "淡路市",
        "streetName": "富島１１９８番地",
        "latitude": 34.54692276,
        "longitude": 134.92836123,
        "id": "aa27e9a6-9dc5-4bc9-a985-d600464c0d2c"
    },
    {
        "name": "伊勢神社",
        "prefectureName": "兵庫県",
        "cityName": "淡路市",
        "streetName": "中田１４０２番地の１",
        "latitude": 34.43653707,
        "longitude": 134.88160142,
        "id": "780f00b1-5a24-4c5b-9db1-2d95d9529ba5"
    },
    {
        "name": "伊和志津神社",
        "prefectureName": "兵庫県",
        "cityName": "宝塚市",
        "streetName": "伊孑志１丁目４番３号",
        "latitude": 34.80010297,
        "longitude": 135.35296747,
        "id": "681e3958-59e2-4d84-8549-77b30300b56f"
    },
    {
        "name": "伊和神社",
        "prefectureName": "兵庫県",
        "cityName": "宍粟市",
        "streetName": "一宮町須行名４０７番地",
        "latitude": 35.08755985,
        "longitude": 134.58647145,
        "id": "e16fe191-d073-4d90-a448-f95573c8fb9f"
    },
    {
        "name": "伊和神社",
        "prefectureName": "兵庫県",
        "cityName": "加古川市",
        "streetName": "野口町北野字条ヶ市５４３番地",
        "latitude": 34.7569499,
        "longitude": 134.8411773,
        "id": "b8ba30fd-eb0d-4f8f-9e21-0ce307b2c55f"
    },
    {
        "name": "伊和神社",
        "prefectureName": "兵庫県",
        "cityName": "たつの市",
        "streetName": "御津町碇岩４１５番地",
        "latitude": 34.79640304,
        "longitude": 134.5456691,
        "id": "6bfd348a-8785-44ea-8adc-d11e8c7f96ff"
    },
    {
        "name": "伊和都比売神社",
        "prefectureName": "兵庫県",
        "cityName": "赤穂市",
        "streetName": "御崎字三崎山１番地",
        "latitude": 34.7549561,
        "longitude": 134.3902837,
        "id": "4e2e7fa8-d105-4432-bcbf-df429a33fc22"
    },
    {
        "name": "伊垣神社",
        "prefectureName": "兵庫県",
        "cityName": "相生市",
        "streetName": "矢野町中野９９番地",
        "latitude": 34.87805886,
        "longitude": 134.46301264,
        "id": "ba6385ca-b4e3-4c17-b702-a3641230bc26"
    },
    {
        "name": "伊尼神社",
        "prefectureName": "兵庫県",
        "cityName": "丹波市",
        "streetName": "氷上町新郷字山添１８６０番地",
        "latitude": 35.17302525,
        "longitude": 135.04373889,
        "id": "e6a3b4a5-ab34-4bec-8f70-00e0bbd13c95"
    },
    {
        "name": "伊居太神社",
        "prefectureName": "兵庫県",
        "cityName": "尼崎市",
        "streetName": "下坂部４丁目１３番２６号",
        "latitude": 34.74727969,
        "longitude": 135.43379195,
        "id": "f319be97-409b-4c81-9be9-9d3b08618ce9"
    },
    {
        "name": "伊智神社",
        "prefectureName": "兵庫県",
        "cityName": "豊岡市",
        "streetName": "日高町府市場字楮根９３５番地",
        "latitude": 35.49553725,
        "longitude": 134.7620994,
        "id": "089b85da-cbd1-451f-a280-e536880221b3"
    },
    {
        "name": "伊曽布神社",
        "prefectureName": "兵庫県",
        "cityName": "美方郡香美町",
        "streetName": "村岡区味取字神町８８０番地の２",
        "latitude": 35.6321935,
        "longitude": 134.6293697,
        "id": "aa775989-9982-48c3-b9d2-0fb65ccda047"
    },
    {
        "name": "伊由神社",
        "prefectureName": "兵庫県",
        "cityName": "朝来市",
        "streetName": "伊由市場字谷口２４３ノ１番地",
        "latitude": 35.3396567,
        "longitude": 134.8531613,
        "id": "98ec49f8-a288-4662-8900-30474e2bdd03"
    },
    {
        "name": "伊福部神社",
        "prefectureName": "兵庫県",
        "cityName": "豊岡市",
        "streetName": "出石町中村８０９番地",
        "latitude": 35.45062773,
        "longitude": 134.86235446,
        "id": "5bee5a7d-71b1-410a-9619-c3e9565b9964"
    },
    {
        "name": "伊邪那岐神社",
        "prefectureName": "兵庫県",
        "cityName": "尼崎市",
        "streetName": "次屋１丁目１番６号",
        "latitude": 34.73524505,
        "longitude": 135.43907536,
        "id": "b45ff8da-f6f6-4231-8d6d-6b88b84823fb"
    },
    {
        "name": "伊都伎神社",
        "prefectureName": "兵庫県",
        "cityName": "丹波市",
        "streetName": "市島町中竹田１６５９番地の１",
        "latitude": 35.24603194,
        "longitude": 135.13894937,
        "id": "5a757a82-b3dd-4fbf-a8d1-155b960a60ca"
    },
    {
        "name": "伊都伎神社",
        "prefectureName": "兵庫県",
        "cityName": "丹波市",
        "streetName": "山南町梶１６４７番地の１",
        "latitude": 35.08532434,
        "longitude": 134.98826292,
        "id": "e604d867-c0bb-4eb9-a551-1e37c4f34233"
    },
    {
        "name": "伊都岐嶋神社",
        "prefectureName": "兵庫県",
        "cityName": "揖保郡太子町",
        "streetName": "山田１７１番地",
        "latitude": 34.8358124,
        "longitude": 134.62279076,
        "id": "174cd6ea-ab59-44c0-acd1-4023946d40a0"
    },
    {
        "name": "伊＿冊神社",
        "prefectureName": "兵庫県",
        "cityName": "明石市",
        "streetName": "岬町１９番８号",
        "latitude": 34.64345381,
        "longitude": 134.98309629,
        "id": "ed8ba142-9a58-43a4-b7df-b4c1f7f596f8"
    },
    {
        "name": "伊＿諾神社",
        "prefectureName": "兵庫県",
        "cityName": "明石市",
        "streetName": "大観町１６番１５号",
        "latitude": 34.643057,
        "longitude": 134.9975619,
        "id": "21788bb4-a256-49ec-bd91-47f47977af28"
    },
    {
        "name": "位守神社",
        "prefectureName": "兵庫県",
        "cityName": "佐用郡佐用町",
        "streetName": "中島上那手９７２番地の２",
        "latitude": 35.0043456,
        "longitude": 134.3557342,
        "id": "351d3969-b84a-47fa-8508-95d7dd5df68c"
    },
    {
        "name": "位尾神社",
        "prefectureName": "兵庫県",
        "cityName": "宍粟市",
        "streetName": "山崎町小茅野４７７番地",
        "latitude": 35.00564129,
        "longitude": 134.54299681,
        "id": "6344ec95-4925-44e0-b74c-ecbfd959dfe1"
    },
    {
        "name": "住吉神社",
        "prefectureName": "兵庫県",
        "cityName": "神戸市灘区",
        "streetName": "大石南町１丁目１２０番地",
        "latitude": 34.7123391,
        "longitude": 135.2396652,
        "id": "db452df1-58b4-422e-b6ca-f2b3051a7632"
    },
    {
        "name": "住吉神社",
        "prefectureName": "兵庫県",
        "cityName": "神戸市長田区",
        "streetName": "西尻池町２丁目５番地の１",
        "latitude": 34.65901607,
        "longitude": 135.15122068,
        "id": "4ae95a62-46bd-434e-a083-a5080c8239d1"
    },
    {
        "name": "住吉神社",
        "prefectureName": "兵庫県",
        "cityName": "明石市",
        "streetName": "魚住町長坂寺５４４番地",
        "latitude": 34.643057,
        "longitude": 134.9975619,
        "id": "744082f0-e4be-4e68-9957-ec530b5d79fa"
    },
    {
        "name": "住吉神社",
        "prefectureName": "兵庫県",
        "cityName": "明石市",
        "streetName": "大久保町江井島３１８番地",
        "latitude": 34.67592817,
        "longitude": 134.91486865,
        "id": "b6a439e9-56c8-42ec-ab76-273d0efa558b"
    },
    {
        "name": "住吉神社",
        "prefectureName": "兵庫県",
        "cityName": "三木市",
        "streetName": "細川町垂穂１６９番地",
        "latitude": 34.82894598,
        "longitude": 135.04456883,
        "id": "0bc036a3-e648-4bb5-a603-e9dff2a861db"
    },
    {
        "name": "住吉神社",
        "prefectureName": "兵庫県",
        "cityName": "丹波篠山市",
        "streetName": "今田町市原３番地",
        "latitude": 35.0756937,
        "longitude": 135.219198,
        "id": "8c47714e-50c2-4fb9-985c-de0dd22208c0"
    },
    {
        "name": "住吉神社",
        "prefectureName": "兵庫県",
        "cityName": "加古川市",
        "streetName": "野口町坂井字村の南３０番地",
        "latitude": 34.74045437,
        "longitude": 134.84822097,
        "id": "a5bdd132-c2e6-4d47-831a-dfdacfb32df6"
    },
    {
        "name": "住吉神社",
        "prefectureName": "兵庫県",
        "cityName": "加古川市",
        "streetName": "平岡町一色東３丁目５５６番地の１",
        "latitude": 34.73550768,
        "longitude": 134.85677559,
        "id": "c68087a9-2c01-44bc-8f41-b1b4af931d3e"
    },
    {
        "name": "住吉神社",
        "prefectureName": "兵庫県",
        "cityName": "姫路市",
        "streetName": "的形町的形字礒１９２３番地",
        "latitude": 34.8151488,
        "longitude": 134.6853548,
        "id": "4d77b03e-9e4b-4be4-8d9a-5bdebff7179e"
    },
    {
        "name": "住吉神社",
        "prefectureName": "兵庫県",
        "cityName": "加東市",
        "streetName": "馬瀬５６６番地",
        "latitude": 34.95630073,
        "longitude": 135.02835009,
        "id": "dcb9b117-5adb-487f-9484-37591832c6e3"
    },
    {
        "name": "住吉神社",
        "prefectureName": "兵庫県",
        "cityName": "加東市",
        "streetName": "下鴨川２１４番地の２",
        "latitude": 34.95952627,
        "longitude": 135.06409207,
        "id": "2555c45f-5a90-493c-a885-fa8161cbdefa"
    },
    {
        "name": "住吉神社",
        "prefectureName": "兵庫県",
        "cityName": "西脇市",
        "streetName": "住吉町８４６番地",
        "latitude": 35.03833882,
        "longitude": 135.07532274,
        "id": "9ad70d33-613b-407f-96a7-6e33a22bcb31"
    },
    {
        "name": "住吉神社",
        "prefectureName": "兵庫県",
        "cityName": "小野市",
        "streetName": "山田町字橋形１１０２番地",
        "latitude": 34.83814995,
        "longitude": 134.95682698,
        "id": "440d0ce2-33b2-4a59-90e9-371d0acdf219"
    },
    {
        "name": "住吉神社",
        "prefectureName": "兵庫県",
        "cityName": "洲本市",
        "streetName": "相川組３９７番地",
        "latitude": 34.25746285,
        "longitude": 134.89676,
        "id": "603804ef-cf24-4368-86fd-82cf59d347e1"
    },
    {
        "name": "住吉神社",
        "prefectureName": "兵庫県",
        "cityName": "淡路市",
        "streetName": "富島１９３９番地",
        "latitude": 34.4397541,
        "longitude": 134.915054,
        "id": "33c7a7be-80c0-47f9-bd71-2cc7e02a4b75"
    },
    {
        "name": "住吉神社",
        "prefectureName": "兵庫県",
        "cityName": "明石市",
        "streetName": "魚住町金ケ崎９２８番地",
        "latitude": 34.68286083,
        "longitude": 134.91934315,
        "id": "9ce107ec-25c4-416d-a1f0-b141a570719d"
    },
    {
        "name": "住吉神社",
        "prefectureName": "兵庫県",
        "cityName": "明石市",
        "streetName": "大久保町江井島５９０番地",
        "latitude": 34.643057,
        "longitude": 134.9975619,
        "id": "1dc7265c-d5b9-40de-bdce-6db2ce4dd111"
    },
    {
        "name": "住吉神社",
        "prefectureName": "兵庫県",
        "cityName": "相生市",
        "streetName": "那波大浜町２５番１１号",
        "latitude": 34.80782183,
        "longitude": 134.46686062,
        "id": "497850b6-37e8-4c60-8f74-faab8a783597"
    },
    {
        "name": "住吉神社",
        "prefectureName": "兵庫県",
        "cityName": "丹波篠山市",
        "streetName": "川原字木ノ下２７０番地",
        "latitude": 35.0756937,
        "longitude": 135.219198,
        "id": "5e0db680-6447-4927-a95a-335082ac09f7"
    },
    {
        "name": "住吉神社",
        "prefectureName": "兵庫県",
        "cityName": "加古郡播磨町",
        "streetName": "二子字立辻１番地",
        "latitude": 34.715221,
        "longitude": 134.8678057,
        "id": "a02bb549-ac5c-4452-bd42-00d1f22b1bfb"
    },
    {
        "name": "住吉神社",
        "prefectureName": "兵庫県",
        "cityName": "加古川市",
        "streetName": "平岡町二俣９０６番地",
        "latitude": 34.73872409,
        "longitude": 134.86854118,
        "id": "4bdaf3b4-93f9-4b56-b42d-b5908c3d1bc1"
    },
    {
        "name": "住吉神社",
        "prefectureName": "兵庫県",
        "cityName": "養父市",
        "streetName": "八鹿町石原１１０３番地の１",
        "latitude": 35.41161893,
        "longitude": 134.7018093,
        "id": "9485b1dc-bc09-4543-a684-59ac245aec47"
    },
    {
        "name": "住吉神社",
        "prefectureName": "兵庫県",
        "cityName": "尼崎市",
        "streetName": "梶ケ島１５番１号",
        "latitude": 34.71752767,
        "longitude": 135.44132285,
        "id": "344177e1-3e56-416b-92aa-bc948a27236e"
    },
    {
        "name": "住吉神社",
        "prefectureName": "兵庫県",
        "cityName": "姫路市",
        "streetName": "継字住吉山６８６番地",
        "latitude": 34.8151488,
        "longitude": 134.6853548,
        "id": "7d400aea-6efb-4be9-83bf-fdf7ddc1c02c"
    },
    {
        "name": "住吉神社",
        "prefectureName": "兵庫県",
        "cityName": "加東市",
        "streetName": "河高２４８０番地",
        "latitude": 34.92011385,
        "longitude": 134.93792685,
        "id": "51fb31cf-b82e-4f91-bb4f-48c0ba6481b2"
    },
    {
        "name": "住吉神社",
        "prefectureName": "兵庫県",
        "cityName": "加東市",
        "streetName": "上鴨川５７１番地",
        "latitude": 34.9667645,
        "longitude": 135.05964776,
        "id": "96c65b68-f98d-4631-9be3-075a7f91806d"
    },
    {
        "name": "住吉神社",
        "prefectureName": "兵庫県",
        "cityName": "小野市",
        "streetName": "復井町１７２６番地",
        "latitude": 34.8531287,
        "longitude": 134.9315234,
        "id": "d2628d44-c4de-44b8-a94c-af58a47ec179"
    },
    {
        "name": "住吉神社",
        "prefectureName": "兵庫県",
        "cityName": "明石市",
        "streetName": "大久保町福田１７１番地",
        "latitude": 34.643057,
        "longitude": 134.9975619,
        "id": "4bf12278-4f09-43af-ba57-84880798118c"
    },
    {
        "name": "住吉神社",
        "prefectureName": "兵庫県",
        "cityName": "明石市",
        "streetName": "魚住町中尾字社山１０３１番地",
        "latitude": 34.643057,
        "longitude": 134.9975619,
        "id": "e380ce41-ac5a-4c1a-b507-67522b946a63"
    },
    {
        "name": "住吉神社",
        "prefectureName": "兵庫県",
        "cityName": "三木市",
        "streetName": "志染町広野５丁目１８０番地",
        "latitude": 34.77379006,
        "longitude": 135.01971064,
        "id": "73d857f4-6f86-478c-8619-e9031d33e69f"
    },
    {
        "name": "住吉神社",
        "prefectureName": "兵庫県",
        "cityName": "宍粟市",
        "streetName": "山崎町上牧谷３５１番地",
        "latitude": 35.04181334,
        "longitude": 134.50601373,
        "id": "a2fda544-c841-4444-b37a-95bf4a004e44"
    },
    {
        "name": "住吉神社",
        "prefectureName": "兵庫県",
        "cityName": "丹波篠山市",
        "streetName": "今田町上立杭字宮ノ坪１６２番地",
        "latitude": 35.0756937,
        "longitude": 135.219198,
        "id": "e62cc642-f9c2-4c41-a9a4-8f7e682e618b"
    },
    {
        "name": "住吉神社",
        "prefectureName": "兵庫県",
        "cityName": "加古郡播磨町",
        "streetName": "古宮７丁目３番１８号",
        "latitude": 34.715221,
        "longitude": 134.8678057,
        "id": "cb46901b-85cd-46cd-b88f-69ea5dc8d3df"
    },
    {
        "name": "住吉神社",
        "prefectureName": "兵庫県",
        "cityName": "養父市",
        "streetName": "八鹿町高柳４４６番地の１",
        "latitude": 35.39485167,
        "longitude": 134.74284786,
        "id": "ff97b1ba-2fff-40f1-a102-4818ceb645a0"
    },
    {
        "name": "住吉神社",
        "prefectureName": "兵庫県",
        "cityName": "加東市",
        "streetName": "畑３６０番地",
        "latitude": 34.93573918,
        "longitude": 135.0511909,
        "id": "52eceede-223d-4f64-9f45-019b1c7ae3b7"
    },
    {
        "name": "住吉神社",
        "prefectureName": "兵庫県",
        "cityName": "加西市",
        "streetName": "網引町１８３４番地",
        "latitude": 34.8489959,
        "longitude": 134.88196708,
        "id": "355a841a-c7aa-426e-a246-44c859803d48"
    },
    {
        "name": "住吉神社",
        "prefectureName": "兵庫県",
        "cityName": "宝塚市",
        "streetName": "安倉中２丁目１０番１０号",
        "latitude": 34.79994223,
        "longitude": 135.37169656,
        "id": "3ea29e07-99dc-4529-8f1c-b8e8ad314eb4"
    },
    {
        "name": "住吉神社",
        "prefectureName": "兵庫県",
        "cityName": "淡路市",
        "streetName": "塩尾字明神２１５番地",
        "latitude": 34.4397541,
        "longitude": 134.915054,
        "id": "47c48421-d70d-454b-acf0-e8c2ded1f486"
    },
    {
        "name": "住吉神社",
        "prefectureName": "兵庫県",
        "cityName": "南あわじ市",
        "streetName": "灘山本４９３番地",
        "latitude": 34.21426973,
        "longitude": 134.81504284,
        "id": "d66942c2-d38a-4c57-a8e2-caf3e9ea7c27"
    },
    {
        "name": "住吉神社",
        "prefectureName": "兵庫県",
        "cityName": "明石市",
        "streetName": "大久保町大久保町９１０番地の２",
        "latitude": 34.67623677,
        "longitude": 134.94654335,
        "id": "06df9045-26dc-4ece-a67d-add836601e2f"
    },
    {
        "name": "住吉神社",
        "prefectureName": "兵庫県",
        "cityName": "丹波篠山市",
        "streetName": "今田町木津字古寺垣内１０８番地",
        "latitude": 35.0756937,
        "longitude": 135.219198,
        "id": "c7978967-d615-4391-b1ac-aa6e3502db9d"
    },
    {
        "name": "住吉神社",
        "prefectureName": "兵庫県",
        "cityName": "加古郡播磨町",
        "streetName": "北野添３丁目１番３５号",
        "latitude": 34.72154823,
        "longitude": 134.88279868,
        "id": "2241cc1a-fca8-40d0-8009-05ede50a9f38"
    },
    {
        "name": "住吉神社",
        "prefectureName": "兵庫県",
        "cityName": "高砂市",
        "streetName": "伊保町梅井字中川５９４番地",
        "latitude": 34.7662043,
        "longitude": 134.7904408,
        "id": "df120118-ad5c-45ef-9ba0-e237760d7827"
    },
    {
        "name": "住吉神社",
        "prefectureName": "兵庫県",
        "cityName": "養父市",
        "streetName": "八鹿町小佐７５２番地",
        "latitude": 35.41420494,
        "longitude": 134.73130951,
        "id": "ccd61f14-f632-4698-8d26-a3c25ec8ef5b"
    },
    {
        "name": "住吉神社",
        "prefectureName": "兵庫県",
        "cityName": "姫路市",
        "streetName": "御立中５丁目１０番３０号",
        "latitude": 34.86890079,
        "longitude": 134.66794118,
        "id": "729c2e78-89d2-49f7-8032-900243ab2cc3"
    },
    {
        "name": "住吉神社",
        "prefectureName": "兵庫県",
        "cityName": "三田市",
        "streetName": "大川瀬１６４４番地",
        "latitude": 34.94044188,
        "longitude": 135.11664741,
        "id": "5e87aef8-b2b9-424c-8b35-5acbf0352950"
    },
    {
        "name": "住吉神社",
        "prefectureName": "兵庫県",
        "cityName": "加東市",
        "streetName": "下久米６７番地",
        "latitude": 34.92166779,
        "longitude": 135.01889081,
        "id": "93e5a0db-d0d5-4c21-b168-a11858ba61ae"
    },
    {
        "name": "住吉神社",
        "prefectureName": "兵庫県",
        "cityName": "加西市",
        "streetName": "上宮木町４５番地",
        "latitude": 34.9279359,
        "longitude": 134.8416245,
        "id": "609a3f79-f094-4cf8-b8be-7d06c854352e"
    },
    {
        "name": "住吉神社",
        "prefectureName": "兵庫県",
        "cityName": "洲本市",
        "streetName": "小路谷字古茂江１９４番地",
        "latitude": 34.3428731,
        "longitude": 134.8953663,
        "id": "bdc4f519-752d-4571-a74c-1c4ae7870cdf"
    },
    {
        "name": "住吉神社",
        "prefectureName": "兵庫県",
        "cityName": "淡路市",
        "streetName": "生穂１５１３番地",
        "latitude": 34.44805045,
        "longitude": 134.91938953,
        "id": "0786daeb-2994-480a-b6e9-84428e61469b"
    },
    {
        "name": "住吉神社",
        "prefectureName": "兵庫県",
        "cityName": "南あわじ市",
        "streetName": "賀集八幡１５９番地",
        "latitude": 34.26991198,
        "longitude": 134.74734202,
        "id": "31ae2ab2-3610-4875-8f13-36c419594bd8"
    },
    {
        "name": "住吉神社",
        "prefectureName": "兵庫県",
        "cityName": "神戸市西区",
        "streetName": "平野町中津１３１７番地",
        "latitude": 34.70046468,
        "longitude": 134.96996895,
        "id": "956fbf93-7ef8-46f5-8f28-c81e46b30fbf"
    },
    {
        "name": "住吉神社",
        "prefectureName": "兵庫県",
        "cityName": "丹波篠山市",
        "streetName": "今田町本荘字庄中８８８番地",
        "latitude": 35.0756937,
        "longitude": 135.219198,
        "id": "3b24dd61-06ca-44da-b032-2a0541915117"
    },
    {
        "name": "住吉神社",
        "prefectureName": "兵庫県",
        "cityName": "加古川市",
        "streetName": "野口町坂元字屋敷５６７番地",
        "latitude": 34.7569499,
        "longitude": 134.8411773,
        "id": "1a44f08d-fe62-402c-a62d-c956b3980532"
    },
    {
        "name": "住吉神社",
        "prefectureName": "兵庫県",
        "cityName": "加古川市",
        "streetName": "野口町二屋字山北１３５番地",
        "latitude": 34.7569499,
        "longitude": 134.8411773,
        "id": "3c068901-2e13-4708-add6-1de9d04985ca"
    },
    {
        "name": "住吉神社",
        "prefectureName": "兵庫県",
        "cityName": "加東市",
        "streetName": "久米５３６番地",
        "latitude": 34.91592648,
        "longitude": 135.00364237,
        "id": "5d137400-a878-4173-9c85-abf14be8bdde"
    },
    {
        "name": "住吉神社",
        "prefectureName": "兵庫県",
        "cityName": "西脇市",
        "streetName": "黒田庄町門柳字大林２８７番地",
        "latitude": 35.05242466,
        "longitude": 134.9971459,
        "id": "ec776568-9386-4136-b031-a0e5074fd68d"
    },
    {
        "name": "住吉神社",
        "prefectureName": "兵庫県",
        "cityName": "加西市",
        "streetName": "北条町北条１３１８番地",
        "latitude": 34.93572355,
        "longitude": 134.82885866,
        "id": "d3a5c2af-2f1a-4744-bed7-8adcfa7b6a74"
    },
    {
        "name": "住吉神社",
        "prefectureName": "兵庫県",
        "cityName": "洲本市",
        "streetName": "五色町都志２８８番地",
        "latitude": 34.41591302,
        "longitude": 134.7830379,
        "id": "40bc4c3d-20b5-40e9-898e-a3485afaa39a"
    },
    {
        "name": "住吉神社",
        "prefectureName": "兵庫県",
        "cityName": "南あわじ市",
        "streetName": "榎列西組１５０番地",
        "latitude": 34.2944793,
        "longitude": 134.779858,
        "id": "797679ec-6555-4e7a-9b87-9cffac4bafb4"
    },
    {
        "name": "住吉神社",
        "prefectureName": "兵庫県",
        "cityName": "神戸市西区",
        "streetName": "押部谷町細田３０２番地",
        "latitude": 34.74726518,
        "longitude": 135.01618358,
        "id": "2db7b935-e957-4780-96a1-920c506ed879"
    },
    {
        "name": "住吉神社",
        "prefectureName": "兵庫県",
        "cityName": "丹波篠山市",
        "streetName": "今田町黒石字二ノ坪５６６番地の２",
        "latitude": 35.0756937,
        "longitude": 135.219198,
        "id": "8625c9e9-4122-4448-842d-502d48d7cefc"
    },
    {
        "name": "住吉神社",
        "prefectureName": "兵庫県",
        "cityName": "丹波篠山市",
        "streetName": "本明谷字白壁４０番地",
        "latitude": 35.0756937,
        "longitude": 135.219198,
        "id": "81d7c689-3336-421c-99e5-7d6cdc123e91"
    },
    {
        "name": "住吉神社",
        "prefectureName": "兵庫県",
        "cityName": "加古郡播磨町",
        "streetName": "大中１丁目３番３４号",
        "latitude": 34.72474229,
        "longitude": 134.87697132,
        "id": "d55ac718-1697-47b9-a809-92f649a623c1"
    },
    {
        "name": "住吉神社",
        "prefectureName": "兵庫県",
        "cityName": "高砂市",
        "streetName": "今市１丁目３６５番地",
        "latitude": 34.76767918,
        "longitude": 134.7912323,
        "id": "fdf65323-3c60-4898-b66d-be5c387a0cd7"
    },
    {
        "name": "住吉神社",
        "prefectureName": "兵庫県",
        "cityName": "加東市",
        "streetName": "池之内４６５番地",
        "latitude": 34.92382061,
        "longitude": 135.04900208,
        "id": "c57b5ca8-fd53-4e49-8e27-0ec746bc934a"
    },
    {
        "name": "住吉神社",
        "prefectureName": "兵庫県",
        "cityName": "西脇市",
        "streetName": "水尾町１３、１４、１５合併番地",
        "latitude": 34.97204184,
        "longitude": 134.91331397,
        "id": "e2897165-3f9a-453a-b3e8-331592f7b94f"
    },
    {
        "name": "住吉神社",
        "prefectureName": "兵庫県",
        "cityName": "小野市",
        "streetName": "久保木町９７８番地",
        "latitude": 34.88280635,
        "longitude": 134.95619876,
        "id": "3f14e05a-1794-4970-923a-619ff176790c"
    },
    {
        "name": "住吉神社",
        "prefectureName": "兵庫県",
        "cityName": "淡路市",
        "streetName": "大町上１６０番地",
        "latitude": 34.43178996,
        "longitude": 134.85625373,
        "id": "28492cf6-0705-48a0-9a93-13aaf5fe2f96"
    },
    {
        "name": "住吉神社",
        "prefectureName": "兵庫県",
        "cityName": "丹波篠山市",
        "streetName": "油井８番地",
        "latitude": 35.0756937,
        "longitude": 135.219198,
        "id": "1c8ebd84-eba0-4e78-b20a-ef7aa23344cb"
    },
    {
        "name": "住吉神社",
        "prefectureName": "兵庫県",
        "cityName": "加古川市",
        "streetName": "別府町新野辺字東出口７６６番地",
        "latitude": 34.7569499,
        "longitude": 134.8411773,
        "id": "6658df36-1e58-41e3-9fc3-4654e73b6733"
    },
    {
        "name": "住吉神社",
        "prefectureName": "兵庫県",
        "cityName": "加古郡播磨町",
        "streetName": "北古田１丁目１６番３号",
        "latitude": 34.725781,
        "longitude": 134.86829704,
        "id": "2502c3da-8437-4065-9773-164cda0270d7"
    },
    {
        "name": "住吉神社",
        "prefectureName": "兵庫県",
        "cityName": "高砂市",
        "streetName": "曽根町字南山１７１３番地",
        "latitude": 34.7662043,
        "longitude": 134.7904408,
        "id": "9e889f81-dd4d-4788-ba6c-a956c742fb0d"
    },
    {
        "name": "住吉神社",
        "prefectureName": "兵庫県",
        "cityName": "美方郡新温泉町",
        "streetName": "飯野１８２１番地",
        "latitude": 35.5288916,
        "longitude": 134.46891836,
        "id": "f962d340-6517-4df2-8864-9aa7aa14ef17"
    },
    {
        "name": "住吉神社",
        "prefectureName": "兵庫県",
        "cityName": "加東市",
        "streetName": "上三草１１３１番地",
        "latitude": 34.93049731,
        "longitude": 134.99483734,
        "id": "5aea6135-557c-407a-befc-f046116c5a4e"
    },
    {
        "name": "住吉神社",
        "prefectureName": "兵庫県",
        "cityName": "加東市",
        "streetName": "秋津１１１３番地",
        "latitude": 34.92528994,
        "longitude": 135.0847568,
        "id": "aa4660a0-9fb5-427c-92f5-5d154c9c01dc"
    },
    {
        "name": "住吉神社",
        "prefectureName": "兵庫県",
        "cityName": "西脇市",
        "streetName": "中畑町字宮ノ下１０９６番地",
        "latitude": 34.9933879,
        "longitude": 134.9693303,
        "id": "c26e84d9-81f9-4fb6-ac4c-fac45dc88bbe"
    },
    {
        "name": "住吉神社",
        "prefectureName": "兵庫県",
        "cityName": "小野市",
        "streetName": "中番町２１１番地",
        "latitude": 34.88351191,
        "longitude": 134.97437461,
        "id": "89960be2-76f2-49e2-bd8a-e5057f62bc7f"
    },
    {
        "name": "住吉神社",
        "prefectureName": "兵庫県",
        "cityName": "洲本市",
        "streetName": "下内膳字西森８８９番地",
        "latitude": 34.3428731,
        "longitude": 134.8953663,
        "id": "8fd2b708-e3a6-4606-bba2-a3b367fad8dd"
    },
    {
        "name": "住吉神社",
        "prefectureName": "兵庫県",
        "cityName": "淡路市",
        "streetName": "井手５５５番地",
        "latitude": 34.45141572,
        "longitude": 134.85746699,
        "id": "920e8757-8c09-4c95-8b86-5271b3445c53"
    },
    {
        "name": "住吉神社",
        "prefectureName": "兵庫県",
        "cityName": "神戸市兵庫区",
        "streetName": "切戸町１番３号",
        "latitude": 34.66394342,
        "longitude": 135.171408,
        "id": "9ff5a03a-0fa8-4178-a32c-941889d214d7"
    },
    {
        "name": "住吉神社",
        "prefectureName": "兵庫県",
        "cityName": "明石市",
        "streetName": "大久保町松陰新田２３５番地",
        "latitude": 34.643057,
        "longitude": 134.9975619,
        "id": "a6c3cf2d-e32d-41b8-96a0-a32efd06d4c9"
    },
    {
        "name": "住吉神社",
        "prefectureName": "兵庫県",
        "cityName": "明石市",
        "streetName": "大久保町八木４８８番地",
        "latitude": 34.67202868,
        "longitude": 134.92913674,
        "id": "0f244f51-f0e9-4d89-96c5-02ef64465c20"
    },
    {
        "name": "住吉神社",
        "prefectureName": "兵庫県",
        "cityName": "丹波篠山市",
        "streetName": "今田町上小野原３０番地",
        "latitude": 35.01304762,
        "longitude": 135.13222853,
        "id": "6e3e513d-cf49-4085-9bfa-a105a6458ae2"
    },
    {
        "name": "住吉神社",
        "prefectureName": "兵庫県",
        "cityName": "加古郡稲美町",
        "streetName": "印南２５０９番地の１４",
        "latitude": 34.73525253,
        "longitude": 134.93402439,
        "id": "19cd2aaa-c0a4-456e-a94b-efeb19febb49"
    },
    {
        "name": "住吉神社",
        "prefectureName": "兵庫県",
        "cityName": "加古川市",
        "streetName": "別府町東町１５７番地",
        "latitude": 34.72336998,
        "longitude": 134.84577992,
        "id": "80341641-2ef7-49d3-b347-9fee6e5fbbfd"
    },
    {
        "name": "住吉神社",
        "prefectureName": "兵庫県",
        "cityName": "神崎郡神河町",
        "streetName": "岩屋６６８番地",
        "latitude": 35.08898606,
        "longitude": 134.830304,
        "id": "395d0186-ef27-4dfe-996b-99b04135a15c"
    },
    {
        "name": "住吉神社",
        "prefectureName": "兵庫県",
        "cityName": "加東市",
        "streetName": "吉井９８番地",
        "latitude": 34.89128117,
        "longitude": 135.03069731,
        "id": "56ee1f70-f9b2-4a79-bae2-a57d9ae6a278"
    },
    {
        "name": "住吉神社",
        "prefectureName": "兵庫県",
        "cityName": "西脇市",
        "streetName": "上比延町安井棒１４２７の２",
        "latitude": 34.9933879,
        "longitude": 134.9693303,
        "id": "028549ac-7d8c-4b1d-9c70-665218c8fcf9"
    },
    {
        "name": "住吉神社",
        "prefectureName": "兵庫県",
        "cityName": "小野市",
        "streetName": "敷地町５４番地",
        "latitude": 34.8531287,
        "longitude": 134.9315234,
        "id": "b87bdba6-37ab-4855-923e-285e8f50a1ec"
    },
    {
        "name": "住吉神社",
        "prefectureName": "兵庫県",
        "cityName": "洲本市",
        "streetName": "木戸字住吉８６番地",
        "latitude": 34.3428731,
        "longitude": 134.8953663,
        "id": "df0723cb-23a2-4a2e-99f2-15d2b584622b"
    },
    {
        "name": "住吉神社",
        "prefectureName": "兵庫県",
        "cityName": "洲本市",
        "streetName": "五色町鮎原宇谷１０１番地",
        "latitude": 34.35520038,
        "longitude": 134.79553587,
        "id": "07f40a38-f426-48b1-9533-79cc170661fb"
    },
    {
        "name": "住吉神社",
        "prefectureName": "兵庫県",
        "cityName": "淡路市",
        "streetName": "江井３１５６番地",
        "latitude": 34.4669941,
        "longitude": 134.82919395,
        "id": "69fd4351-ec64-4d83-a1dc-d1f84b2c8b70"
    },
    {
        "name": "住吉神社",
        "prefectureName": "兵庫県",
        "cityName": "明石市",
        "streetName": "大久保町森田１４１番地の２",
        "latitude": 34.67412575,
        "longitude": 134.95175125,
        "id": "83683be9-9445-4c34-8da8-21a6197bdad7"
    },
    {
        "name": "住吉神社",
        "prefectureName": "兵庫県",
        "cityName": "明石市",
        "streetName": "大久保町谷八木６５４番地",
        "latitude": 34.66825965,
        "longitude": 134.94138562,
        "id": "37366659-7cf5-4f5f-ac8c-abcb972fea16"
    },
    {
        "name": "住吉神社",
        "prefectureName": "兵庫県",
        "cityName": "三木市",
        "streetName": "鳥町１４５番地",
        "latitude": 34.80700881,
        "longitude": 134.95621617,
        "id": "242acc14-4d02-444b-8e99-a26c92ae896f"
    },
    {
        "name": "住吉神社",
        "prefectureName": "兵庫県",
        "cityName": "加古郡稲美町",
        "streetName": "印南字新南場１０６９番地",
        "latitude": 34.7487621,
        "longitude": 134.9134817,
        "id": "702dbe8f-f612-44f1-b8b2-15385b4c10c2"
    },
    {
        "name": "住吉神社",
        "prefectureName": "兵庫県",
        "cityName": "加古川市",
        "streetName": "平岡町山之上６８５番地",
        "latitude": 34.72881408,
        "longitude": 134.87636293,
        "id": "c5b36eb5-13bf-4287-b8f7-c532c94e6c9d"
    },
    {
        "name": "住吉神社",
        "prefectureName": "兵庫県",
        "cityName": "養父市",
        "streetName": "八鹿町舞狂２２４番地の１",
        "latitude": 35.40099336,
        "longitude": 134.78648596,
        "id": "cd8745d1-f4fe-4f7b-9ca6-88c065b2536f"
    },
    {
        "name": "住吉神社",
        "prefectureName": "兵庫県",
        "cityName": "加東市",
        "streetName": "牧野１８５５番地",
        "latitude": 34.94618442,
        "longitude": 134.98755162,
        "id": "7b1cc3f3-5ac7-431d-bfd1-77f2dea0b220"
    },
    {
        "name": "住吉神社",
        "prefectureName": "兵庫県",
        "cityName": "加東市",
        "streetName": "森２６９番地",
        "latitude": 34.90160832,
        "longitude": 135.06568609,
        "id": "aaa0ef67-a3e4-49dc-b5da-4b1fe2eb6ba9"
    },
    {
        "name": "住吉神社",
        "prefectureName": "兵庫県",
        "cityName": "西脇市",
        "streetName": "比延町字前田７番地の１",
        "latitude": 34.9933879,
        "longitude": 134.9693303,
        "id": "99b114b5-34fb-42d5-a76e-5e036bfc4004"
    },
    {
        "name": "住吉神社",
        "prefectureName": "兵庫県",
        "cityName": "小野市",
        "streetName": "垂井町９０８番地",
        "latitude": 34.83558065,
        "longitude": 134.93585104,
        "id": "a4aae7d8-827e-4884-9bbc-b68427abe896"
    },
    {
        "name": "住吉神社",
        "prefectureName": "兵庫県",
        "cityName": "淡路市",
        "streetName": "明神５９４番地",
        "latitude": 34.44892053,
        "longitude": 134.79815251,
        "id": "32827c74-0f34-4204-a409-6b7620ccba16"
    },
    {
        "name": "佐々伎神社",
        "prefectureName": "兵庫県",
        "cityName": "豊岡市",
        "streetName": "但東町佐々木４８２番地",
        "latitude": 35.43523438,
        "longitude": 134.98370876,
        "id": "c9cdf146-3484-439f-86e7-95ce0bcbda8c"
    },
    {
        "name": "佐久神社",
        "prefectureName": "兵庫県",
        "cityName": "豊岡市",
        "streetName": "日高町佐田字宮山６８番地の２",
        "latitude": 35.49553725,
        "longitude": 134.7620994,
        "id": "ebf0ed2e-8118-41c8-8c6c-118fc8553fbd"
    },
    {
        "name": "佐伎都比古阿流知命神社",
        "prefectureName": "兵庫県",
        "cityName": "朝来市",
        "streetName": "和田山町寺内字寺内４３５番地",
        "latitude": 35.33691261,
        "longitude": 134.85706102,
        "id": "5fe08f52-6c6d-42e2-9fb7-0078e10f8066"
    },
    {
        "name": "佐佐婆神社",
        "prefectureName": "兵庫県",
        "cityName": "丹波篠山市",
        "streetName": "畑宮３７７番地",
        "latitude": 35.0756937,
        "longitude": 135.219198,
        "id": "be8b9d46-ee6e-47ca-98a2-97cca19af7dd"
    },
    {
        "name": "佐保神社",
        "prefectureName": "兵庫県",
        "cityName": "加東市",
        "streetName": "東実３４番地",
        "latitude": 34.90284621,
        "longitude": 134.96367047,
        "id": "9f7aac3e-70c2-4ff4-89ea-afc4cda580e8"
    },
    {
        "name": "佐保神社",
        "prefectureName": "兵庫県",
        "cityName": "加東市",
        "streetName": "社７７７番地",
        "latitude": 34.91435641,
        "longitude": 134.96439025,
        "id": "aa4e7c05-8a1c-46ed-9f10-4d8b8b3de241"
    },
    {
        "name": "佐受神社",
        "prefectureName": "兵庫県",
        "cityName": "美方郡香美町",
        "streetName": "香住区米地字宮脇４１７番地の２",
        "latitude": 35.6321935,
        "longitude": 134.6293697,
        "id": "df83857e-4a0a-4aa0-bf8f-693d2695353a"
    },
    {
        "name": "佐嚢神社",
        "prefectureName": "兵庫県",
        "cityName": "朝来市",
        "streetName": "佐嚢字大西宮山１３２ノ２番地",
        "latitude": 35.3396567,
        "longitude": 134.8531613,
        "id": "554ca419-fc42-4f43-a59b-c59d3c18c325"
    },
    {
        "name": "佐地神社",
        "prefectureName": "兵庫県",
        "cityName": "丹波市",
        "streetName": "青垣町小倉５７５番地",
        "latitude": 35.25024838,
        "longitude": 134.9869594,
        "id": "a0717019-766f-4768-808b-c4a31d196f48"
    },
    {
        "name": "佐岐神社",
        "prefectureName": "兵庫県",
        "cityName": "赤穂郡上郡町",
        "streetName": "旭日乙６番地",
        "latitude": 34.8736853,
        "longitude": 134.3564725,
        "id": "3345d871-a21e-4c77-88ee-4c13d4e1b973"
    },
    {
        "name": "佐用都比賣神社",
        "prefectureName": "兵庫県",
        "cityName": "佐用郡佐用町",
        "streetName": "本位田甲２６１番地",
        "latitude": 35.01694444,
        "longitude": 134.36557995,
        "id": "766e68da-48fe-4df4-8ab1-bc0c786865e6"
    },
    {
        "name": "佐田彦神社",
        "prefectureName": "兵庫県",
        "cityName": "豊岡市",
        "streetName": "江本字東６７８番地の１",
        "latitude": 35.5444916,
        "longitude": 134.8201815,
        "id": "91706a80-5b60-4f60-80af-a904a30b47d8"
    },
    {
        "name": "作田井神社",
        "prefectureName": "兵庫県",
        "cityName": "美方郡香美町",
        "streetName": "村岡区日影７３番地",
        "latitude": 35.6321935,
        "longitude": 134.6293697,
        "id": "06f3a55c-7b48-4f96-85ff-fb0953f9ad86"
    },
    {
        "name": "保久良神社",
        "prefectureName": "兵庫県",
        "cityName": "神戸市東灘区",
        "streetName": "本山町北畑６８０番地",
        "latitude": 34.7202275,
        "longitude": 135.2654543,
        "id": "8f41a0e1-94d8-4424-96f7-5f12184546d8"
    },
    {
        "name": "保食神社",
        "prefectureName": "兵庫県",
        "cityName": "加古郡稲美町",
        "streetName": "岡１５４番地",
        "latitude": 34.7487621,
        "longitude": 134.9134817,
        "id": "1254164f-726b-4c35-a0db-fd180d5eeb87"
    },
    {
        "name": "俵米神社",
        "prefectureName": "兵庫県",
        "cityName": "朝来市",
        "streetName": "和田山町久世田１５８番地",
        "latitude": 35.2882898,
        "longitude": 134.83371432,
        "id": "e6cc5371-6409-462c-a7e7-04b870940e71"
    },
    {
        "name": "倭文神社",
        "prefectureName": "兵庫県",
        "cityName": "朝来市",
        "streetName": "新井字山田９３番地",
        "latitude": 35.23628973,
        "longitude": 134.79421038,
        "id": "a534f83d-cee5-4c9d-8da7-f87410861532"
    },
    {
        "name": "倭文神社",
        "prefectureName": "兵庫県",
        "cityName": "朝来市",
        "streetName": "生野町円山２０１番地",
        "latitude": 35.19056043,
        "longitude": 134.79221062,
        "id": "dfc78508-aa99-421b-a0b6-c36c75709835"
    },
    {
        "name": "倭文神社",
        "prefectureName": "兵庫県",
        "cityName": "南あわじ市",
        "streetName": "倭文委文７９３番地",
        "latitude": 34.33003352,
        "longitude": 134.78035723,
        "id": "9d1160ce-c6a0-41d8-8c87-eb9e03c4faae"
    },
    {
        "name": "健速神社",
        "prefectureName": "兵庫県",
        "cityName": "伊丹市",
        "streetName": "野間字来福地６７５番地",
        "latitude": 34.7843084,
        "longitude": 135.400947,
        "id": "b58d2412-82f9-4bed-a782-41184d3cfbe8"
    },
    {
        "name": "偸伽神社",
        "prefectureName": "兵庫県",
        "cityName": "小野市",
        "streetName": "福甸町１７２番地",
        "latitude": 34.83768323,
        "longitude": 134.88685005,
        "id": "360980a8-106d-409a-8ad4-171244082fe3"
    },
    {
        "name": "児守神社",
        "prefectureName": "兵庫県",
        "cityName": "南あわじ市",
        "streetName": "志知奥２０３番地",
        "latitude": 34.2944793,
        "longitude": 134.779858,
        "id": "06002e5e-18c3-4ba6-a742-dfae7aaec540"
    },
    {
        "name": "児嶋神社",
        "prefectureName": "兵庫県",
        "cityName": "美方郡新温泉町",
        "streetName": "海上８０７番地",
        "latitude": 35.50449661,
        "longitude": 134.44071598,
        "id": "56a03c63-e5eb-4b49-a0db-037bf6d21fc4"
    },
    {
        "name": "入江神社",
        "prefectureName": "兵庫県",
        "cityName": "美方郡香美町",
        "streetName": "村岡区入江字中山１６６９番地の２",
        "latitude": 35.6321935,
        "longitude": 134.6293697,
        "id": "9289a007-17e2-4e87-a6fc-b20b092fc3de"
    },
    {
        "name": "八保神社",
        "prefectureName": "兵庫県",
        "cityName": "赤穂郡上郡町",
        "streetName": "八保乙８０９番地",
        "latitude": 34.87162042,
        "longitude": 134.30598105,
        "id": "5176db18-444d-4df4-b250-23ce9e929f76"
    },
    {
        "name": "八坂神社",
        "prefectureName": "兵庫県",
        "cityName": "高砂市",
        "streetName": "阿弥陀町魚橋１６１７番地",
        "latitude": 34.79227137,
        "longitude": 134.79782798,
        "id": "9d09b6de-ac45-47bf-95a2-fa95f05f8f1e"
    },
    {
        "name": "八坂神社",
        "prefectureName": "兵庫県",
        "cityName": "豊岡市",
        "streetName": "九日市中町字権現６４番地の１",
        "latitude": 35.5444916,
        "longitude": 134.8201815,
        "id": "f56d565e-da17-44fe-ae3d-e2be2d2ab5c1"
    },
    {
        "name": "八坂神社",
        "prefectureName": "兵庫県",
        "cityName": "美方郡香美町",
        "streetName": "村岡区耀山字森ノ脇２６３番地の２",
        "latitude": 35.6321935,
        "longitude": 134.6293697,
        "id": "9df77d7d-cf47-4707-a144-82f70c6e8851"
    },
    {
        "name": "八坂神社",
        "prefectureName": "兵庫県",
        "cityName": "加西市",
        "streetName": "上万願寺町１０１３番地",
        "latitude": 34.9279359,
        "longitude": 134.8416245,
        "id": "2e2f536a-fa60-46e6-84c7-ad1c5ad0dbfb"
    },