[
    {
        "name": "一之森神社",
        "prefectureName": "島根県",
        "cityName": "隠岐郡隠岐の島町",
        "streetName": "中村１９８番地",
        "latitude": 36.31649219,
        "longitude": 133.3030988,
        "id": "a6672183-6804-43c9-8393-a9568d6b3f9a"
    },
    {
        "name": "一人女神社",
        "prefectureName": "島根県",
        "cityName": "松江市",
        "streetName": "玉湯町大谷１３２９番地",
        "latitude": 35.40052926,
        "longitude": 133.00196172,
        "id": "99ff164e-dd3a-4f34-91c1-788e8f8774e0"
    },
    {
        "name": "七神社",
        "prefectureName": "島根県",
        "cityName": "邑智郡邑南町",
        "streetName": "三日市１５０１番地",
        "latitude": 34.86160143,
        "longitude": 132.54853428,
        "id": "e9f83b97-cdac-4b6e-bdd7-345cb26a90ab"
    },
    {
        "name": "三保神社",
        "prefectureName": "島根県",
        "cityName": "松江市",
        "streetName": "美保関町福浦８１１番地",
        "latitude": 35.55412661,
        "longitude": 133.25189278,
        "id": "3b3ebe39-a6c8-4fb7-b46a-546eeda40c2f"
    },
    {
        "name": "三保神社",
        "prefectureName": "島根県",
        "cityName": "隠岐郡隠岐の島町",
        "streetName": "犬来小井江１１２番地",
        "latitude": 36.2089134,
        "longitude": 133.321972,
        "id": "e8341b02-8b37-4a05-86f4-a180e34f5df4"
    },
    {
        "name": "三剱神社",
        "prefectureName": "島根県",
        "cityName": "益田市",
        "streetName": "金山町イ６９７番地乙",
        "latitude": 34.75057734,
        "longitude": 131.91054029,
        "id": "5eb2cb6b-6b17-4596-9f5a-6f2e19671817"
    },
    {
        "name": "三宮神社",
        "prefectureName": "島根県",
        "cityName": "鹿足郡吉賀町",
        "streetName": "九郎原５１２番地",
        "latitude": 34.36103404,
        "longitude": 131.96455451,
        "id": "3c9403a5-a977-4c62-ad85-2b6abaacd3f3"
    },
    {
        "name": "三家元神社",
        "prefectureName": "島根県",
        "cityName": "浜田市",
        "streetName": "内田町９７８番地",
        "latitude": 34.85591975,
        "longitude": 132.05440052,
        "id": "050a451a-c881-4e86-9ce3-b8a7dcdcb5b7"
    },
    {
        "name": "三屋神社",
        "prefectureName": "島根県",
        "cityName": "雲南市",
        "streetName": "三刀屋町給下８６５番地",
        "latitude": 35.30050608,
        "longitude": 132.8782432,
        "id": "755b0dc7-639d-41eb-a764-fe45eccef16b"
    },
    {
        "name": "三島神社",
        "prefectureName": "島根県",
        "cityName": "鹿足郡吉賀町",
        "streetName": "上高尻乙２１７番地",
        "latitude": 34.3535239,
        "longitude": 131.9351687,
        "id": "621cd073-506c-476f-b98b-885cabc95286"
    },
    {
        "name": "三島神社",
        "prefectureName": "島根県",
        "cityName": "鹿足郡吉賀町",
        "streetName": "下高尻３２３番地",
        "latitude": 34.42521691,
        "longitude": 131.93126232,
        "id": "6aff67a4-2656-44d5-8b9d-91bcc71e1841"
    },
    {
        "name": "三島神社",
        "prefectureName": "島根県",
        "cityName": "鹿足郡吉賀町",
        "streetName": "柿木村大野原３１７番地",
        "latitude": 34.3535239,
        "longitude": 131.9351687,
        "id": "c9393d5c-9b8e-4534-a157-fa69817c1525"
    },
    {
        "name": "三島神社",
        "prefectureName": "島根県",
        "cityName": "鹿足郡吉賀町",
        "streetName": "柿木村白谷６１番地",
        "latitude": 34.45245075,
        "longitude": 131.86914624,
        "id": "53e6a4ea-0d5f-4e6c-831c-4bd6b4a774fa"
    },
    {
        "name": "三島神社",
        "prefectureName": "島根県",
        "cityName": "浜田市",
        "streetName": "三隅町黒沢３００番地続１",
        "latitude": 34.8990908,
        "longitude": 132.0796832,
        "id": "4604f6a4-2547-427a-9977-676629f9d654"
    },
    {
        "name": "三島神社",
        "prefectureName": "島根県",
        "cityName": "邑智郡川本町",
        "streetName": "大字川下１３５９番地",
        "latitude": 34.97781021,
        "longitude": 132.4828581,
        "id": "227408ee-dc75-495b-82c2-9f9e3c966aab"
    },
    {
        "name": "三幡神社",
        "prefectureName": "島根県",
        "cityName": "雲南市",
        "streetName": "木次町山方９２１番地１１",
        "latitude": 35.29373523,
        "longitude": 132.90063541,
        "id": "0bb0f0ff-eaad-45f0-ad2c-d782448ce56f"
    },
    {
        "name": "三所神社",
        "prefectureName": "島根県",
        "cityName": "松江市",
        "streetName": "八束町入江６５５番地",
        "latitude": 35.4951223,
        "longitude": 133.16507381,
        "id": "d0dc38dd-69da-4820-b35a-41a066e5829f"
    },
    {
        "name": "三所神社",
        "prefectureName": "島根県",
        "cityName": "出雲市",
        "streetName": "佐田町一窪田６６７番地",
        "latitude": 35.23603741,
        "longitude": 132.7358897,
        "id": "4ea6572b-05f8-4df2-9f11-89142c32ea4f"
    },
    {
        "name": "三柱神社",
        "prefectureName": "島根県",
        "cityName": "仁多郡奥出雲町",
        "streetName": "八代１０３９番地",
        "latitude": 35.23571516,
        "longitude": 133.0105429,
        "id": "a3bd2b79-eb5a-4022-95fe-c720dcf7c9ba"
    },
    {
        "name": "三津山神社",
        "prefectureName": "島根県",
        "cityName": "雲南市",
        "streetName": "大東町下阿用４５９番地２",
        "latitude": 35.31856421,
        "longitude": 132.9703828,
        "id": "f57ecbf2-dadd-4669-bb1e-17fd8a5cc718"
    },
    {
        "name": "三澤神社",
        "prefectureName": "島根県",
        "cityName": "仁多郡奥出雲町",
        "streetName": "三沢４０２番地",
        "latitude": 35.20538884,
        "longitude": 132.97420388,
        "id": "f06f43f3-3603-430b-b7a8-c2c661649a95"
    },
    {
        "name": "三瓶山神社",
        "prefectureName": "島根県",
        "cityName": "大田市",
        "streetName": "三瓶町小屋原２２４番地",
        "latitude": 35.15362807,
        "longitude": 132.59905125,
        "id": "ef203630-ccaa-4e7c-975d-2e9c54b5772e"
    },
    {
        "name": "三社神社",
        "prefectureName": "島根県",
        "cityName": "松江市",
        "streetName": "八束町遅江２４１番地",
        "latitude": 35.49234535,
        "longitude": 133.18026137,
        "id": "de6c7d8a-c173-4bb8-bb0d-f7d3cbc947bd"
    },
    {
        "name": "三社神社",
        "prefectureName": "島根県",
        "cityName": "大田市",
        "streetName": "富山町才坂３３番地",
        "latitude": 35.21065586,
        "longitude": 132.5831094,
        "id": "c3834918-ef82-4b1f-b5d3-9f877040c562"
    },
    {
        "name": "三社神社",
        "prefectureName": "島根県",
        "cityName": "雲南市",
        "streetName": "木次町西日登５８８番地",
        "latitude": 35.27154396,
        "longitude": 132.9110485,
        "id": "2a40265e-f4c8-41b7-933c-43503d8be225"
    },
    {
        "name": "三社神社",
        "prefectureName": "島根県",
        "cityName": "出雲市",
        "streetName": "小伊津町１６５４番地",
        "latitude": 35.50138494,
        "longitude": 132.83678997,
        "id": "a4c31d07-d075-4d1d-b0f1-5a29ef95b59e"
    },
    {
        "name": "三穂神社",
        "prefectureName": "島根県",
        "cityName": "隠岐郡海士町",
        "streetName": "大字崎１７５５番地",
        "latitude": 36.05055899,
        "longitude": 133.08584141,
        "id": "ca4c1903-6ce6-4194-bc25-3f4b6c3452e8"
    },
    {
        "name": "三角神社",
        "prefectureName": "島根県",
        "cityName": "浜田市",
        "streetName": "三隅町三隅６９７番地",
        "latitude": 34.8990908,
        "longitude": 132.0796832,
        "id": "00a5c7e0-e0a0-4274-83d2-f350be3b0f9c"
    },
    {
        "name": "三谷神社",
        "prefectureName": "島根県",
        "cityName": "出雲市",
        "streetName": "３５５９番地３",
        "latitude": 35.3670234,
        "longitude": 132.7546836,
        "id": "801e0264-b3bb-4fb6-ba68-9d735d2cf978"
    },
    {
        "name": "三隅神社",
        "prefectureName": "島根県",
        "cityName": "浜田市",
        "streetName": "三隅町三隅１５１８番１地",
        "latitude": 34.8990908,
        "longitude": 132.0796832,
        "id": "152c0d97-9298-483d-9bc1-f1f73664bc86"
    },
    {
        "name": "三階山神社",
        "prefectureName": "島根県",
        "cityName": "浜田市",
        "streetName": "三階町２１００番地内１",
        "latitude": 34.87380186,
        "longitude": 132.08159191,
        "id": "e891ed73-6bfc-45e1-b47d-5dfc267a2c94"
    },
    {
        "name": "上元屋神社",
        "prefectureName": "島根県",
        "cityName": "隠岐郡隠岐の島町",
        "streetName": "元屋１９２番地",
        "latitude": 36.30629368,
        "longitude": 133.31340336,
        "id": "9c9c35a0-bb89-4e51-a55b-a733f9108157"
    },
    {
        "name": "上畑神社",
        "prefectureName": "島根県",
        "cityName": "江津市",
        "streetName": "松川町上津井８２６番地５",
        "latitude": 35.00721209,
        "longitude": 132.30449803,
        "id": "651cb2bf-4411-4039-8677-08539d79f386"
    },
    {
        "name": "上神社",
        "prefectureName": "島根県",
        "cityName": "雲南市",
        "streetName": "吉田町上山４５９番地",
        "latitude": 35.19076951,
        "longitude": 132.92884757,
        "id": "8c97e36e-3e1a-49eb-9bd5-94bca69fc925"
    },
    {
        "name": "上西神社",
        "prefectureName": "島根県",
        "cityName": "隠岐郡隠岐の島町",
        "streetName": "上西雨来４３番地",
        "latitude": 36.2089134,
        "longitude": 133.321972,
        "id": "6115dfb2-cab4-4f3c-b1c4-8587d9c2a620"
    },
    {
        "name": "上郷神社",
        "prefectureName": "島根県",
        "cityName": "出雲市",
        "streetName": "上島町４５７番地",
        "latitude": 35.33342898,
        "longitude": 132.82634136,
        "id": "3ff5036f-9cc4-4d18-a392-51d8cc518897"
    },
    {
        "name": "下山神社",
        "prefectureName": "島根県",
        "cityName": "安来市",
        "streetName": "安来町１５３９番地",
        "latitude": 35.4279451,
        "longitude": 133.25362853,
        "id": "c663fb7d-bcc4-405a-bb36-0142b02b7af8"
    },
    {
        "name": "両大神社",
        "prefectureName": "島根県",
        "cityName": "安来市",
        "streetName": "大塚町２４６番地",
        "latitude": 35.37941685,
        "longitude": 133.2660711,
        "id": "85e9e5e0-6b48-4d20-a4c4-006a1410e6e5"
    },
    {
        "name": "中言神社",
        "prefectureName": "島根県",
        "cityName": "隠岐郡隠岐の島町",
        "streetName": "南方１９７４番地",
        "latitude": 36.27805894,
        "longitude": 133.20102267,
        "id": "229e47d2-1df6-448a-8d3e-9a4049e59795"
    },
    {
        "name": "中野神社",
        "prefectureName": "島根県",
        "cityName": "雲南市",
        "streetName": "三刀屋町中野９９８番地",
        "latitude": 35.23322889,
        "longitude": 132.85644154,
        "id": "9c0d2a23-5b90-4890-ab2c-f05b4101f372"
    },
    {
        "name": "丹部神社",
        "prefectureName": "島根県",
        "cityName": "松江市",
        "streetName": "宍道町佐々布２２１４番地",
        "latitude": 35.39650514,
        "longitude": 132.89052813,
        "id": "bd44144f-25b9-4a05-a7ee-130f714cc6c1"
    },
    {
        "name": "久佐加神社",
        "prefectureName": "島根県",
        "cityName": "出雲市",
        "streetName": "日下町７３１番続１地",
        "latitude": 35.401517,
        "longitude": 132.76123988,
        "id": "7b3034a7-0208-430c-81e6-5f5252bd21e9"
    },
    {
        "name": "久多美神社",
        "prefectureName": "島根県",
        "cityName": "出雲市",
        "streetName": "東福町５４０番地",
        "latitude": 35.45516484,
        "longitude": 132.82071513,
        "id": "f424f4f6-538b-4909-9257-8cfb3c89203f"
    },
    {
        "name": "久奈子神社",
        "prefectureName": "島根県",
        "cityName": "出雲市",
        "streetName": "古志町２２５４番地",
        "latitude": 35.33002798,
        "longitude": 132.74440512,
        "id": "eb309ef7-39a1-467a-8330-b3470df7054d"
    },
    {
        "name": "久武神社",
        "prefectureName": "島根県",
        "cityName": "出雲市",
        "streetName": "斐川町出西１８３４、３４３２、３４６６ノ２番地",
        "latitude": 35.36243347,
        "longitude": 132.80330922,
        "id": "f7c93eaa-87d3-445d-9222-78a108af51fa"
    },
    {
        "name": "久良彌神社",
        "prefectureName": "島根県",
        "cityName": "松江市",
        "streetName": "新庄町９９４番地",
        "latitude": 35.49967016,
        "longitude": 133.12678257,
        "id": "2d48b1c1-d17b-4aac-8884-3ba14263b2c8"
    },
    {
        "name": "乙見神社",
        "prefectureName": "島根県",
        "cityName": "大田市",
        "streetName": "仁摩町馬路９２７番地",
        "latitude": 35.1662754,
        "longitude": 132.40664156,
        "id": "00dd8d54-f959-4309-8ea5-047bd8a81b76"
    },
    {
        "name": "乙見神社",
        "prefectureName": "島根県",
        "cityName": "出雲市",
        "streetName": "大社町入南３６０番地",
        "latitude": 35.38855674,
        "longitude": 132.71855291,
        "id": "1c13c8d2-4afc-4bf9-99cf-4e578281cc0a"
    },
    {
        "name": "亀島神社",
        "prefectureName": "島根県",
        "cityName": "松江市",
        "streetName": "宍道町宍道７６４番地",
        "latitude": 35.41119244,
        "longitude": 132.90868198,
        "id": "76c0edc3-090e-41fc-b5db-3e70535886ba"
    },
    {
        "name": "二宮神社",
        "prefectureName": "島根県",
        "cityName": "浜田市",
        "streetName": "三隅町三隅１４４３番地２",
        "latitude": 34.77488455,
        "longitude": 131.96431865,
        "id": "30d4fddc-1126-4b6d-b8a8-521f0f107bdd"
    },
    {
        "name": "五十猛神社",
        "prefectureName": "島根県",
        "cityName": "大田市",
        "streetName": "五十猛町２３４９番地１",
        "latitude": 35.1921061,
        "longitude": 132.4992923,
        "id": "8777dbae-a3f0-4a9c-8dba-7d975b3d95e9"
    },
    {
        "name": "五十田神社",
        "prefectureName": "島根県",
        "cityName": "松江市",
        "streetName": "古志町１１１８番地",
        "latitude": 35.48700011,
        "longitude": 133.01312538,
        "id": "cb68fc10-4100-4041-ac48-b509cac817db"
    },
    {
        "name": "五神神社",
        "prefectureName": "島根県",
        "cityName": "安来市",
        "streetName": "佐久保町１３６番地",
        "latitude": 35.4309226,
        "longitude": 133.2510841,
        "id": "5c9bdd29-4e71-467d-b5e8-6eaa59aa1b22"
    },
    {
        "name": "井戸神社",
        "prefectureName": "島根県",
        "cityName": "大田市",
        "streetName": "大森町イ１３７２番地",
        "latitude": 35.11951209,
        "longitude": 132.44631354,
        "id": "7138b902-e5f0-4edd-a412-88cc0fa54945"
    },
    {
        "name": "井草神社",
        "prefectureName": "島根県",
        "cityName": "雲南市",
        "streetName": "三刀屋町伊萱１０９６番地",
        "latitude": 35.307725,
        "longitude": 132.9003019,
        "id": "eb2a8be2-156d-462d-810f-b9fc23a9b2ab"
    },
    {
        "name": "今宮神社",
        "prefectureName": "島根県",
        "cityName": "浜田市",
        "streetName": "杉戸町２６１９番地内１",
        "latitude": 34.89678281,
        "longitude": 132.08087204,
        "id": "5f8624cd-8255-4b86-9565-1f2c5d486e1b"
    },
    {
        "name": "仰支斯里神社",
        "prefectureName": "島根県",
        "cityName": "仁多郡奥出雲町",
        "streetName": "八代３４４番地",
        "latitude": 35.23128773,
        "longitude": 132.99814232,
        "id": "3591900b-e9e3-49c3-b7ae-365fa5f9db56"
    },
    {
        "name": "伊佐山神社",
        "prefectureName": "島根県",
        "cityName": "雲南市",
        "streetName": "大東町遠所４８５番地",
        "latitude": 35.32410789,
        "longitude": 132.96859392,
        "id": "eca78b82-59f1-42d6-b579-1a5c533acfee"
    },
    {
        "name": "伊佐賀神社",
        "prefectureName": "島根県",
        "cityName": "出雲市",
        "streetName": "斐川町出西５４４番地",
        "latitude": 35.34802146,
        "longitude": 132.80325412,
        "id": "21c3bfbd-2314-4f18-a7c5-91e9a541200d"
    },
    {
        "name": "伊努神社",
        "prefectureName": "島根県",
        "cityName": "出雲市",
        "streetName": "西林木町３７６番地",
        "latitude": 35.40202273,
        "longitude": 132.77019461,
        "id": "7f166aab-ef8a-4380-af97-e642a603d1ef"
    },
    {
        "name": "伊努神社",
        "prefectureName": "島根県",
        "cityName": "出雲市",
        "streetName": "美野町３８２番地",
        "latitude": 35.47247895,
        "longitude": 132.89892877,
        "id": "3cdbe137-bda7-4e16-9416-1e13e0b65a2c"
    },
    {
        "name": "伊勢命神社",
        "prefectureName": "島根県",
        "cityName": "隠岐郡隠岐の島町",
        "streetName": "久見３７５番地",
        "latitude": 36.2089134,
        "longitude": 133.321972,
        "id": "59421ee0-14a1-49ad-9612-5a9fdb4baae4"
    },
    {
        "name": "伊勢神社",
        "prefectureName": "島根県",
        "cityName": "安来市",
        "streetName": "今津町３７４番地",
        "latitude": 35.42457315,
        "longitude": 133.2329913,
        "id": "41ce87e0-3037-4168-8e14-edc26258a49e"
    },
    {
        "name": "伊南神社",
        "prefectureName": "島根県",
        "cityName": "浜田市",
        "streetName": "後野町２３２３番地",
        "latitude": 34.8964948,
        "longitude": 132.14444707,
        "id": "e2618ee1-918a-4a39-bcc9-c4e87a0e1b41"
    },
    {
        "name": "伊奈西波岐神社",
        "prefectureName": "島根県",
        "cityName": "出雲市",
        "streetName": "大社町鷺浦１０２番地",
        "latitude": 35.43923634,
        "longitude": 132.68666177,
        "id": "f9953372-0726-48e3-881f-97eaca0d9d2f"
    },
    {
        "name": "伊奈阿気神社",
        "prefectureName": "島根県",
        "cityName": "松江市",
        "streetName": "美保関町北浦９７２番地",
        "latitude": 35.56316151,
        "longitude": 133.16058046,
        "id": "902965f2-f447-4d56-a315-eae5c2fbe340"
    },
    {
        "name": "伊奈頭美神社",
        "prefectureName": "島根県",
        "cityName": "松江市",
        "streetName": "美保関町北浦３０４番地",
        "latitude": 35.56150854,
        "longitude": 133.15396463,
        "id": "576cb350-7fd6-41f2-baef-f92b5e5220e8"
    },
    {
        "name": "伊後神社",
        "prefectureName": "島根県",
        "cityName": "隠岐郡隠岐の島町",
        "streetName": "伊後宮ノ元６０５番地",
        "latitude": 36.2089134,
        "longitude": 133.321972,
        "id": "fcbd0220-adc1-4430-8b90-2c29c66c79dc"
    },
    {
        "name": "伊甘神社",
        "prefectureName": "島根県",
        "cityName": "浜田市",
        "streetName": "下府町９３５番地２",
        "latitude": 34.92983541,
        "longitude": 132.11053497,
        "id": "f88b5a76-5619-44d7-85d4-7932e247d1cd"
    },
    {
        "name": "伊甚神社",
        "prefectureName": "島根県",
        "cityName": "松江市",
        "streetName": "宍道町伊志見１８８番地",
        "latitude": 35.39194706,
        "longitude": 132.87915412,
        "id": "1d1e36aa-049a-42ac-8b11-75c65ce525cb"
    },
    {
        "name": "伊秩神社",
        "prefectureName": "島根県",
        "cityName": "出雲市",
        "streetName": "佐田町佐津目３３７番地",
        "latitude": 35.21541838,
        "longitude": 132.6413609,
        "id": "4c030e6c-a0c9-451d-a728-37355921bfb2"
    },
    {
        "name": "伊賀多気神社",
        "prefectureName": "島根県",
        "cityName": "仁多郡奥出雲町",
        "streetName": "横田１２７８番地",
        "latitude": 35.1975099,
        "longitude": 133.0024425,
        "id": "a675aa56-4509-454e-b0e0-d9d0e7644210"
    },
    {
        "name": "伊賀武神社",
        "prefectureName": "島根県",
        "cityName": "仁多郡奥出雲町",
        "streetName": "佐白１１６番地",
        "latitude": 35.23620881,
        "longitude": 132.98483583,
        "id": "3e03758b-64a9-4c05-8915-ecb52284bfdf"
    },
    {
        "name": "住吉神社",
        "prefectureName": "島根県",
        "cityName": "松江市",
        "streetName": "西川津町３３４８番地１",
        "latitude": 35.4680925,
        "longitude": 133.0485218,
        "id": "478ca172-d823-4ceb-9fc6-17126c57ae07"
    },
    {
        "name": "住吉神社",
        "prefectureName": "島根県",
        "cityName": "益田市",
        "streetName": "七尾町４番７１号",
        "latitude": 34.67466701,
        "longitude": 131.86257946,
        "id": "27b22658-8a46-4443-bc14-33bd34cb54f8"
    },
    {
        "name": "住吉神社",
        "prefectureName": "島根県",
        "cityName": "隠岐郡隠岐の島町",
        "streetName": "原田斎宮４６５番地",
        "latitude": 36.2089134,
        "longitude": 133.321972,
        "id": "16e45803-0286-4b12-b6b0-1659ab5b47a8"
    },
    {
        "name": "住吉神社",
        "prefectureName": "島根県",
        "cityName": "安来市",
        "streetName": "赤江町１２３４番地",
        "latitude": 35.441469,
        "longitude": 133.22118301,
        "id": "3ac858ef-a3bc-49f4-99f6-3236527857ee"
    },
    {
        "name": "佐々布久神社",
        "prefectureName": "島根県",
        "cityName": "安来市",
        "streetName": "広瀬町石原５８２番地",
        "latitude": 35.36381332,
        "longitude": 133.17426664,
        "id": "17128e5c-b631-4950-9918-e8cdf6fff2a4"
    },
    {
        "name": "佐世神社",
        "prefectureName": "島根県",
        "cityName": "雲南市",
        "streetName": "大東町下佐世１２０２番地",
        "latitude": 35.30903448,
        "longitude": 132.9494079,
        "id": "4db1ae18-5a68-4d94-ac75-23e4ebf1d2a3"
    },
    {
        "name": "佐久多神社",
        "prefectureName": "島根県",
        "cityName": "松江市",
        "streetName": "宍道町上来待５５１番地",
        "latitude": 35.40162674,
        "longitude": 132.96555599,
        "id": "d03a721c-5be2-46af-81ca-bb39195e8efa"
    },
    {
        "name": "佐伯神社",
        "prefectureName": "島根県",
        "cityName": "出雲市",
        "streetName": "神西沖町８４４番地",
        "latitude": 35.33221758,
        "longitude": 132.69344086,
        "id": "daae9afd-f298-46f8-9641-6bbe864f8afb"
    },
    {
        "name": "佐太神社",
        "prefectureName": "島根県",
        "cityName": "松江市",
        "streetName": "鹿島町佐陀宮内７３番地",
        "latitude": 35.50903109,
        "longitude": 133.00639764,
        "id": "bfd2d3bd-c5ec-4419-8678-155dc27c7271"
    },
    {
        "name": "佐志武神社",
        "prefectureName": "島根県",
        "cityName": "出雲市",
        "streetName": "湖陵町差海８９１番地",
        "latitude": 35.33018671,
        "longitude": 132.66914908,
        "id": "7b045d6c-faec-42f9-99b5-bc88f4a46077"
    },
    {
        "name": "佐支多神社",
        "prefectureName": "島根県",
        "cityName": "出雲市",
        "streetName": "斐川町荘原５８７番地",
        "latitude": 35.39123568,
        "longitude": 132.8491899,
        "id": "d3d9da81-eba9-4ae1-a9ee-38490a856314"
    },
    {
        "name": "佐比売山神社",
        "prefectureName": "島根県",
        "cityName": "大田市",
        "streetName": "鳥井町鳥井３６９番地",
        "latitude": 35.2180664,
        "longitude": 132.47977795,
        "id": "a145df71-4297-4a24-81ea-39c106e6e839"
    },
    {
        "name": "佐比売山神社",
        "prefectureName": "島根県",
        "cityName": "大田市",
        "streetName": "三瓶町多根イ３０５番地",
        "latitude": 35.17196724,
        "longitude": 132.59874815,
        "id": "a05eb519-78a5-4050-8ec4-a679e5c4dda4"
    },
    {
        "name": "佐毘賣山神社",
        "prefectureName": "島根県",
        "cityName": "大田市",
        "streetName": "大森町ホ３９３番地",
        "latitude": 35.09914424,
        "longitude": 132.43162348,
        "id": "8e6275f9-c3ca-4573-901d-401a4d02e382"
    },
    {
        "name": "佐毘賣山神社",
        "prefectureName": "島根県",
        "cityName": "益田市",
        "streetName": "乙子町５１番地",
        "latitude": 34.6801924,
        "longitude": 131.89338516,
        "id": "f4ff3ba7-4d7c-46a0-8cd1-d0a94e6c19e6"
    },
    {
        "name": "佐為神社",
        "prefectureName": "島根県",
        "cityName": "松江市",
        "streetName": "宍道町白石１４６４番地",
        "latitude": 35.39736952,
        "longitude": 132.9143704,
        "id": "3826f713-3529-49a5-aaaa-45bd3e1a6eff"
    },
    {
        "name": "佐玉神社",
        "prefectureName": "島根県",
        "cityName": "雲南市",
        "streetName": "大東町上佐世７８２番地",
        "latitude": 35.30836185,
        "longitude": 132.93062106,
        "id": "73f743c8-53fb-47da-941c-51822a79e664"
    },
    {
        "name": "佐香神社",
        "prefectureName": "島根県",
        "cityName": "出雲市",
        "streetName": "小境町１０８番地",
        "latitude": 35.3670234,
        "longitude": 132.7546836,
        "id": "3abf25bf-2cc6-4be7-90f8-9ee4e7adec99"
    },
    {
        "name": "來次神社",
        "prefectureName": "島根県",
        "cityName": "雲南市",
        "streetName": "木次町木次７８２番地",
        "latitude": 35.28618087,
        "longitude": 132.90970678,
        "id": "6090d18f-f25b-4132-aac8-2b1d41bb1fe9"
    },
    {
        "name": "來阪神社",
        "prefectureName": "島根県",
        "cityName": "出雲市",
        "streetName": "矢尾町７９９番地",
        "latitude": 35.40353607,
        "longitude": 132.75496816,
        "id": "666401ea-9647-413b-8e45-3fd689205296"
    },
    {
        "name": "倉手神社",
        "prefectureName": "島根県",
        "cityName": "安来市",
        "streetName": "広瀬町菅原５４２番地",
        "latitude": 35.33564387,
        "longitude": 133.17262344,
        "id": "8568ae81-ea3d-4aa5-b132-ffd85e4b9252"
    },
    {
        "name": "健須佐雄神社",
        "prefectureName": "島根県",
        "cityName": "隠岐郡海士町",
        "streetName": "大字海士５９７０番地",
        "latitude": 36.096907,
        "longitude": 133.0968444,
        "id": "fb332901-2907-4340-b3ed-a81acb6fe65f"
    },
    {
        "name": "先前神社",
        "prefectureName": "島根県",
        "cityName": "安来市",
        "streetName": "上吉田町９５９番地",
        "latitude": 35.4309226,
        "longitude": 133.2510841,
        "id": "d71d3075-8ec4-4396-a682-ebf70215522a"
    },
    {
        "name": "兎比神社",
        "prefectureName": "島根県",
        "cityName": "雲南市",
        "streetName": "吉田町吉田１０２３番地",
        "latitude": 35.16700445,
        "longitude": 132.86423348,
        "id": "de3dea8c-bfae-410a-8358-6080ceada117"
    },
    {
        "name": "入野神社",
        "prefectureName": "島根県",
        "cityName": "浜田市",
        "streetName": "金城町入野イ１０４２番地１",
        "latitude": 34.90157523,
        "longitude": 132.22266528,
        "id": "3623994f-855b-4350-9d1d-0797bac9290f"
    },
    {
        "name": "八上神社",
        "prefectureName": "島根県",
        "cityName": "松江市",
        "streetName": "鹿島町武代３４０番地１",
        "latitude": 35.52191487,
        "longitude": 132.98137478,
        "id": "c5bdf6d7-9fa8-4409-8e81-376a2e9a1655"
    },
    {
        "name": "八千矛山大国主神社",
        "prefectureName": "島根県",
        "cityName": "大田市",
        "streetName": "仁摩町大国１１３７番地１",
        "latitude": 35.1662754,
        "longitude": 132.40664156,
        "id": "18fc45af-13a7-4588-95ea-54c12bba94df"
    },
    {
        "name": "八口神社",
        "prefectureName": "島根県",
        "cityName": "雲南市",
        "streetName": "加茂町神原９８番地",
        "latitude": 35.33710414,
        "longitude": 132.87459273,
        "id": "1267f3b7-b01d-4192-b81e-0d147549dc0a"
    },
    {
        "name": "八口神社",
        "prefectureName": "島根県",
        "cityName": "雲南市",
        "streetName": "木次町西日登１５２４番地の１",
        "latitude": 35.256432,
        "longitude": 132.90741309,
        "id": "edead3e7-c7fc-4367-82df-06b878218d25"
    },
    {
        "name": "八坂神社",
        "prefectureName": "島根県",
        "cityName": "益田市",
        "streetName": "大谷町２４６２番地３",
        "latitude": 34.6748999,
        "longitude": 131.8425783,
        "id": "4bc29c59-e863-4593-ab0b-84fe1a63f420"
    },
    {
        "name": "八幡神社",
        "prefectureName": "島根県",
        "cityName": "隠岐郡隠岐の島町",
        "streetName": "原田田頭１１７３番地",
        "latitude": 36.2089134,
        "longitude": 133.321972,
        "id": "31e54bba-7240-4c1b-86a5-620ac2bae1c4"
    },
    {
        "name": "八幡神社",
        "prefectureName": "島根県",
        "cityName": "江津市",
        "streetName": "井沢町６８２番地",
        "latitude": 35.0114169,
        "longitude": 132.2209302,
        "id": "95ab0ad9-af5f-4e36-92c2-d417bc14471a"
    },
    {
        "name": "八幡神社",
        "prefectureName": "島根県",
        "cityName": "邑智郡邑南町",
        "streetName": "下亀谷９３１番地５",
        "latitude": 34.8939545,
        "longitude": 132.4383753,
        "id": "5971d056-67f6-4bf1-80d8-c72195cea008"
    },
    {
        "name": "八王子神社",
        "prefectureName": "島根県",
        "cityName": "隠岐郡隠岐の島町",
        "streetName": "元屋７１８番地",
        "latitude": 36.31801993,
        "longitude": 133.31141167,
        "id": "98e1186f-d560-416f-9fa9-e38b1d8fe05a"
    },
    {
        "name": "八神神社",
        "prefectureName": "島根県",
        "cityName": "松江市",
        "streetName": "魚瀬町１１７５番地",
        "latitude": 35.51595804,
        "longitude": 132.91841761,
        "id": "fda1cba0-0603-4b40-aea6-7f20ed35f05c"
    },
    {
        "name": "八重垣神社",
        "prefectureName": "島根県",
        "cityName": "松江市",
        "streetName": "佐草町２２７番地",
        "latitude": 35.42904148,
        "longitude": 133.07357956,
        "id": "a74bdcad-e22c-4d65-aeaa-6b00b3c85ad0"
    },
    {
        "name": "八重山神社",
        "prefectureName": "島根県",
        "cityName": "雲南市",
        "streetName": "掛合町入間５７番地",
        "latitude": 35.14556422,
        "longitude": 132.8023195,
        "id": "03cae6e7-8d8f-4942-82de-b209ccd48673"
    },
    {
        "name": "八重山神社",
        "prefectureName": "島根県",
        "cityName": "江津市",
        "streetName": "川平町南川上１７２番地",
        "latitude": 34.99625494,
        "longitude": 132.28236384,
        "id": "f6ab1498-cea4-4254-8d1e-78f02e3a65ab"
    },
    {
        "name": "八野神社",
        "prefectureName": "島根県",
        "cityName": "出雲市",
        "streetName": "矢野町７２５番地",
        "latitude": 35.38009366,
        "longitude": 132.73865988,
        "id": "efee6aea-1402-4bbf-9f11-eef1396cb972"
    },
    {
        "name": "八面神社",
        "prefectureName": "島根県",
        "cityName": "大田市",
        "streetName": "三瓶町志学３６９番地",
        "latitude": 35.11424126,
        "longitude": 132.63487021,
        "id": "5ae79474-039c-46f4-a125-fca6b2eb02f6"
    },
    {
        "name": "六所神社",
        "prefectureName": "島根県",
        "cityName": "松江市",
        "streetName": "大草町４９６番地",
        "latitude": 35.42722554,
        "longitude": 133.10423465,
        "id": "180d023a-8dc5-41e3-b068-9230465f1275"
    },
    {
        "name": "兵主神社",
        "prefectureName": "島根県",
        "cityName": "出雲市",
        "streetName": "斐川町学頭２８３０番地",
        "latitude": 35.37197717,
        "longitude": 132.8710114,
        "id": "135ae4f8-9e25-48f0-9f0b-3396787a8a10"
    },
    {
        "name": "内石大元神社",
        "prefectureName": "島根県",
        "cityName": "益田市",
        "streetName": "匹見町石谷イ５８０番地",
        "latitude": 34.55767837,
        "longitude": 131.94365546,
        "id": "b6b6ef58-dea7-4c74-9609-1541d756cd98"
    },
    {
        "name": "内神社",
        "prefectureName": "島根県",
        "cityName": "松江市",
        "streetName": "大垣町７４６番地",
        "latitude": 35.48965016,
        "longitude": 132.93090908,
        "id": "8fb4b179-c53b-46f6-a1e6-cf57cf4df570"
    },
    {
        "name": "冠神社",
        "prefectureName": "島根県",
        "cityName": "大田市",
        "streetName": "仁摩町大国１９００番地",
        "latitude": 35.1662754,
        "longitude": 132.40664156,
        "id": "ac6481b5-2f30-43b9-8969-d4ee07133e1a"
    },
    {
        "name": "出島神社",
        "prefectureName": "島根県",
        "cityName": "松江市",
        "streetName": "西浜佐陀町８８１番地",
        "latitude": 35.47269629,
        "longitude": 133.01678924,
        "id": "86a90fb5-f40a-4331-af15-ab0ed7ecd5a2"
    },
    {
        "name": "出雲井神社",
        "prefectureName": "島根県",
        "cityName": "雲南市",
        "streetName": "三刀屋町殿河内３０９番地",
        "latitude": 35.28186368,
        "longitude": 132.84969153,
        "id": "22f91f83-ff70-4df9-a9e3-6312c97a822a"
    },
    {
        "name": "出雲神奈備神社",
        "prefectureName": "島根県",
        "cityName": "出雲市",
        "streetName": "里方町３２４番地",
        "latitude": 35.39283173,
        "longitude": 132.75997923,
        "id": "b5c72c1b-344a-4472-9661-692db554b077"
    },
    {
        "name": "出雲路幸神社",
        "prefectureName": "島根県",
        "cityName": "安来市",
        "streetName": "西松井町８１番地",
        "latitude": 35.40330253,
        "longitude": 133.21564333,
        "id": "2bf9e8ea-5441-4776-923e-7751405654e4"
    },
    {
        "name": "切川神社",
        "prefectureName": "島根県",
        "cityName": "安来市",
        "streetName": "切川町１１５０番地",
        "latitude": 35.4309226,
        "longitude": 133.2510841,
        "id": "457dd651-e6e0-4c08-bd29-bf69008a1073"
    },
    {
        "name": "切明神社",
        "prefectureName": "島根県",
        "cityName": "隠岐郡隠岐の島町",
        "streetName": "西田５６６番地",
        "latitude": 36.20057233,
        "longitude": 133.30353821,
        "id": "b238fc00-a777-4b75-998d-9d1d55003cad"
    },
    {
        "name": "別所神社",
        "prefectureName": "島根県",
        "cityName": "出雲市",
        "streetName": "多久谷町１４４５番地",
        "latitude": 35.47416848,
        "longitude": 132.83526304,
        "id": "c79061f9-cb4c-4de1-b069-78829c9e9ebc"
    },
    {
        "name": "刺鹿神社",
        "prefectureName": "島根県",
        "cityName": "大田市",
        "streetName": "久手町刺鹿１４７５番地",
        "latitude": 35.21672007,
        "longitude": 132.51345549,
        "id": "5fad1741-31cf-4dfd-832d-d5dab77b82a0"
    },
    {
        "name": "剣玉神社",
        "prefectureName": "島根県",
        "cityName": "益田市",
        "streetName": "匹見町落合ホ１５７番地２",
        "latitude": 34.57693065,
        "longitude": 132.00377928,
        "id": "a656281b-4cff-48da-a0a8-ddac4d6cbf10"
    },
    {
        "name": "剱玉神社",
        "prefectureName": "島根県",
        "cityName": "鹿足郡津和野町",
        "streetName": "森村１３２８番地",
        "latitude": 34.5434062,
        "longitude": 131.8383273,
        "id": "c618f0d5-e2aa-4f98-8790-fea57eeb5bfa"
    },
    {
        "name": "剱神社",
        "prefectureName": "島根県",
        "cityName": "松江市",
        "streetName": "宍道町上来待２６２７番地",
        "latitude": 35.3798897,
        "longitude": 132.96413259,
        "id": "827eb81d-4e68-479a-a936-ef12da520fe3"
    },
    {
        "name": "劔玉神社",
        "prefectureName": "島根県",
        "cityName": "鹿足郡吉賀町",
        "streetName": "柿木村白谷７２６番地",
        "latitude": 34.3535239,
        "longitude": 131.9351687,
        "id": "edafdf9f-ffe9-419f-b710-8ab5a9409de2"
    },
    {
        "name": "劔玉神社",
        "prefectureName": "島根県",
        "cityName": "鹿足郡吉賀町",
        "streetName": "抜月１３２９番地",
        "latitude": 34.3535239,
        "longitude": 131.9351687,
        "id": "ddfd53d1-19da-40a3-b503-d0f44c0ca5ba"
    },
    {
        "name": "劔神社",
        "prefectureName": "島根県",
        "cityName": "松江市",
        "streetName": "八雲町日吉１０番地",
        "latitude": 35.42058727,
        "longitude": 133.09877163,
        "id": "45a5de9b-403f-43b4-a41e-2b838a2b9243"
    },
    {
        "name": "加佐奈子神社",
        "prefectureName": "島根県",
        "cityName": "松江市",
        "streetName": "東持田町２６２番地",
        "latitude": 35.50054792,
        "longitude": 133.08169491,
        "id": "61844ca7-1d98-4fe1-92b3-461d23b347b7"
    },
    {
        "name": "加多神社",
        "prefectureName": "島根県",
        "cityName": "雲南市",
        "streetName": "大東町大東３６２番地",
        "latitude": 35.32959881,
        "longitude": 132.96649402,
        "id": "f1b1a39e-e7fa-4373-b47b-6371f44ea02e"
    },
    {
        "name": "加毛利神社",
        "prefectureName": "島根県",
        "cityName": "出雲市",
        "streetName": "斐川町神氷１７７９番地",
        "latitude": 35.3891829,
        "longitude": 132.82144826,
        "id": "de6c2bad-abe7-42d4-9142-1d19821435c6"
    },
    {
        "name": "加茂志神社",
        "prefectureName": "島根県",
        "cityName": "松江市",
        "streetName": "上佐陀町９７番地",
        "latitude": 35.50600943,
        "longitude": 133.01515516,
        "id": "27caaa70-074b-41fb-9282-ab1ed613b9df"
    },
    {
        "name": "加茂神社",
        "prefectureName": "島根県",
        "cityName": "雲南市",
        "streetName": "加茂町加茂中９９６番地",
        "latitude": 35.34763101,
        "longitude": 132.9079363,
        "id": "b327d178-11a0-4add-b01d-03d0dd5443e8"
    },
    {
        "name": "加茂神社",
        "prefectureName": "島根県",
        "cityName": "安来市",
        "streetName": "安来町５４１番地",
        "latitude": 35.41497397,
        "longitude": 133.23951643,
        "id": "7b417c1b-4d93-454c-8700-3609e11e1544"
    },
    {
        "name": "加茂神社",
        "prefectureName": "島根県",
        "cityName": "雲南市",
        "streetName": "木次町湯村２６３番地",
        "latitude": 35.2306751,
        "longitude": 132.93712114,
        "id": "ee18195b-262d-4563-8843-38a7aeafc760"
    },
    {
        "name": "加賀神社",
        "prefectureName": "島根県",
        "cityName": "松江市",
        "streetName": "島根町加賀１４９０番地",
        "latitude": 35.56444561,
        "longitude": 133.06291902,
        "id": "0b6a8386-c168-4a28-a37c-b54a534584ec"
    },
    {
        "name": "勝日高守神社",
        "prefectureName": "島根県",
        "cityName": "安来市",
        "streetName": "広瀬町富田７８２番地",
        "latitude": 35.36026103,
        "longitude": 133.1861327,
        "id": "4aa2827a-56b6-4bbd-8d3e-71d50efb29aa"
    },
    {
        "name": "北乃惣神社",
        "prefectureName": "島根県",
        "cityName": "隠岐郡海士町",
        "streetName": "大字海士４４２７番地",
        "latitude": 36.10523672,
        "longitude": 133.09860507,
        "id": "809195b7-ca34-4ad9-a897-9368fdde8bdc"
    },
    {
        "name": "北方神社",
        "prefectureName": "島根県",
        "cityName": "隠岐郡隠岐の島町",
        "streetName": "北方８５９番地",
        "latitude": 36.29011661,
        "longitude": 133.23049373,
        "id": "d406d3ae-43fe-46a4-89e4-16cea95c92e2"
    },
    {
        "name": "北谷神社",
        "prefectureName": "島根県",
        "cityName": "隠岐郡隠岐の島町",
        "streetName": "代宮谷７０８番地",
        "latitude": 36.2089134,
        "longitude": 133.321972,
        "id": "a1a783c3-7efa-4d0e-a1a7-9dcd5c8e84bf"
    },
    {
        "name": "北野神社",
        "prefectureName": "島根県",
        "cityName": "隠岐郡海士町",
        "streetName": "大字知々井１６１８番地",
        "latitude": 36.07844009,
        "longitude": 133.1102911,
        "id": "a2ad0392-4775-4418-a4f8-b053373cd992"
    },
    {
        "name": "十九社神社",
        "prefectureName": "島根県",
        "cityName": "雲南市",
        "streetName": "加茂町大西２２９番地",
        "latitude": 35.33455796,
        "longitude": 132.91775235,
        "id": "c69738e3-d295-40ce-aed6-899cde08f410"
    },
    {
        "name": "十二所神社",
        "prefectureName": "島根県",
        "cityName": "松江市",
        "streetName": "大海崎町２６８番地",
        "latitude": 35.47178712,
        "longitude": 133.13651858,
        "id": "c447ede1-82e5-44f4-8866-2b46dd20a360"
    },
    {
        "name": "十二所神社",
        "prefectureName": "島根県",
        "cityName": "安来市",
        "streetName": "広瀬町富田３７３番地",
        "latitude": 35.36408855,
        "longitude": 133.19072387,
        "id": "c150cfa2-aab8-4600-b34e-e8c4344ea5f5"
    },
    {
        "name": "原鹿神社",
        "prefectureName": "島根県",
        "cityName": "出雲市",
        "streetName": "斐川町原鹿１５８８番地",
        "latitude": 35.4131606,
        "longitude": 132.81261538,
        "id": "8cef5d3d-687a-4492-8c7d-ef54c3807fd9"
    },
    {
        "name": "厳島神社",
        "prefectureName": "島根県",
        "cityName": "益田市",
        "streetName": "中須町４３４番地",
        "latitude": 34.69852502,
        "longitude": 131.83608972,
        "id": "249b56f0-4fbf-4309-8599-af9a0e19f851"
    },
    {
        "name": "厳島神社",
        "prefectureName": "島根県",
        "cityName": "浜田市",
        "streetName": "瀬戸ケ島町１４７番地",
        "latitude": 34.89996235,
        "longitude": 132.06114883,
        "id": "327da265-555b-4579-980a-a6adce0e81c8"
    },
    {
        "name": "古森神社",
        "prefectureName": "島根県",
        "cityName": "雲南市",
        "streetName": "木次町西日登１２３２番地",
        "latitude": 35.26264762,
        "longitude": 132.89543101,
        "id": "161fb9cc-271c-431f-898c-dec9eab678c6"
    },
    {
        "name": "古森神社",
        "prefectureName": "島根県",
        "cityName": "雲南市",
        "streetName": "木次町寺領１４２１番地",
        "latitude": 35.29900728,
        "longitude": 132.92167766,
        "id": "73b1ae30-8dbc-49db-ae28-b1e597ca7e8e"
    },
    {
        "name": "向津神社",
        "prefectureName": "島根県",
        "cityName": "松江市",
        "streetName": "宍道町東来待８４７番地",
        "latitude": 35.42071917,
        "longitude": 132.95961454,
        "id": "d45d5a02-f522-4f8f-8145-90806ffa243b"
    },
    {
        "name": "和気能須神社",
        "prefectureName": "島根県",
        "cityName": "隠岐郡隠岐の島町",
        "streetName": "下西１６０７番地",
        "latitude": 36.2089134,
        "longitude": 133.321972,
        "id": "690526c1-a348-4d37-bab1-8bf5bf1fcee1"
    },
    {
        "name": "嘉羅久利神社",
        "prefectureName": "島根県",
        "cityName": "安来市",
        "streetName": "広瀬町広瀬３６４番地",
        "latitude": 35.36317435,
        "longitude": 133.16861154,
        "id": "17d00178-bf76-48a2-80a5-9a9a085a23ea"
    },
    {
        "name": "嘯吹神社",
        "prefectureName": "島根県",
        "cityName": "雲南市",
        "streetName": "大東町大東１５２０番地",
        "latitude": 35.31993358,
        "longitude": 132.97835119,
        "id": "c7452fff-a935-4a0e-9019-bf5054ecc65f"
    },
    {
        "name": "嚴島神社",
        "prefectureName": "島根県",
        "cityName": "邑智郡美郷町",
        "streetName": "港１２０６番地",
        "latitude": 35.0767873,
        "longitude": 132.59057,
        "id": "356a39e5-8c2a-48a9-912e-f86b7b550388"
    },
    {
        "name": "嚴島神社",
        "prefectureName": "島根県",
        "cityName": "大田市",
        "streetName": "温泉津町上村１９６番地",
        "latitude": 35.09503311,
        "longitude": 132.34587071,
        "id": "b438539a-e2ba-48d7-bc04-d994bfd4d333"
    },
    {
        "name": "嚴島神社",
        "prefectureName": "島根県",
        "cityName": "浜田市",
        "streetName": "金城町七条イ１番地",
        "latitude": 34.85159651,
        "longitude": 132.15171492,
        "id": "05bc21e6-8264-4500-8ab0-2e5699f647ff"
    },
    {
        "name": "嚴島神社",
        "prefectureName": "島根県",
        "cityName": "大田市",
        "streetName": "温泉津町小浜イ１０９７番地",
        "latitude": 35.09503311,
        "longitude": 132.34587071,
        "id": "055a58ab-e5ba-4974-a304-111cfc2843e1"
    },
    {
        "name": "嚴島神社",
        "prefectureName": "島根県",
        "cityName": "益田市",
        "streetName": "馬谷町イ４３２番地",
        "latitude": 34.6428823,
        "longitude": 131.91390408,
        "id": "87929e4a-cfe6-44b1-8570-65ecc891f38d"
    },
    {
        "name": "嚴島神社",
        "prefectureName": "島根県",
        "cityName": "出雲市",
        "streetName": "八島町４００番地",
        "latitude": 35.38584034,
        "longitude": 132.72011127,
        "id": "0d0342dc-a487-40ef-826d-82ab13520c37"
    },
    {
        "name": "嚴島神社",
        "prefectureName": "島根県",
        "cityName": "鹿足郡吉賀町",
        "streetName": "樋口６２９番地３",
        "latitude": 34.37675369,
        "longitude": 131.99171904,
        "id": "6b19fa5c-0fc3-4291-8578-340cc294f913"
    },
    {
        "name": "嚴島神社",
        "prefectureName": "島根県",
        "cityName": "浜田市",
        "streetName": "折居町１０１３番地４",
        "latitude": 34.82434135,
        "longitude": 131.98498015,
        "id": "50ee52e8-d294-4a19-a89e-3d8577a4444f"
    },
    {
        "name": "嚴島神社",
        "prefectureName": "島根県",
        "cityName": "江津市",
        "streetName": "川平町平田ロの７４１番地",
        "latitude": 35.0114169,
        "longitude": 132.2209302,
        "id": "d46ae673-946c-4a28-9aa4-b69cb77f90c3"
    },
    {
        "name": "嚴島神社",
        "prefectureName": "島根県",
        "cityName": "江津市",
        "streetName": "後地町１８１１番地",
        "latitude": 35.04392741,
        "longitude": 132.28739298,
        "id": "63cdb1df-ee9b-4e16-b425-40382ddc1758"
    },
    {
        "name": "嚴島神社",
        "prefectureName": "島根県",
        "cityName": "浜田市",
        "streetName": "松原町３１７番地２",
        "latitude": 34.90404026,
        "longitude": 132.07533924,
        "id": "fb3c8911-95f0-414e-9aa2-d5ac45142bef"
    },
    {
        "name": "嚴島神社",
        "prefectureName": "島根県",
        "cityName": "隠岐郡隠岐の島町",
        "streetName": "今津１５５０番地",
        "latitude": 36.2089134,
        "longitude": 133.321972,
        "id": "5ffb2059-65c5-440a-84c6-ac8569c3b7ea"
    },
    {
        "name": "国主神社",
        "prefectureName": "島根県",
        "cityName": "安来市",
        "streetName": "伯太町下十年畑１５２番地",
        "latitude": 35.28696501,
        "longitude": 133.24513439,
        "id": "cae6dcce-0feb-47ff-bdf0-87c446821f6b"
    },
    {
        "name": "国分寺霹靂神社",
        "prefectureName": "島根県",
        "cityName": "大田市",
        "streetName": "仁摩町仁万１６０３番地",
        "latitude": 35.1662754,
        "longitude": 132.40664156,
        "id": "1efb146c-6c2b-47c2-8d06-023e5dbf69c8"
    },
    {
        "name": "國分寺霹靂神社",
        "prefectureName": "島根県",
        "cityName": "浜田市",
        "streetName": "国分町１９０５番地３",
        "latitude": 34.94339244,
        "longitude": 132.12128673,
        "id": "cb0c3672-5d5a-4176-a23b-e4f527524f65"
    },
    {
        "name": "國司神社",
        "prefectureName": "島根県",
        "cityName": "松江市",
        "streetName": "西長江町５１２番地",
        "latitude": 35.49715025,
        "longitude": 132.96763556,
        "id": "6e75732e-e6d3-4d46-8063-8158b395777f"
    },
    {
        "name": "國吉神社",
        "prefectureName": "島根県",
        "cityName": "隠岐郡隠岐の島町",
        "streetName": "油井国吉平１６番地",
        "latitude": 36.2089134,
        "longitude": 133.321972,
        "id": "baf3a79d-73b4-4ea3-9559-d36d13ca7b22"
    },
    {
        "name": "國府尾神社",
        "prefectureName": "島根県",
        "cityName": "隠岐郡隠岐の島町",
        "streetName": "港町城山７番地",
        "latitude": 36.2089134,
        "longitude": 133.321972,
        "id": "49eb2363-fca5-45fb-982b-a4e63a56faac"
    },
    {
        "name": "國村神社",
        "prefectureName": "島根県",
        "cityName": "出雲市",
        "streetName": "多伎町久村１２８９番地",
        "latitude": 35.29647123,
        "longitude": 132.6458931,
        "id": "b5678a8f-f72b-42c0-b0cb-c8a81c908b53"
    },
    {
        "name": "國玉神社",
        "prefectureName": "島根県",
        "cityName": "雲南市",
        "streetName": "木次町寺領２１０４番地１",
        "latitude": 35.29373523,
        "longitude": 132.90063541,
        "id": "25967a31-d554-4edc-ae1c-0d38c98779ad"
    },
    {
        "name": "國魂神社",
        "prefectureName": "島根県",
        "cityName": "雲南市",
        "streetName": "大東町下久野２３８番地",
        "latitude": 35.32410789,
        "longitude": 132.96859392,
        "id": "c0786b77-924c-4636-b5a4-3b1314d2e865"
    },
    {
        "name": "地神神社",
        "prefectureName": "島根県",
        "cityName": "松江市",
        "streetName": "八束町二子５０１番地",
        "latitude": 35.50362702,
        "longitude": 133.1686036,
        "id": "4cce02ba-3cc6-4e56-964a-87f12890dbd5"
    },
    {
        "name": "坂本神社",
        "prefectureName": "島根県",
        "cityName": "雲南市",
        "streetName": "三刀屋町坂本２７０番地",
        "latitude": 35.2428523,
        "longitude": 132.82994969,
        "id": "44ac8760-735a-4889-b014-8b1b91300bdc"
    },
    {
        "name": "坂本神社",
        "prefectureName": "島根県",
        "cityName": "雲南市",
        "streetName": "大東町薦澤９２３番地３",
        "latitude": 35.32410789,
        "longitude": 132.96859392,
        "id": "f3a4fc57-a81c-41dd-aa6f-a640b1b352b7"
    },
    {
        "name": "埀水神社",
        "prefectureName": "島根県",
        "cityName": "出雲市",
        "streetName": "河下町５４９番地",
        "latitude": 35.44716435,
        "longitude": 132.74573698,
        "id": "3d1bcfb0-7b65-49a0-ac08-e4d0f6b069df"
    },
    {
        "name": "城上神社",
        "prefectureName": "島根県",
        "cityName": "大田市",
        "streetName": "大森町イ１４７７番地",
        "latitude": 35.12268674,
        "longitude": 132.44833833,
        "id": "2030658b-6e3c-4fc9-933a-baaf3c7e0494"
    },
    {
        "name": "堅磐神社",
        "prefectureName": "島根県",
        "cityName": "隠岐郡隠岐の島町",
        "streetName": "南方１２２２番地",
        "latitude": 36.28415354,
        "longitude": 133.23069106,
        "id": "69eec94e-9db3-426e-8933-932f836fbb95"
    },
    {
        "name": "堤神社",
        "prefectureName": "島根県",
        "cityName": "安来市",
        "streetName": "広瀬町菅原２０１７番地",
        "latitude": 35.36381332,
        "longitude": 133.17426664,
        "id": "b6791bca-9473-4bfc-b98c-3b7053ab491a"
    },
    {
        "name": "塩冶神社",
        "prefectureName": "島根県",
        "cityName": "出雲市",
        "streetName": "上塩冶町１７４９番地７",
        "latitude": 35.35234789,
        "longitude": 132.76433572,
        "id": "95635206-10c4-4598-8b44-a383f19e49fa"
    },
    {
        "name": "塩津神社",
        "prefectureName": "島根県",
        "cityName": "安来市",
        "streetName": "久白町４１５番地続１",
        "latitude": 35.42554803,
        "longitude": 133.20904827,
        "id": "ca5d4afd-e1cf-49b1-91df-ffd6acc65824"
    },
    {
        "name": "壇鏡神社",
        "prefectureName": "島根県",
        "cityName": "隠岐郡隠岐の島町",
        "streetName": "那久１６１７番地",
        "latitude": 36.2089134,
        "longitude": 133.321972,
        "id": "8599aac5-383e-4ba0-8810-a304a0fcf86d"
    },
    {
        "name": "売豆紀神社",
        "prefectureName": "島根県",
        "cityName": "松江市",
        "streetName": "雑賀町１６６３番地",
        "latitude": 35.45521652,
        "longitude": 133.0638988,
        "id": "fb37c237-899f-479d-bedc-f84f2cfaa170"
    },
    {
        "name": "多久神社",
        "prefectureName": "島根県",
        "cityName": "松江市",
        "streetName": "鹿島町南講武６０２番地",
        "latitude": 35.52606687,
        "longitude": 132.97650294,
        "id": "8aa607e7-1441-45a2-ba68-d6ef2e4022b8"
    },
    {
        "name": "多久神社",
        "prefectureName": "島根県",
        "cityName": "出雲市",
        "streetName": "多久町２７４番地",
        "latitude": 35.47143585,
        "longitude": 132.84853407,
        "id": "b6f0d165-5ce3-4094-84ed-1c5c23bbea6c"
    },
    {
        "name": "多井神社",
        "prefectureName": "島根県",
        "cityName": "隠岐郡海士町",
        "streetName": "大字崎８８５番地",
        "latitude": 36.05824744,
        "longitude": 133.09521263,
        "id": "f7f0f4f9-21c6-4cba-aab4-cdae47362bbf"
    },
    {
        "name": "多伎神社",
        "prefectureName": "島根県",
        "cityName": "出雲市",
        "streetName": "多伎町多岐６３９番地",
        "latitude": 35.28392581,
        "longitude": 132.63426699,
        "id": "841b135d-5e51-4f83-aaf3-53f402a524e2"
    },
    {
        "name": "多伎藝神社",
        "prefectureName": "島根県",
        "cityName": "出雲市",
        "streetName": "多伎町口田儀１３６５番地",
        "latitude": 35.25015829,
        "longitude": 132.59246839,
        "id": "e5122412-2add-46ac-990c-739d9babb535"
    },
    {
        "name": "多倍神社",
        "prefectureName": "島根県",
        "cityName": "出雲市",
        "streetName": "佐田町反邊１０６４番地",
        "latitude": 35.23962521,
        "longitude": 132.7114311,
        "id": "0d2d3d35-e50d-4230-ab63-c258cfbe055a"
    },
    {
        "name": "多太神社",
        "prefectureName": "島根県",
        "cityName": "松江市",
        "streetName": "岡本町８７６番地",
        "latitude": 35.48831733,
        "longitude": 132.94547964,
        "id": "0dff201f-4ae4-4d82-918e-76b695cd4233"
    },
    {
        "name": "多根神社",
        "prefectureName": "島根県",
        "cityName": "雲南市",
        "streetName": "掛合町多根１４８５番地",
        "latitude": 35.19516357,
        "longitude": 132.8157826,
        "id": "77a8f4b1-7710-4950-ac30-71651d48846f"
    },
    {
        "name": "多氣神社",
        "prefectureName": "島根県",
        "cityName": "松江市",
        "streetName": "上宇部尾町３３２番地",
        "latitude": 35.4680925,
        "longitude": 133.0485218,
        "id": "c3a4c660-7251-4926-8b61-2238b2654433"
    },
    {
        "name": "多澤神社",
        "prefectureName": "島根県",
        "cityName": "隠岐郡知夫村",
        "streetName": "５２２番地",
        "latitude": 36.00810423,
        "longitude": 133.05085686,
        "id": "14e7d415-c07c-43b2-b6af-1835241e9c3e"
    },
    {
        "name": "多芸神社",
        "prefectureName": "島根県",
        "cityName": "松江市",
        "streetName": "荘成町５５４番地１",
        "latitude": 35.4680925,
        "longitude": 133.0485218,
        "id": "253deb66-506e-4c8b-93f5-4df5d2a9035a"
    },
    {
        "name": "多賀神社",
        "prefectureName": "島根県",
        "cityName": "松江市",
        "streetName": "朝酌町９７０番地",
        "latitude": 35.4556844,
        "longitude": 133.10154886,
        "id": "6e227f41-0f8c-460d-9704-7d3579f8a66b"
    },
    {
        "name": "多鳩神社",
        "prefectureName": "島根県",
        "cityName": "江津市",
        "streetName": "二宮町神主イ３０７番地",
        "latitude": 34.96960218,
        "longitude": 132.20129115,
        "id": "69451432-5a12-4c23-a1ff-1215c660962d"
    },
    {
        "name": "夜長神社",
        "prefectureName": "島根県",
        "cityName": "隠岐郡隠岐の島町",
        "streetName": "都万２９８２番地",
        "latitude": 36.19509364,
        "longitude": 133.22455266,
        "id": "d8821337-7dd2-44d6-959b-98546720dbec"
    },
    {
        "name": "夜須神社",
        "prefectureName": "島根県",
        "cityName": "江津市",
        "streetName": "二宮町神村１７４９番地",
        "latitude": 34.97367398,
        "longitude": 132.20497134,
        "id": "74370a1e-15c6-4273-a35e-0697005fc2d9"
    },
    {
        "name": "大三島神社",
        "prefectureName": "島根県",
        "cityName": "浜田市",
        "streetName": "鍋石町５１５番地",
        "latitude": 34.8099997,
        "longitude": 132.07230249,
        "id": "7c5ddae8-0af7-4606-a301-149b3d765491"
    },
    {
        "name": "大久神社",
        "prefectureName": "島根県",
        "cityName": "隠岐郡隠岐の島町",
        "streetName": "大久下１５番２",
        "latitude": 36.2089134,
        "longitude": 133.321972,
        "id": "f4435de6-919e-441b-a087-b8423fe4290c"
    },
    {
        "name": "大井神社",
        "prefectureName": "島根県",
        "cityName": "松江市",
        "streetName": "大井町５１０番地",
        "latitude": 35.46566504,
        "longitude": 133.122404,
        "id": "58390e35-9f91-4891-b6ce-72af5cd36360"
    },
    {
        "name": "大井神社",
        "prefectureName": "島根県",
        "cityName": "松江市",
        "streetName": "鹿島町名分１２４２番地",
        "latitude": 35.50957856,
        "longitude": 133.01688821,
        "id": "b381775c-f356-4b60-8a9f-7308e94c2ea1"
    },
    {
        "name": "大井神社",
        "prefectureName": "島根県",
        "cityName": "雲南市",
        "streetName": "三刀屋町根波別所５８２番地",
        "latitude": 35.28644637,
        "longitude": 132.80919461,
        "id": "0dc15031-d7cd-415e-a7f1-76dd854d1ca8"
    },
    {
        "name": "大元神社",
        "prefectureName": "島根県",
        "cityName": "益田市",
        "streetName": "薄原町イ２４０番地",
        "latitude": 34.6748999,
        "longitude": 131.8425783,
        "id": "47b0a644-bf7b-4170-9f0b-7612d3b145f9"
    },
    {
        "name": "大元神社",
        "prefectureName": "島根県",
        "cityName": "益田市",
        "streetName": "匹見町落合ニ６６８番地",
        "latitude": 34.57037062,
        "longitude": 132.0153062,
        "id": "fea44548-fdae-497c-b888-0571421438c1"
    },
    {
        "name": "大元神社",
        "prefectureName": "島根県",
        "cityName": "浜田市",
        "streetName": "三隅町芦谷３５５番地",
        "latitude": 34.78924748,
        "longitude": 131.9949329,
        "id": "9c228d37-23ef-4d06-9c6b-441c9e201357"
    },
    {
        "name": "大元神社",
        "prefectureName": "島根県",
        "cityName": "江津市",
        "streetName": "千田町６２１番地",
        "latitude": 34.96299179,
        "longitude": 132.21390411,
        "id": "f24e766b-e718-41d9-a4b6-716a67819e16"
    },
    {
        "name": "大元神社",
        "prefectureName": "島根県",
        "cityName": "益田市",
        "streetName": "猪木谷町イ２３番地３",
        "latitude": 34.6748999,
        "longitude": 131.8425783,
        "id": "853ad79f-ef5d-45cc-bf79-f9ad4e9a7fee"
    },
    {
        "name": "大元神社",
        "prefectureName": "島根県",
        "cityName": "鹿足郡津和野町",
        "streetName": "直地４４番地",
        "latitude": 34.48332196,
        "longitude": 131.80145382,
        "id": "874132a5-0350-4bf4-b25a-60bae4b82730"
    },
    {
        "name": "大元神社",
        "prefectureName": "島根県",
        "cityName": "益田市",
        "streetName": "匹見町落合イ１７０番地",
        "latitude": 34.59411268,
        "longitude": 132.01779978,
        "id": "03e1d9c1-e901-409d-a5c1-a0e634762282"
    },
    {
        "name": "大元神社",
        "prefectureName": "島根県",
        "cityName": "鹿足郡津和野町",
        "streetName": "左鐙１９３７番地８",
        "latitude": 34.52514745,
        "longitude": 131.87122197,
        "id": "7c1ef35a-44b1-4be6-8338-38bdbba5d156"
    },
    {
        "name": "大元神社",
        "prefectureName": "島根県",
        "cityName": "益田市",
        "streetName": "中吉田町５８７番地",
        "latitude": 34.68905934,
        "longitude": 131.83866741,
        "id": "7e161db2-6ad2-40e5-a260-79d66f583889"
    },
    {
        "name": "大元神社",
        "prefectureName": "島根県",
        "cityName": "浜田市",
        "streetName": "横山町６６６番地",
        "latitude": 34.830178,
        "longitude": 132.03628817,
        "id": "49973fd8-2900-4dfb-a74f-e03445f9a890"
    },
    {
        "name": "大元神社",
        "prefectureName": "島根県",
        "cityName": "益田市",
        "streetName": "下本郷町８７２番地４",
        "latitude": 34.6748999,
        "longitude": 131.8425783,
        "id": "04ac748d-c41d-440a-aceb-529a53a64c09"
    },
    {
        "name": "大元神社",
        "prefectureName": "島根県",
        "cityName": "浜田市",
        "streetName": "西村町１５３６番地乙",
        "latitude": 34.8990908,
        "longitude": 132.0796832,
        "id": "54b840cc-c86b-4e01-b93a-317397d93d5c"
    },
    {
        "name": "大元神社",
        "prefectureName": "島根県",
        "cityName": "大田市",
        "streetName": "温泉津町荻村８４２番地",
        "latitude": 35.09503311,
        "longitude": 132.34587071,
        "id": "c71366e9-9918-46f3-a293-9ec0f21b223f"
    },
    {
        "name": "大元神社",
        "prefectureName": "島根県",
        "cityName": "浜田市",
        "streetName": "田橋町５１８番地甲２",
        "latitude": 34.83339717,
        "longitude": 132.04741795,
        "id": "f73e9db5-ec64-488f-bc9a-63f5bbcb24df"
    },
    {
        "name": "大元神社",
        "prefectureName": "島根県",
        "cityName": "浜田市",
        "streetName": "弥栄町門田５８７番地乙",
        "latitude": 34.78461361,
        "longitude": 132.12923748,
        "id": "c0f4cf7b-e7a6-43a5-b4c7-cc11616304fd"
    },
    {
        "name": "大元神社",
        "prefectureName": "島根県",
        "cityName": "益田市",
        "streetName": "薄原町ロ２１８番地",
        "latitude": 34.59797019,
        "longitude": 131.84446953,
        "id": "1bc774c8-d283-45ea-ae0a-c6f8f99e049c"
    },
    {
        "name": "大元神社",
        "prefectureName": "島根県",
        "cityName": "益田市",
        "streetName": "三宅町８番８号",
        "latitude": 34.67723322,
        "longitude": 131.85558552,
        "id": "8a34aa62-92b7-4b14-9f3c-b9fa750a1117"
    },
    {
        "name": "大元神社",
        "prefectureName": "島根県",
        "cityName": "益田市",
        "streetName": "左ヶ山町イ２４４番地",
        "latitude": 34.64600044,
        "longitude": 131.8425625,
        "id": "d46e263e-cb0e-4e92-8774-20d3e82671a3"
    },
    {
        "name": "大元神社",
        "prefectureName": "島根県",
        "cityName": "益田市",
        "streetName": "匹見町道川ロ１８１番地３",
        "latitude": 34.61212559,
        "longitude": 132.06935791,
        "id": "e8ea3c0d-1794-42f0-bdfe-214ee2aaa685"
    },
    {
        "name": "大元神社",
        "prefectureName": "島根県",
        "cityName": "益田市",
        "streetName": "多田町７７５番地",
        "latitude": 34.6748999,
        "longitude": 131.8425783,
        "id": "7f5fd59f-20ea-4dc5-9e6a-33e91928ce88"
    },
    {
        "name": "大元神社",
        "prefectureName": "島根県",
        "cityName": "益田市",
        "streetName": "匹見町広瀬イ１２０番地１",
        "latitude": 34.57037062,
        "longitude": 132.0153062,
        "id": "92895e00-333c-4d83-9dc8-9bcc5a2b0943"
    },
    {
        "name": "大内神社",
        "prefectureName": "島根県",
        "cityName": "松江市",
        "streetName": "東出雲町揖屋５９６番地",
        "latitude": 35.42792569,
        "longitude": 133.14510012,
        "id": "829e52a4-1933-4cd8-b807-8058a87c5ec8"
    },
    {
        "name": "大原神社",
        "prefectureName": "島根県",
        "cityName": "邑智郡邑南町",
        "streetName": "日貫３３７８番地",
        "latitude": 34.88473444,
        "longitude": 132.3588289,
        "id": "bb79c747-a833-4d59-8f98-0f382074d7d9"
    },
    {
        "name": "大原神社",
        "prefectureName": "島根県",
        "cityName": "仁多郡奥出雲町",
        "streetName": "上阿井２番地",
        "latitude": 35.15383612,
        "longitude": 132.95827611,
        "id": "e6390bab-5141-4b4d-b9b8-0a697e96278f"
    },
    {
        "name": "大呂神社",
        "prefectureName": "島根県",
        "cityName": "出雲市",
        "streetName": "佐田町大呂４７２番地２",
        "latitude": 35.21386766,
        "longitude": 132.7201173,
        "id": "c5ad0d36-f90a-4e2c-896d-11745aef48b8"
    },
    {
        "name": "大呂神社",
        "prefectureName": "島根県",
        "cityName": "仁多郡奥出雲町",
        "streetName": "大呂１３９番地",
        "latitude": 35.19147847,
        "longitude": 133.11907986,
        "id": "ae3fef00-5674-4712-8458-a55dd66f84bf"
    },
    {
        "name": "大土神社",
        "prefectureName": "島根県",
        "cityName": "出雲市",
        "streetName": "平野町１８４番地",
        "latitude": 35.38964281,
        "longitude": 132.74362274,
        "id": "c523045b-0aa6-475b-96de-9d7eba7ab887"
    },
    {
        "name": "大塚神社",
        "prefectureName": "島根県",
        "cityName": "益田市",
        "streetName": "中島町イ１４３８番地",
        "latitude": 34.6966861,
        "longitude": 131.82707941,
        "id": "bbe4b12b-fd71-4da1-84a5-21f0d4d9fa48"
    },
    {
        "name": "大宮神社",
        "prefectureName": "島根県",
        "cityName": "出雲市",
        "streetName": "大社町鵜峠１１５番地",
        "latitude": 35.44462779,
        "longitude": 132.70125752,
        "id": "475f534f-4951-4820-9b17-8cb4ca526c0a"
    },
    {
        "name": "大屋姫命神社",
        "prefectureName": "島根県",
        "cityName": "大田市",
        "streetName": "大屋町大屋２６１番地１",
        "latitude": 35.15700181,
        "longitude": 132.45693571,
        "id": "ac1007e4-4e06-4d62-82df-5e788151f4fc"
    },
    {
        "name": "大山代神社",
        "prefectureName": "島根県",
        "cityName": "松江市",
        "streetName": "西津田５丁目１３番３０号",
        "latitude": 35.45630545,
        "longitude": 133.0738452,
        "id": "4ca32d33-6482-4c39-938a-0bb5507f3775"
    },
    {
        "name": "大山祗命神社",
        "prefectureName": "島根県",
        "cityName": "江津市",
        "streetName": "桜江町今田５０８番地、３５７番地",
        "latitude": 34.94059488,
        "longitude": 132.33690476,
        "id": "889186e2-1e2f-496d-82ac-4c23c65ca41b"
    },
    {
        "name": "大山神社",
        "prefectureName": "島根県",
        "cityName": "出雲市",
        "streetName": "小山町１１０番地",
        "latitude": 35.3744249,
        "longitude": 132.74500949,
        "id": "d2ad54f0-aaf2-4ffe-8f88-a39d77c7ba5b"
    },
    {
        "name": "大山神社",
        "prefectureName": "島根県",
        "cityName": "隠岐郡西ノ島町",
        "streetName": "大字美田１７４番地",
        "latitude": 36.09928744,
        "longitude": 133.01887273,
        "id": "32497053-ec3c-4fdd-bd97-ee5b7903fbbd"
    },
    {
        "name": "大山神社",
        "prefectureName": "島根県",
        "cityName": "隠岐郡知夫村",
        "streetName": "２３９０番地",
        "latitude": 36.00938131,
        "longitude": 133.02865614,
        "id": "62248e15-4c06-4e7d-b132-a10d024a9065"
    },
    {
        "name": "大岡神社",
        "prefectureName": "島根県",
        "cityName": "鹿足郡吉賀町",
        "streetName": "広石９６０番地乙",
        "latitude": 34.3535239,
        "longitude": 131.9351687,
        "id": "5c562cad-caad-4a14-9a81-6328f07e1e2c"
    },
    {
        "name": "大島神社",
        "prefectureName": "島根県",
        "cityName": "出雲市",
        "streetName": "大島町１０６３番地",
        "latitude": 35.34268296,
        "longitude": 132.68843808,
        "id": "431f6899-fa5b-40d4-bfac-077a89be8c35"
    },
    {
        "name": "大島神社",
        "prefectureName": "島根県",
        "cityName": "江津市",
        "streetName": "黒松町１０６５番１地",
        "latitude": 35.05810124,
        "longitude": 132.31190191,
        "id": "8e7354af-6337-4148-8cc0-6b4a1faef799"
    },
    {
        "name": "大年神社",
        "prefectureName": "島根県",
        "cityName": "浜田市",
        "streetName": "国分町１８１２番地",
        "latitude": 34.94271172,
        "longitude": 132.10941542,
        "id": "e8bbe966-2879-4d7d-b95f-53dcb1d048a2"
    },
    {
        "name": "大年神社",
        "prefectureName": "島根県",
        "cityName": "浜田市",
        "streetName": "宇津井町９８２番地８",
        "latitude": 34.90964381,
        "longitude": 132.17243058,
        "id": "3fb88c6a-33cd-4c64-8510-767d84de1d6c"
    },
    {
        "name": "大年神社",
        "prefectureName": "島根県",
        "cityName": "江津市",
        "streetName": "渡津町２０７０番地",
        "latitude": 35.03222846,
        "longitude": 132.23847552,
        "id": "9d18380f-73f3-416c-ade2-d2dc9e41dc05"
    },
    {
        "name": "大年神社",
        "prefectureName": "島根県",
        "cityName": "大田市",
        "streetName": "大屋町鬼村６８１番地",
        "latitude": 35.15700181,
        "longitude": 132.45693571,
        "id": "67469972-f450-4254-80ff-dd1e8e3f986c"
    },
    {
        "name": "大年神社",
        "prefectureName": "島根県",
        "cityName": "江津市",
        "streetName": "和木町４１番地",
        "latitude": 34.99592149,
        "longitude": 132.19862713,
        "id": "63cde373-a217-4f55-b738-fb7dbc1e6cea"
    },
    {
        "name": "大年神社",
        "prefectureName": "島根県",
        "cityName": "出雲市",
        "streetName": "荒茅町１１７５番地",
        "latitude": 35.3679449,
        "longitude": 132.69969164,
        "id": "bbc5f520-3952-4d93-b9d7-d1233f0c5494"
    },
    {
        "name": "大年神社",
        "prefectureName": "島根県",
        "cityName": "大田市",
        "streetName": "静間町１６４１番地",
        "latitude": 35.1921061,
        "longitude": 132.4992923,
        "id": "b825e8de-594c-4773-a2f3-c2123013fff6"
    },
    {
        "name": "大年神社",
        "prefectureName": "島根県",
        "cityName": "江津市",
        "streetName": "都野津町２２２２番地",
        "latitude": 35.0114169,
        "longitude": 132.2209302,
        "id": "dd9c9abe-2cc1-41a4-8d05-431510d7532b"
    },
    {
        "name": "大年神社",
        "prefectureName": "島根県",
        "cityName": "邑智郡川本町",
        "streetName": "大字川下３６９７番地",
        "latitude": 34.995305,
        "longitude": 132.4959319,
        "id": "0c71eff5-ee03-4385-94bc-a2b2ce97c600"
    },
    {
        "name": "大日霊神社",
        "prefectureName": "島根県",
        "cityName": "益田市",
        "streetName": "木部町イ１１９３番地３",
        "latitude": 34.7414806,
        "longitude": 131.87325751,
        "id": "f9b654b1-fea5-43ec-be65-4c30f21d30a8"
    },
    {
        "name": "大月神社",
        "prefectureName": "島根県",
        "cityName": "雲南市",
        "streetName": "大東町金成２３０番地１２",
        "latitude": 35.32410789,
        "longitude": 132.96859392,
        "id": "e3df1533-f767-417e-8845-68a0a912c5b2"
    },
    {
        "name": "大森神社",
        "prefectureName": "島根県",
        "cityName": "雲南市",
        "streetName": "木次町東日登１３４５番地",
        "latitude": 35.29373523,
        "longitude": 132.90063541,
        "id": "728d45a1-b958-48e9-87a8-bdd11bb1fb7d"
    },
    {
        "name": "大森神社",
        "prefectureName": "島根県",
        "cityName": "松江市",
        "streetName": "宍道町佐々布７３８番地",
        "latitude": 35.38599019,
        "longitude": 132.90999607,
        "id": "eb78140a-32dc-4711-81bb-1d59b34c257b"
    },
    {
        "name": "大森神社",
        "prefectureName": "島根県",
        "cityName": "安来市",
        "streetName": "伯太町安田中３７４番地",
        "latitude": 35.36807653,
        "longitude": 133.28538385,
        "id": "43e31755-7ead-4b4b-bcaf-dc808e8f6342"
    },
    {
        "name": "大槇神社",
        "prefectureName": "島根県",
        "cityName": "安来市",
        "streetName": "広瀬町西谷４０６番地",
        "latitude": 35.2754665,
        "longitude": 133.12503169,
        "id": "fb7b7987-54b3-4f5e-b6c3-96276edd9858"
    },
    {
        "name": "大歳神社",
        "prefectureName": "島根県",
        "cityName": "出雲市",
        "streetName": "猪目町２２９番地",
        "latitude": 35.43852603,
        "longitude": 132.71157629,
        "id": "e998200a-4857-49ab-a75e-2c853fde96a4"
    },
    {
        "name": "大歳神社",
        "prefectureName": "島根県",
        "cityName": "浜田市",
        "streetName": "金城町長田イ４番地",
        "latitude": 34.7772657,
        "longitude": 132.1965737,
        "id": "15cf42f5-0e3d-4d76-8519-f2bf0dad237e"
    },
    {
        "name": "大歳神社",
        "prefectureName": "島根県",
        "cityName": "出雲市",
        "streetName": "大塚町８０４番地",
        "latitude": 35.37900234,
        "longitude": 132.74969207,
        "id": "d574b477-3b58-4096-9d2e-3894170d1995"
    },
    {
        "name": "大歳神社",
        "prefectureName": "島根県",
        "cityName": "浜田市",
        "streetName": "大金町向佐古田イ８４２番地",
        "latitude": 34.94640988,
        "longitude": 132.17942376,
        "id": "23fc7840-c36d-42b4-af73-ff37c7b04a45"
    },
    {
        "name": "大歳神社",
        "prefectureName": "島根県",
        "cityName": "浜田市",
        "streetName": "三隅町下古和１７３番地",
        "latitude": 34.73425322,
        "longitude": 131.99843145,
        "id": "7b347391-5bbf-4355-847f-6b46bd0090fe"
    },
    {
        "name": "大歳神社",
        "prefectureName": "島根県",
        "cityName": "安来市",
        "streetName": "広瀬町祖父谷３５７番地、１９６番地",
        "latitude": 35.36908462,
        "longitude": 133.15670115,
        "id": "c0d51fd0-6595-45f3-9927-f28877f5f5c0"
    },
    {
        "name": "大歳神社",
        "prefectureName": "島根県",
        "cityName": "浜田市",
        "streetName": "長見町８０番地１",
        "latitude": 34.84821243,
        "longitude": 132.09769145,
        "id": "63e87305-991c-4d3c-98d8-d1445b2095d8"
    },
    {
        "name": "大歳神社",
        "prefectureName": "島根県",
        "cityName": "雲南市",
        "streetName": "三刀屋町乙加宮１２１９番地",
        "latitude": 35.26476892,
        "longitude": 132.83012454,
        "id": "e5cff401-9989-4776-80b4-4aed6ab81910"
    },
    {
        "name": "大歳神社",
        "prefectureName": "島根県",
        "cityName": "出雲市",
        "streetName": "野尻町６９０番地",
        "latitude": 35.29024023,
        "longitude": 132.79957025,
        "id": "5a3c4031-d9da-444d-9384-241947d3e771"
    },
    {
        "name": "大歳神社",
        "prefectureName": "島根県",
        "cityName": "浜田市",
        "streetName": "元浜町２２２番地２",
        "latitude": 34.89559645,
        "longitude": 132.06868169,
        "id": "9ef6fbbe-0c32-4272-ada9-eacb880ec8fc"
    },
    {
        "name": "大歳神社",
        "prefectureName": "島根県",
        "cityName": "益田市",
        "streetName": "左ヶ山町ロ３７３番地",
        "latitude": 34.6748999,
        "longitude": 131.8425783,
        "id": "9e0193ef-daee-401c-b6ff-0bebbcd9abcb"
    },
    {
        "name": "大歳神社",
        "prefectureName": "島根県",
        "cityName": "浜田市",
        "streetName": "櫟田原町５３９番地",
        "latitude": 34.8990908,
        "longitude": 132.0796832,
        "id": "bd142124-4bca-4849-95a5-4bc04fb4bc49"
    },
    {
        "name": "大歳神社",
        "prefectureName": "島根県",
        "cityName": "邑智郡美郷町",
        "streetName": "滝原４３５番地",
        "latitude": 35.0767873,
        "longitude": 132.59057,
        "id": "f576fc34-f160-4d7a-a17e-d8b1dcba9a98"
    },
    {
        "name": "大歳神社",
        "prefectureName": "島根県",
        "cityName": "大田市",
        "streetName": "温泉津町吉浦３９０番地",
        "latitude": 35.06579211,
        "longitude": 132.31747918,
        "id": "5a9ad9bf-08c4-4c53-b999-5302de88fe8c"
    },
    {
        "name": "大歳神社",
        "prefectureName": "島根県",
        "cityName": "浜田市",
        "streetName": "弥栄町小坂２４８番地乙",
        "latitude": 34.77663657,
        "longitude": 132.10653936,
        "id": "01605de9-8780-48ad-a75c-2f4ec29b8280"
    },
    {
        "name": "大歳神社",
        "prefectureName": "島根県",
        "cityName": "安来市",
        "streetName": "門生町２９４番地",
        "latitude": 35.40814511,
        "longitude": 133.29643699,
        "id": "33be5871-b056-432d-ac8e-80785310b496"
    },
    {
        "name": "大歳金山彦神社",
        "prefectureName": "島根県",
        "cityName": "邑智郡川本町",
        "streetName": "大字北佐木３８５番地１",
        "latitude": 34.995305,
        "longitude": 132.4959319,
        "id": "80428f80-b3cd-46af-b60a-fbccb99650a0"
    },
    {
        "name": "大渡神社",
        "prefectureName": "島根県",
        "cityName": "安来市",
        "streetName": "伯太町西母里５１９番地",
        "latitude": 35.34161426,
        "longitude": 133.24896004,
        "id": "fcbd2acf-54b9-4f86-a2e3-778ecb13f8b1"
    },
    {
        "name": "大祭天石門彦神社",
        "prefectureName": "島根県",
        "cityName": "浜田市",
        "streetName": "相生町１５７１番地",
        "latitude": 34.89408352,
        "longitude": 132.10409214,
        "id": "32a4227b-fa01-4947-8f55-8362c70905c8"
    },
    {
        "name": "大谷神社",
        "prefectureName": "島根県",
        "cityName": "仁多郡奥出雲町",
        "streetName": "大谷１１２２番地",
        "latitude": 35.1975099,
        "longitude": 133.0024425,
        "id": "9c161402-db87-40a7-83e9-06f02b6749e0"
    },
    {
        "name": "大野津神社",
        "prefectureName": "島根県",
        "cityName": "松江市",
        "streetName": "大野町２４３番地",
        "latitude": 35.46583051,
        "longitude": 132.91826098,
        "id": "304acf2b-1831-41f9-a7e2-456a6bbe35cd"
    },
    {
        "name": "大領神社",
        "prefectureName": "島根県",
        "cityName": "仁多郡奥出雲町",
        "streetName": "郡５９７番地",
        "latitude": 35.225054,
        "longitude": 133.04481687,
        "id": "2c60e953-71a9-4043-9d4d-84d501a25561"
    },
    {
        "name": "大飯彦命神社",
        "prefectureName": "島根県",
        "cityName": "江津市",
        "streetName": "松川町太田１９９番地",
        "latitude": 35.01381672,
        "longitude": 132.24894709,
        "id": "1cc82269-ed93-4ce5-a8fa-85d065b5502c"
    },
    {
        "name": "大麻山神社",
        "prefectureName": "島根県",
        "cityName": "浜田市",
        "streetName": "三隅町室谷１０９７番地乙",
        "latitude": 34.82011985,
        "longitude": 132.01052856,
        "id": "891f750a-88e0-4f19-af4f-8e2022d1ae91"
    },
    {
        "name": "大＿川邊神社",
        "prefectureName": "島根県",
        "cityName": "松江市",
        "streetName": "島根町大芦２２０９番地",
        "latitude": 35.55246316,
        "longitude": 133.05162366,
        "id": "f9418583-7fbf-433e-97f9-25d933024edd"
    },
    {
        "name": "大＿神社",
        "prefectureName": "島根県",
        "cityName": "松江市",
        "streetName": "島根町大芦２１０６番地",
        "latitude": 35.55318234,
        "longitude": 133.04598542,
        "id": "d40832ce-e717-48ec-89d6-43399f6c5305"
    },
    {
        "name": "天之素盞神社",
        "prefectureName": "島根県",
        "cityName": "出雲市",
        "streetName": "渡橋町６１４番地",
        "latitude": 35.36402323,
        "longitude": 132.74548491,
        "id": "acbdc622-df25-40f0-8514-b2bb913dcaef"
    },
    {
        "name": "天佐志比古命神社",
        "prefectureName": "島根県",
        "cityName": "隠岐郡知夫村",
        "streetName": "１０１８番地",
        "latitude": 36.014206,
        "longitude": 133.0396022,
        "id": "7a382740-48e7-4c85-9733-675c282ec808"
    },
    {
        "name": "天健金草神社",
        "prefectureName": "島根県",
        "cityName": "隠岐郡隠岐の島町",
        "streetName": "都万４２４３番地",
        "latitude": 36.20558952,
        "longitude": 133.23103787,
        "id": "7880a235-2f54-454f-a6d8-6e00c5b26d7b"
    },
    {
        "name": "天宮神社",
        "prefectureName": "島根県",
        "cityName": "松江市",
        "streetName": "宍道町西来待１７６５番地",
        "latitude": 35.39716234,
        "longitude": 132.94234214,
        "id": "d2ac1fe7-20ad-4fbf-893f-746e9e819193"
    },
    {
        "name": "天津神社",
        "prefectureName": "島根県",
        "cityName": "雲南市",
        "streetName": "加茂町大崎１５６番地",
        "latitude": 35.35690454,
        "longitude": 132.89680101,
        "id": "55627a53-abb4-4fae-ae5a-c9f2b8262ad4"
    },
    {
        "name": "天王原神社",
        "prefectureName": "島根県",
        "cityName": "隠岐郡知夫村",
        "streetName": "９５６番地",
        "latitude": 36.01368117,
        "longitude": 133.04404066,
        "id": "201739ad-38fc-4495-a980-16953f33d03e"
    },
    {
        "name": "天神神社",
        "prefectureName": "島根県",
        "cityName": "松江市",
        "streetName": "西尾町７６１番地",
        "latitude": 35.47421838,
        "longitude": 133.09670633,
        "id": "4adb3253-4d26-4370-995d-65abf2b715f7"
    },
    {
        "name": "天若宮神社",
        "prefectureName": "島根県",
        "cityName": "松江市",
        "streetName": "薦津町１３６番地",
        "latitude": 35.48894461,
        "longitude": 133.02262694,
        "id": "3cfcc05f-3ee1-4218-8342-b200efcef282"
    },
    {
        "name": "天豊足柄姫命神社",
        "prefectureName": "島根県",
        "cityName": "浜田市",
        "streetName": "殿町７７番地",
        "latitude": 34.8990908,
        "longitude": 132.0796832,
        "id": "10f38f79-0546-4248-9b0f-2792da0c1ac5"
    },
    {
        "name": "太皷谷稲成神社",
        "prefectureName": "島根県",
        "cityName": "鹿足郡津和野町",
        "streetName": "後田４０９番地",
        "latitude": 34.4653019,
        "longitude": 131.7689326,
        "id": "1abf972a-b710-4bcc-b147-8ccbea219ca9"
    },
    {
        "name": "太詔刀命神社",
        "prefectureName": "島根県",
        "cityName": "江津市",
        "streetName": "桜江町川戸７０番地、８３７番地",
        "latitude": 34.95851785,
        "longitude": 132.33672422,
        "id": "a0cda8ca-b058-4acb-ad71-35a89cf1812a"
    },
    {
        "name": "奇鹿神社",
        "prefectureName": "島根県",
        "cityName": "鹿足郡吉賀町",
        "streetName": "七日市４５８番地",
        "latitude": 34.38924638,
        "longitude": 131.88608677,
        "id": "37c0b927-f547-4a19-b14c-c77606fd9c9c"
    },
    {
        "name": "奇鹿神社",
        "prefectureName": "島根県",
        "cityName": "鹿足郡吉賀町",
        "streetName": "柿木村木部谷３７４番地",
        "latitude": 34.43476585,
        "longitude": 131.90049476,
        "id": "f0067a40-fcca-482d-8746-d131c0089078"
    },
    {
        "name": "奈伎良比賣神社",
        "prefectureName": "島根県",
        "cityName": "隠岐郡海士町",
        "streetName": "大字豊田４８９番地",
        "latitude": 36.1043933,
        "longitude": 133.12224749,
        "id": "eba95334-1c32-448b-b255-5828711ae60e"
    },
    {
        "name": "奈倍山神社",
        "prefectureName": "島根県",
        "cityName": "雲南市",
        "streetName": "三刀屋町古城１３０４番地",
        "latitude": 35.307725,
        "longitude": 132.9003019,
        "id": "f4bdea40-8ca2-4b8a-a15d-605c9288cdea"
    },
    {
        "name": "奈賀江神社",
        "prefectureName": "島根県",
        "cityName": "安来市",
        "streetName": "神庭町３２４番地",
        "latitude": 35.39182222,
        "longitude": 133.18694815,
        "id": "4ae4f642-c8b1-4575-a71a-d3c0fbb77771"
    },
    {
        "name": "奈須神社",
        "prefectureName": "島根県",
        "cityName": "隠岐郡海士町",
        "streetName": "大字御波２５４番地",
        "latitude": 36.096907,
        "longitude": 133.0968444,
        "id": "a0655e2b-fee4-41d5-86e5-d54bf1d6958a"
    },
    {
        "name": "奢母智神社",
        "prefectureName": "島根県",
        "cityName": "松江市",
        "streetName": "美保関町諸喰６４４番地",
        "latitude": 35.57207229,
        "longitude": 133.26451636,
        "id": "79286914-492c-402e-983d-8c1c7120cfa7"
    },
    {
        "name": "奥宇賀神社",
        "prefectureName": "島根県",
        "cityName": "出雲市",
        "streetName": "奥宇賀町１３８８番地１４",
        "latitude": 35.3670234,
        "longitude": 132.7546836,
        "id": "e914c36f-d484-4b82-b824-e39dc8ae4e63"
    },
    {
        "name": "奥田神社",
        "prefectureName": "島根県",
        "cityName": "雲南市",
        "streetName": "大東町中湯石８６番地",
        "latitude": 35.32679689,
        "longitude": 132.99278813,
        "id": "7064bf05-813e-41e5-96cc-943b4015c339"
    },
    {
        "name": "奴奈弥神社",
        "prefectureName": "島根県",
        "cityName": "松江市",
        "streetName": "島根町野波２７０６番地",
        "latitude": 35.58896594,
        "longitude": 133.10041163,
        "id": "3ac14bbb-9062-4324-93a4-6d55f569b7ce"
    },
    {
        "name": "妹山神社",
        "prefectureName": "島根県",
        "cityName": "浜田市",
        "streetName": "三隅町折居１３２０番１０",
        "latitude": 34.8182498,
        "longitude": 131.9640511,
        "id": "fb2caee9-3a79-4e68-9a0b-1d29fa0ee59f"
    },
    {
        "name": "姫宮神社",
        "prefectureName": "島根県",
        "cityName": "隠岐郡知夫村",
        "streetName": "２８８９番地",
        "latitude": 36.03008982,
        "longitude": 133.02394178,
        "id": "4e0cd75e-8612-4610-af79-9ccec58f9cb1"
    },
    {
        "name": "姫宮神社",
        "prefectureName": "島根県",
        "cityName": "隠岐郡隠岐の島町",
        "streetName": "加茂１６３２番地",
        "latitude": 36.2089134,
        "longitude": 133.321972,
        "id": "a686405c-a89b-499f-9ee4-011e23688660"
    },
    {
        "name": "宇受賀命神社",
        "prefectureName": "島根県",
        "cityName": "隠岐郡海士町",
        "streetName": "大字宇受賀７４７番地",
        "latitude": 36.11609705,
        "longitude": 133.1089261,
        "id": "ddd3ff33-94e1-4e8e-9786-ac76d62f4538"
    },
    {
        "name": "宇土井神社",
        "prefectureName": "島根県",
        "cityName": "出雲市",
        "streetName": "岡田町３８３番地",
        "latitude": 35.4597648,
        "longitude": 132.8369245,
        "id": "cffc4d9c-915a-452e-bf5f-db538836c383"
    },
    {
        "name": "宇波神社",
        "prefectureName": "島根県",
        "cityName": "安来市",
        "streetName": "広瀬町宇波５２０番地",
        "latitude": 35.31018924,
        "longitude": 133.1949808,
        "id": "ca62be06-6b09-4cd4-b9f9-27f1e2e8ee21"
    },
    {
        "name": "宇由比神社",
        "prefectureName": "島根県",
        "cityName": "松江市",
        "streetName": "宍道町西来待１５７番地",
        "latitude": 35.41540191,
        "longitude": 132.93782279,
        "id": "2bc9f52d-733d-4ac5-88e7-c6e5a7fcf0df"
    },
    {
        "name": "宇留布神社",
        "prefectureName": "島根県",
        "cityName": "松江市",
        "streetName": "八雲町平原２０３８番地",
        "latitude": 35.4680925,
        "longitude": 133.0485218,
        "id": "2aaeab2a-468c-4372-838b-34a356ba5abc"
    },
    {
        "name": "宇美神社",
        "prefectureName": "島根県",
        "cityName": "出雲市",
        "streetName": "平田町６８８番地続の１",
        "latitude": 35.43675567,
        "longitude": 132.81880501,
        "id": "9cdfd8ac-f119-4816-be45-70b30f8c07f0"
    },
    {
        "name": "宇能遅神社",
        "prefectureName": "島根県",
        "cityName": "雲南市",
        "streetName": "加茂町宇治３４２番地",
        "latitude": 35.3438398,
        "longitude": 132.90360626,
        "id": "0fe7197d-0c4b-4fca-afae-1b214cbec07f"
    },
    {
        "name": "宇菅神社",
        "prefectureName": "島根県",
        "cityName": "隠岐郡知夫村",
        "streetName": "３１７番地",
        "latitude": 36.014206,
        "longitude": 133.0396022,
        "id": "5e13d856-4ba6-488c-8dca-4a812f6eaa7a"
    },
    {
        "name": "宇賀神社",
        "prefectureName": "島根県",
        "cityName": "松江市",
        "streetName": "西谷町２００番地",
        "latitude": 35.49228259,
        "longitude": 133.00090439,
        "id": "954ad4dd-3c2e-4eb2-873a-30bf31153393"
    },
    {
        "name": "宇賀神社",
        "prefectureName": "島根県",
        "cityName": "安来市",
        "streetName": "宇賀荘町４２番地",
        "latitude": 35.39588471,
        "longitude": 133.26570946,
        "id": "004b4ca1-a2c3-49d2-9780-57546961d04d"
    },
    {
        "name": "宇賀神社",
        "prefectureName": "島根県",
        "cityName": "松江市",
        "streetName": "宍道町佐々布１２０１番地",
        "latitude": 35.38379854,
        "longitude": 132.90328844,
        "id": "4fe76589-75be-4b57-9436-eafa4223560f"
    },
    {
        "name": "宇賀神社",
        "prefectureName": "島根県",
        "cityName": "出雲市",
        "streetName": "口宇賀町５２１番地",
        "latitude": 35.43842177,
        "longitude": 132.78625268,
        "id": "616f0a2b-46f5-4203-9a94-8a04034b649d"
    },
    {
        "name": "安子神社",
        "prefectureName": "島根県",
        "cityName": "出雲市",
        "streetName": "湖陵町常楽寺７５８番地",
        "latitude": 35.31884325,
        "longitude": 132.65953691,
        "id": "124b8750-7c92-4517-8c0a-cf8cf14b4f01"
    },
    {
        "name": "安富神社",
        "prefectureName": "島根県",
        "cityName": "益田市",
        "streetName": "安富町２５７１番地１",
        "latitude": 34.64793584,
        "longitude": 131.81301796,
        "id": "4a0ae4ce-3a26-4531-aca2-7bf648f14886"
    },
    {
        "name": "安屋咩神社",
        "prefectureName": "島根県",
        "cityName": "安来市",
        "streetName": "赤江町４００番地",
        "latitude": 35.4309226,
        "longitude": 133.2510841,
        "id": "a066352e-2cc3-446e-b83e-cf9c23c14716"
    },
    {
        "name": "安来神社",
        "prefectureName": "島根県",
        "cityName": "安来市",
        "streetName": "安来町１４０４番地",
        "latitude": 35.42653689,
        "longitude": 133.25112324,
        "id": "87e9a9bd-eb2b-4b0b-9b63-0fa73b6e99d5"
    },
    {
        "name": "宝坂神社",
        "prefectureName": "島根県",
        "cityName": "出雲市",
        "streetName": "佐田町朝原４６１番地",
        "latitude": 35.24803345,
        "longitude": 132.75950874,
        "id": "0624d54c-404c-4897-b138-d4bcf488ea6f"
    },
    {
        "name": "客神社",
        "prefectureName": "島根県",
        "cityName": "安来市",
        "streetName": "九重町４３５番地",
        "latitude": 35.40220611,
        "longitude": 133.25959591,
        "id": "4e54710e-c780-49f4-a853-753c2125f362"
    },
    {
        "name": "客神社",
        "prefectureName": "島根県",
        "cityName": "安来市",
        "streetName": "島田町５５番地",
        "latitude": 35.4146275,
        "longitude": 133.28597108,
        "id": "0cc4554e-c014-4f91-8d42-dc5d86d7d2ba"
    },
    {
        "name": "客神社",
        "prefectureName": "島根県",
        "cityName": "雲南市",
        "streetName": "大東町前原２８９番地",
        "latitude": 35.3338473,
        "longitude": 132.93453681,
        "id": "45d195ea-7dd7-4ea7-b6e6-f8feac996dcd"
    },
    {
        "name": "客神社",
        "prefectureName": "島根県",
        "cityName": "松江市",
        "streetName": "島根町加賀２４０１番地",
        "latitude": 35.5673678,
        "longitude": 133.07440909,
        "id": "658e32a1-dfe0-4103-84ff-7fbb9b6d23bb"
    },
    {
        "name": "客神社",
        "prefectureName": "島根県",
        "cityName": "松江市",
        "streetName": "東出雲町下意東２８５２番地",
        "latitude": 35.43009248,
        "longitude": 133.15077213,
        "id": "bf554773-0863-4b8b-8285-7fbbeda2cbd8"
    },
    {
        "name": "宮田神社",
        "prefectureName": "島根県",
        "cityName": "隠岐郡海士町",
        "streetName": "大字福井２８１番地",
        "latitude": 36.0908515,
        "longitude": 133.07985719,
        "id": "abfe81f5-d89e-4896-aa8c-d8db649a9f0c"
    },
    {
        "name": "宿努神社",
        "prefectureName": "島根県",
        "cityName": "出雲市",
        "streetName": "多久谷町１１４１番地",
        "latitude": 35.48212059,
        "longitude": 132.84452022,
        "id": "155103df-fe81-4ec3-bab8-de9668a343f7"
    },
    {
        "name": "寄江神社",
        "prefectureName": "島根県",
        "cityName": "江津市",
        "streetName": "浅利町７９９番地",
        "latitude": 35.03549484,
        "longitude": 132.26470092,
        "id": "027fa4df-393b-468e-84c8-b7d26f63d129"
    },
    {
        "name": "富神社",
        "prefectureName": "島根県",
        "cityName": "出雲市",
        "streetName": "斐川町富村５９６番地",
        "latitude": 35.37777588,
        "longitude": 132.80081185,
        "id": "a472d151-638e-497c-b7a3-861eea4d39e6"
    },
    {
        "name": "富能加神社",
        "prefectureName": "島根県",
        "cityName": "出雲市",
        "streetName": "所原町３５４９番地",
        "latitude": 35.29705241,
        "longitude": 132.7653122,
        "id": "01be1b4f-2623-4402-a02b-1e3fa9f637cd"
    },
    {
        "name": "對馬神社",
        "prefectureName": "島根県",
        "cityName": "浜田市",
        "streetName": "金城町七条ハ１番地２",
        "latitude": 34.8780468,
        "longitude": 132.14348419,
        "id": "6777bd81-b82a-4193-a5d5-d706494a60ef"
    },
    {
        "name": "小島神社",
        "prefectureName": "島根県",
        "cityName": "鹿足郡吉賀町",
        "streetName": "田野原１８７３番地２",
        "latitude": 34.3535239,
        "longitude": 131.9351687,
        "id": "f4822485-2409-41ab-8174-f8e451e7aeaf"
    },
    {
        "name": "小田神社",
        "prefectureName": "島根県",
        "cityName": "出雲市",
        "streetName": "多伎町小田５０３番地",
        "latitude": 35.28391755,
        "longitude": 132.62239361,
        "id": "c50f2a47-ed3c-4ac9-a838-65d83fb23074"
    },
    {
        "name": "小野神社",
        "prefectureName": "島根県",
        "cityName": "益田市",
        "streetName": "戸田町イ８５７番地",
        "latitude": 34.66979038,
        "longitude": 131.73531689,
        "id": "2f3ed418-e938-4ca1-b9df-9307d5982546"
    },
    {
        "name": "居去神社",
        "prefectureName": "島根県",
        "cityName": "仁多郡奥出雲町",
        "streetName": "上三所３３４番地",
        "latitude": 35.2258614,
        "longitude": 133.01536738,
        "id": "be561e09-94de-481a-83ac-409e79a92ece"
    },
    {
        "name": "山中神社",
        "prefectureName": "島根県",
        "cityName": "大田市",
        "streetName": "富山町山中５８０番地続１",
        "latitude": 35.21139793,
        "longitude": 132.56438661,
        "id": "268645ec-1a22-4f4b-9889-672e4d1aa4c3"
    },
    {
        "name": "山代神社",
        "prefectureName": "島根県",
        "cityName": "松江市",
        "streetName": "古志原６丁目７３番地",
        "latitude": 35.4402013,
        "longitude": 133.08079259,
        "id": "b89564e6-7a1b-4d77-8c86-dfbf1b3330ea"
    },
    {
        "name": "山口神社",
        "prefectureName": "島根県",
        "cityName": "出雲市",
        "streetName": "鹿園寺町７４３番地",
        "latitude": 35.47516099,
        "longitude": 132.87093806,
        "id": "1e8031a4-c987-4d95-aa6b-0ac3ddad6efc"
    },
    {
        "name": "山地神社",
        "prefectureName": "島根県",
        "cityName": "雲南市",
        "streetName": "大東町山王寺７１７番地",
        "latitude": 35.36276317,
        "longitude": 133.00285022,
        "id": "40c8635b-e9fc-4087-b8a5-c48f09ba6345"
    },
    {
        "name": "山狹神社",
        "prefectureName": "島根県",
        "cityName": "安来市",
        "streetName": "広瀬町下山佐１１７６番地",
        "latitude": 35.34792236,
        "longitude": 133.14076182,
        "id": "9656927d-2fff-40bf-b58e-d8b12be4062f"
    },
    {
        "name": "山狹神社",
        "prefectureName": "島根県",
        "cityName": "安来市",
        "streetName": "広瀬町上山佐５９８番地",
        "latitude": 35.32622106,
        "longitude": 133.1110889,
        "id": "8e10c9ef-2d19-4b40-99a1-5b0adc113479"
    },
    {
        "name": "山田神社",
        "prefectureName": "島根県",
        "cityName": "隠岐郡隠岐の島町",
        "streetName": "山田鳥越９０８番地",
        "latitude": 36.2089134,
        "longitude": 133.321972,
        "id": "1e90698d-358b-4c19-bf09-9212ab3fcb90"
    },
    {
        "name": "山祗神社",
        "prefectureName": "島根県",
        "cityName": "鹿足郡吉賀町",
        "streetName": "真田１２６７番地",
        "latitude": 34.3535239,
        "longitude": 131.9351687,
        "id": "1464e5ce-a84e-4794-8234-6599b37ca928"
    },
    {
        "name": "山神社",
        "prefectureName": "島根県",
        "cityName": "鹿足郡津和野町",
        "streetName": "豊稼３１４番地",
        "latitude": 34.54318044,
        "longitude": 131.74671959,
        "id": "0b355a5e-ff6d-4a7b-a4b7-4f1b3025c719"
    },
    {
        "name": "山神社",
        "prefectureName": "島根県",
        "cityName": "益田市",
        "streetName": "美都町山本イ１４３０番地",
        "latitude": 34.68870802,
        "longitude": 132.02539517,
        "id": "5722a0de-6ce3-4e35-9985-fd6e03952d15"
    },
    {
        "name": "山神神社",
        "prefectureName": "島根県",
        "cityName": "雲南市",
        "streetName": "吉田町曽木３９８番地",
        "latitude": 35.17540704,
        "longitude": 132.90656452,
        "id": "51277cf4-d692-407c-95b5-07f64c691aaf"
    },
    {
        "name": "山神神社",
        "prefectureName": "島根県",
        "cityName": "雲南市",
        "streetName": "大東町刈畑１１２番地",
        "latitude": 35.32510896,
        "longitude": 133.02637765,
        "id": "eded13e2-cf2c-4af3-821c-fc24f0311fde"
    },
    {
        "name": "山辺八代姫命神社",
        "prefectureName": "島根県",
        "cityName": "大田市",
        "streetName": "久利町久利１４９９番地",
        "latitude": 35.16356188,
        "longitude": 132.48183843,
        "id": "8829dc10-241b-4e86-b132-395d35807944"
    },
    {
        "name": "山辺神社",
        "prefectureName": "島根県",
        "cityName": "江津市",
        "streetName": "江津町１１２番地",
        "latitude": 35.00870345,
        "longitude": 132.22674924,
        "id": "e98d75fd-a8a7-4849-adda-065be22b496d"
    },
    {
        "name": "山邊八代姫命神社",
        "prefectureName": "島根県",
        "cityName": "大田市",
        "streetName": "大代町新屋１７０３番地",
        "latitude": 35.04489723,
        "longitude": 132.42849999,
        "id": "be01ffe2-1187-4c25-9cfe-1eba12c07976"
    },
    {
        "name": "山邊神社",
        "prefectureName": "島根県",
        "cityName": "出雲市",
        "streetName": "大社町杵築西２０８４番地",
        "latitude": 35.39315299,
        "longitude": 132.67733688,
        "id": "292d8b81-698a-4d25-b1c1-186ebed6dfce"
    },
    {
        "name": "岩屋神社",
        "prefectureName": "島根県",
        "cityName": "浜田市",
        "streetName": "三隅町古市場１６０９番地１、１６０９番地２",
        "latitude": 34.8990908,
        "longitude": 132.0796832,
        "id": "00726e61-3785-4926-8a27-b53757bc9321"
    },
    {
        "name": "岩崎神社",
        "prefectureName": "島根県",
        "cityName": "松江市",
        "streetName": "東出雲町上意東２０３７番地",
        "latitude": 35.43009248,
        "longitude": 133.15077213,
        "id": "2354e10e-ea97-4235-9791-20456fd09120"
    },
    {
        "name": "岩根神社",
        "prefectureName": "島根県",
        "cityName": "江津市",
        "streetName": "嘉久志町２４５４番地",
        "latitude": 35.0114169,
        "longitude": 132.2209302,
        "id": "f8c1bfe0-a11a-4a9a-ba18-9e08c32e301e"
    },
    {
        "name": "岩根神社",
        "prefectureName": "島根県",
        "cityName": "雲南市",
        "streetName": "大東町山田７０８番地",
        "latitude": 35.34276386,
        "longitude": 132.97032097,
        "id": "2a3bae93-fab8-4fde-880b-076a3fa8fe49"
    },
    {
        "name": "岩船神社",
        "prefectureName": "島根県",
        "cityName": "松江市",
        "streetName": "宍道町西来待１２１０番地",
        "latitude": 35.40283373,
        "longitude": 132.93705648,
        "id": "4281de65-04bd-414a-94b9-2de28c4ec187"
    },
    {
        "name": "峴神社",
        "prefectureName": "島根県",
        "cityName": "出雲市",
        "streetName": "万田町１３３３番地",
        "latitude": 35.45653587,
        "longitude": 132.77074017,
        "id": "cffbeb2a-c5cc-484e-9080-3c607b672c10"
    },
    {
        "name": "島神社",
        "prefectureName": "島根県",
        "cityName": "安来市",
        "streetName": "島田町９４７番地",
        "latitude": 35.42230738,
        "longitude": 133.29373955,
        "id": "e13e7004-01c5-4562-8250-eada49253454"
    },
    {
        "name": "嵩神社",
        "prefectureName": "島根県",
        "cityName": "安来市",
        "streetName": "宇賀荘町４７３番地",
        "latitude": 35.4309226,
        "longitude": 133.2510841,
        "id": "45c67f8d-b7e6-46fd-9e81-40b46a34a515"
    },
    {
        "name": "嶽神社",
        "prefectureName": "島根県",
        "cityName": "雲南市",
        "streetName": "大東町上久野１１１０番地",
        "latitude": 35.26795718,
        "longitude": 133.06606169,
        "id": "a13208ef-9e89-4d5c-b21b-1ba608f84a39"
    },
    {
        "name": "川上神社",
        "prefectureName": "島根県",
        "cityName": "松江市",
        "streetName": "上本庄町９２１番地",
        "latitude": 35.51917906,
        "longitude": 133.11626633,
        "id": "b40c52e4-4a10-49e7-9d91-f048e53e9f29"
    },
    {
        "name": "川上神社",
        "prefectureName": "島根県",
        "cityName": "雲南市",
        "streetName": "大東町川井１２０２番地続１",
        "latitude": 35.28561063,
        "longitude": 132.98385212,
        "id": "d31c3c5c-c88d-48fa-abe4-96fd4bea2b1f"
    },
    {
        "name": "川内神社",
        "prefectureName": "島根県",
        "cityName": "雲南市",
        "streetName": "大東町畑鵯８２９番地",
        "latitude": 35.3695789,
        "longitude": 132.99627889,
        "id": "15e7b3a1-d8f5-4833-9b06-526c9db2abc6"
    },
    {
        "name": "川原神社",
        "prefectureName": "島根県",
        "cityName": "松江市",
        "streetName": "川原町１４７番地",
        "latitude": 35.49931037,
        "longitude": 133.10167386,
        "id": "29130fe9-0f7c-4990-bef4-de9d68d845ef"
    },
    {
        "name": "川原神社",
        "prefectureName": "島根県",
        "cityName": "雲南市",
        "streetName": "大東町小河内４０２番地",
        "latitude": 35.33398172,
        "longitude": 133.0491704,
        "id": "44d74eb7-fb55-47c3-a10a-1709fccd65dd"
    },
    {
        "name": "川方稲荷神社",
        "prefectureName": "島根県",
        "cityName": "雲南市",
        "streetName": "木次町新市２５９番地",
        "latitude": 35.28624165,
        "longitude": 132.89566663,
        "id": "2854ebf3-cb33-4d1d-b2d1-f1305febd87e"
    },
    {
        "name": "川跡神社",
        "prefectureName": "島根県",
        "cityName": "出雲市",
        "streetName": "荻杼町３４６番地",
        "latitude": 35.3670234,
        "longitude": 132.7546836,
        "id": "1c3901f5-dbe5-43dd-a7d8-c64a1154333b"
    },
    {
        "name": "市木神社",
        "prefectureName": "島根県",
        "cityName": "浜田市",
        "streetName": "旭町市木９７２番地",
        "latitude": 34.85949144,
        "longitude": 132.25965715,
        "id": "2c21e67f-5546-4fb1-b589-8b4f1eadb3f1"
    },
    {
        "name": "市森神社",
        "prefectureName": "島根県",
        "cityName": "出雲市",
        "streetName": "稗原町２５７１番地",
        "latitude": 35.31467848,
        "longitude": 132.79926944,
        "id": "5f28005c-eeeb-4b1a-9706-e521a12a4fae"
    },
    {
        "name": "市穂神社",
        "prefectureName": "島根県",
        "cityName": "松江市",
        "streetName": "東出雲町上意東２７０９番地",
        "latitude": 35.43009248,
        "longitude": 133.15077213,
        "id": "4dd45f49-678a-416b-932b-9f7218f15a4a"
    },
    {
        "name": "布奈保神社",
        "prefectureName": "島根県",
        "cityName": "松江市",
        "streetName": "浜佐田町１０２９番地",
        "latitude": 35.4680925,
        "longitude": 133.0485218,
        "id": "18209ce7-80af-4ee7-b423-e864cba75d48"
    },
    {
        "name": "布宇神社",
        "prefectureName": "島根県",
        "cityName": "松江市",
        "streetName": "玉湯町林１２０４番地",
        "latitude": 35.42745731,
        "longitude": 132.98544953,
        "id": "2e022cc1-2cb4-431a-bc59-3e45e5b46e3b"
    },
    {
        "name": "布施神社",
        "prefectureName": "島根県",
        "cityName": "隠岐郡海士町",
        "streetName": "大字御波４５番地",
        "latitude": 36.07329025,
        "longitude": 133.09588706,
        "id": "53fb21a3-2f6f-403e-b95f-6e2f6c9f2a77"
    },
    {
        "name": "布自伎美神社",
        "prefectureName": "島根県",
        "cityName": "松江市",
        "streetName": "上東川津町１番地",
        "latitude": 35.4680925,
        "longitude": 133.0485218,
        "id": "e02b9257-d7da-430b-870a-7ef1cf9b69fe"
    },
    {
        "name": "布自奈大穴持神社",
        "prefectureName": "島根県",
        "cityName": "松江市",
        "streetName": "玉湯町布志名１５１番地",
        "latitude": 35.42860535,
        "longitude": 133.03379442,
        "id": "d00e7531-dba3-4307-9fcc-639438d562c6"
    },
    {
        "name": "布辨神社",
        "prefectureName": "島根県",
        "cityName": "安来市",
        "streetName": "広瀬町布部１１５８番地",
        "latitude": 35.30141972,
        "longitude": 133.14572918,
        "id": "d3bfa531-cbf3-4c75-b223-5530b18b0590"
    },
    {
        "name": "布須神社",
        "prefectureName": "島根県",
        "cityName": "雲南市",
        "streetName": "加茂町延野２５１番地",
        "latitude": 35.35106912,
        "longitude": 132.88571905,
        "id": "8c14d0b6-8289-4a4d-a089-940a86a88d3a"
    },
    {
        "name": "布須神社",
        "prefectureName": "島根県",
        "cityName": "雲南市",
        "streetName": "木次町宇谷３６７番地",
        "latitude": 35.29410562,
        "longitude": 132.93858433,
        "id": "43ef7e9f-dc18-47db-8e34-4cc86eda6a8c"
    },
    {
        "name": "常世神社",
        "prefectureName": "島根県",
        "cityName": "出雲市",
        "streetName": "常松町１１３番地",
        "latitude": 35.39147029,
        "longitude": 132.72904629,
        "id": "eefe00c9-a115-49b9-931d-ed621f5120f8"
    },
    {
        "name": "常磐神社",
        "prefectureName": "島根県",
        "cityName": "安来市",
        "streetName": "伯太町上十年畑３８５番地",
        "latitude": 35.27135797,
        "longitude": 133.23676864,
        "id": "6ed9d2fe-db60-40cb-b95d-fabc0596b42c"
    },
    {
        "name": "幡屋神社",
        "prefectureName": "島根県",
        "cityName": "雲南市",
        "streetName": "大東町幡屋１０５２番地１",
        "latitude": 35.35974403,
        "longitude": 132.9482264,
        "id": "f76770e5-f282-4b86-a31c-4ad3083ff22e"
    },
    {
        "name": "平神社",
        "prefectureName": "島根県",
        "cityName": "隠岐郡隠岐の島町",
        "streetName": "平森脇ノ一・１４３番地",
        "latitude": 36.2089134,
        "longitude": 133.321972,
        "id": "fa961972-811a-42ac-9be8-89b5b7bd2253"
    },
    {
        "name": "平野山神社",
        "prefectureName": "島根県",
        "cityName": "益田市",
        "streetName": "長沢町ロ７９０番地続１",
        "latitude": 34.59142472,
        "longitude": 131.90354791,
        "id": "14e2ef46-81bd-4613-8a3d-0f3ae530feb0"
    },
    {
        "name": "廣國神社",
        "prefectureName": "島根県",
        "cityName": "安来市",
        "streetName": "広瀬町下山佐１８５４番地",
        "latitude": 35.3524713,
        "longitude": 133.11533411,
        "id": "94bdb854-1c00-4169-9bf9-c6613fa5d108"
    },