[
    {
        "name": "たかまのはら稲荷神社",
        "prefectureName": "高知県",
        "cityName": "高知市",
        "streetName": "大津高天原甲１０４５番地",
        "latitude": 33.56762342,
        "longitude": 133.60039101,
        "id": "0dcd4a85-e2fa-408b-a835-a9521c99aeee"
    },
    {
        "name": "䆴戸神社",
        "prefectureName": "高知県",
        "cityName": "須崎市",
        "streetName": "大谷９４６番地ノ３",
        "latitude": 33.38295514,
        "longitude": 133.32196958,
        "id": "04ada9d5-2647-4eb8-a1ca-b5d23d5c18e8"
    },
    {
        "name": "䆴戸神社",
        "prefectureName": "高知県",
        "cityName": "高岡郡津野町",
        "streetName": "新土居８７２番ロ地",
        "latitude": 33.4396591,
        "longitude": 133.2401875,
        "id": "ea50b996-911b-4481-b5fe-d139f47f940b"
    },
    {
        "name": "䆴戸神社",
        "prefectureName": "高知県",
        "cityName": "高岡郡津野町",
        "streetName": "船戸１５７９番地",
        "latitude": 33.42314858,
        "longitude": 133.08967938,
        "id": "73582cc1-485f-4e93-a8fa-5d760a3cbe66"
    },
    {
        "name": "䆴戸神社",
        "prefectureName": "高知県",
        "cityName": "高岡郡中土佐町",
        "streetName": "久礼７７９７番地",
        "latitude": 33.3277278,
        "longitude": 133.2283852,
        "id": "b1f854e8-7464-4eed-889e-3e259b09e015"
    },
    {
        "name": "䆴戸神社",
        "prefectureName": "高知県",
        "cityName": "須崎市",
        "streetName": "上分丙１４２番ロ号地",
        "latitude": 33.4007642,
        "longitude": 133.2829582,
        "id": "7a287db4-b6c1-4cef-9e13-39488d34c1cd"
    },
    {
        "name": "䆴戸神社",
        "prefectureName": "高知県",
        "cityName": "須崎市",
        "streetName": "上分乙４０番ロ号地",
        "latitude": 33.40723777,
        "longitude": 133.23516355,
        "id": "15d579be-350c-451c-a14c-77630af84eff"
    },
    {
        "name": "䆴戸神社",
        "prefectureName": "高知県",
        "cityName": "高岡郡中土佐町",
        "streetName": "大野見奈路５８１番地ノロ",
        "latitude": 33.33718169,
        "longitude": 133.13766377,
        "id": "5637217f-5656-4aa3-9487-1bf8ba57e7a9"
    },
    {
        "name": "一宮神社",
        "prefectureName": "高知県",
        "cityName": "四万十市",
        "streetName": "初崎４０９番地",
        "latitude": 32.93447883,
        "longitude": 132.97302832,
        "id": "86d0d6d1-efb7-406f-b16d-35aec66d7b21"
    },
    {
        "name": "一宮神社",
        "prefectureName": "高知県",
        "cityName": "幡多郡大月町",
        "streetName": "大字泊浦３７６番地",
        "latitude": 32.84522935,
        "longitude": 132.6712752,
        "id": "05fa5006-3b65-43f9-acec-3bbdea43c697"
    },
    {
        "name": "一宮神社",
        "prefectureName": "高知県",
        "cityName": "安芸市",
        "streetName": "黒鳥３１３番地",
        "latitude": 33.51178336,
        "longitude": 133.89600541,
        "id": "49c7e61d-3f6c-49f8-9a7d-c5c4a4727258"
    },
    {
        "name": "一宮神社",
        "prefectureName": "高知県",
        "cityName": "安芸市",
        "streetName": "井ノ口甲１６００番地",
        "latitude": 33.52532607,
        "longitude": 133.89846829,
        "id": "8fedc522-b321-4f3e-a379-9ee6316b4527"
    },
    {
        "name": "一宮神社",
        "prefectureName": "高知県",
        "cityName": "土佐市",
        "streetName": "永野１２８番地２",
        "latitude": 33.46609683,
        "longitude": 133.34125568,
        "id": "191ea3fa-a755-4360-9462-85170106f64b"
    },
    {
        "name": "一戸谷神社",
        "prefectureName": "高知県",
        "cityName": "長岡郡大豊町",
        "streetName": "西峰字一戸谷１９８７番地ロ",
        "latitude": 33.7642121,
        "longitude": 133.6642272,
        "id": "3ae7ab69-1c2d-4bc8-9500-37fd0a997f5f"
    },
    {
        "name": "一木神社",
        "prefectureName": "高知県",
        "cityName": "室戸市",
        "streetName": "室津字北町２６５２番地３",
        "latitude": 33.2900091,
        "longitude": 134.1520508,
        "id": "dfec172c-09de-4118-8df2-fb8b20dbe2ee"
    },
    {
        "name": "一條神社",
        "prefectureName": "高知県",
        "cityName": "四万十市",
        "streetName": "中村本町１丁目１１番地",
        "latitude": 32.99363648,
        "longitude": 132.93418776,
        "id": "37f05e6b-ad45-4693-b3cb-242d80e759d5"
    },
    {
        "name": "一王子神社",
        "prefectureName": "高知県",
        "cityName": "土佐清水市",
        "streetName": "窪津字王子山１７０２の１番地",
        "latitude": 32.7816326,
        "longitude": 132.9549886,
        "id": "5afbf6f0-066a-4a0b-9d0e-13a4cbd7c3e7"
    },
    {
        "name": "七所神社",
        "prefectureName": "高知県",
        "cityName": "吾川郡仁淀川町",
        "streetName": "橘２４番地",
        "latitude": 33.5752116,
        "longitude": 133.1711319,
        "id": "91abcd3b-5863-4172-ae40-5e8761fcd7e9"
    },
    {
        "name": "七渕神社",
        "prefectureName": "高知県",
        "cityName": "高知市",
        "streetName": "七ツ渕１４９２番地",
        "latitude": 33.61240184,
        "longitude": 133.537517,
        "id": "48545b5b-e4ab-4f98-9ecc-67b43589628b"
    },
    {
        "name": "三倉神社",
        "prefectureName": "高知県",
        "cityName": "長岡郡本山町",
        "streetName": "吉野字西ノミネ山７１５番地",
        "latitude": 33.757098,
        "longitude": 133.5911558,
        "id": "f346ec31-69c8-428c-9603-ca8cc1640b44"
    },
    {
        "name": "三峯神社",
        "prefectureName": "高知県",
        "cityName": "安芸郡奈半利町",
        "streetName": "字花田甲４５６８番地",
        "latitude": 33.4242445,
        "longitude": 134.0207275,
        "id": "7de79bdf-0f09-4629-b79b-c4a57f10654e"
    },
    {
        "name": "三峯神社",
        "prefectureName": "高知県",
        "cityName": "高岡郡越知町",
        "streetName": "山室１８４番地",
        "latitude": 33.5329191,
        "longitude": 133.2519929,
        "id": "f0cedd62-36e3-42f9-9853-1c70368b9c32"
    },
    {
        "name": "三島神社",
        "prefectureName": "高知県",
        "cityName": "吾川郡仁淀川町",
        "streetName": "別枝５０２番地",
        "latitude": 33.5752116,
        "longitude": 133.1711319,
        "id": "97637992-0e3c-4b1c-9031-81aae000f110"
    },
    {
        "name": "三島神社",
        "prefectureName": "高知県",
        "cityName": "高岡郡四万十町",
        "streetName": "昭和１２１１番地",
        "latitude": 33.22215743,
        "longitude": 132.89499049,
        "id": "d91d4b6f-07c6-439b-9682-d3936b525315"
    },
    {
        "name": "三島神社",
        "prefectureName": "高知県",
        "cityName": "室戸市",
        "streetName": "領家竹ノ本５９８番地",
        "latitude": 33.2900091,
        "longitude": 134.1520508,
        "id": "246f9289-4d1f-486a-9b77-642ace4dbcda"
    },
    {
        "name": "三島神社",
        "prefectureName": "高知県",
        "cityName": "高岡郡四万十町",
        "streetName": "宮内３０番地",
        "latitude": 33.23064981,
        "longitude": 133.1274797,
        "id": "1fffad3d-c7a0-4866-b99e-3b3566ebaf71"
    },
    {
        "name": "三島神社",
        "prefectureName": "高知県",
        "cityName": "高岡郡津野町",
        "streetName": "北川２２５７番地１",
        "latitude": 33.4466438,
        "longitude": 133.1994021,
        "id": "079cf825-d360-4fb6-8d21-9e3cb800328a"
    },
    {
        "name": "三島神社",
        "prefectureName": "高知県",
        "cityName": "香美市",
        "streetName": "土佐山田町植１２２０番地",
        "latitude": 33.61916873,
        "longitude": 133.6843365,
        "id": "81d63aed-038f-485b-af64-d2c2e9dbaa7c"
    },
    {
        "name": "三島神社",
        "prefectureName": "高知県",
        "cityName": "宿毛市",
        "streetName": "山奈町山田５４１２番地",
        "latitude": 32.9390104,
        "longitude": 132.7262852,
        "id": "6f46d921-c8b5-4afb-8b29-fbe74d5fcc4d"
    },
    {
        "name": "三島神社",
        "prefectureName": "高知県",
        "cityName": "高岡郡津野町",
        "streetName": "姫野々６０４番地４",
        "latitude": 33.44474966,
        "longitude": 133.20850893,
        "id": "8f8dfd74-87d2-4b39-b87d-5512700743be"
    },
    {
        "name": "三島神社",
        "prefectureName": "高知県",
        "cityName": "高岡郡四万十町",
        "streetName": "床鍋１２９３番地２",
        "latitude": 33.2116551,
        "longitude": 133.1370262,
        "id": "4ffb1556-2633-4058-acbc-983e2f2c33c0"
    },
    {
        "name": "三島神社",
        "prefectureName": "高知県",
        "cityName": "土佐市",
        "streetName": "高岡町丁１９９２番地",
        "latitude": 33.4944578,
        "longitude": 133.4245278,
        "id": "a1d330f2-b860-4352-b7e4-9792403294b4"
    },
    {
        "name": "三島神社",
        "prefectureName": "高知県",
        "cityName": "高岡郡檮原町",
        "streetName": "中平２２７番地",
        "latitude": 33.32764586,
        "longitude": 132.95687917,
        "id": "6f5d32aa-2872-4e13-b44c-7ecba7db7b32"
    },
    {
        "name": "三島神社",
        "prefectureName": "高知県",
        "cityName": "土佐郡土佐町",
        "streetName": "田井字三島５１１番地",
        "latitude": 33.737127,
        "longitude": 133.5319219,
        "id": "fe4ad561-6b53-4e31-b152-2926edaab03d"
    },
    {
        "name": "三島神社",
        "prefectureName": "高知県",
        "cityName": "吾川郡いの町",
        "streetName": "神谷３５２９番地",
        "latitude": 33.5489374,
        "longitude": 133.427953,
        "id": "cf8d8c32-3a7a-4cb4-83e0-1c27218c37b0"
    },
    {
        "name": "三崎神社",
        "prefectureName": "高知県",
        "cityName": "安芸市",
        "streetName": "尾川甲５２１番地",
        "latitude": 33.57169569,
        "longitude": 133.89686441,
        "id": "51c5c94b-baac-4eea-9048-ddb2dd0ffe7d"
    },
    {
        "name": "三嶋五社神社",
        "prefectureName": "高知県",
        "cityName": "高岡郡檮原町",
        "streetName": "田野々１２９５番地",
        "latitude": 33.43367699,
        "longitude": 132.94645995,
        "id": "cbe22fef-370b-4129-96aa-aff26d69337a"
    },
    {
        "name": "三嶋神社",
        "prefectureName": "高知県",
        "cityName": "高岡郡檮原町",
        "streetName": "広野１３９８番地",
        "latitude": 33.39155837,
        "longitude": 132.89084956,
        "id": "0743e45f-5c90-4cde-9ca2-8a61fcbb288f"
    },
    {
        "name": "三嶋神社",
        "prefectureName": "高知県",
        "cityName": "高岡郡檮原町",
        "streetName": "川西路２１９６番地",
        "latitude": 33.39642248,
        "longitude": 132.92782318,
        "id": "3926166c-acec-4f38-ad44-fba480adddac"
    },
    {
        "name": "三嶋神社",
        "prefectureName": "高知県",
        "cityName": "幡多郡黒潮町",
        "streetName": "加持３１３７番地",
        "latitude": 33.04318349,
        "longitude": 133.00921296,
        "id": "0ca343e9-4a7d-40c2-9247-6e8f7d2321b2"
    },
    {
        "name": "三嶋神社",
        "prefectureName": "高知県",
        "cityName": "高岡郡檮原町",
        "streetName": "下組３２５番地",
        "latitude": 33.43908573,
        "longitude": 132.88037414,
        "id": "30a33675-6656-4607-828d-fd3456c0baae"
    },
    {
        "name": "三嶋神社",
        "prefectureName": "高知県",
        "cityName": "安芸市",
        "streetName": "畑山乙５６番地",
        "latitude": 33.5025959,
        "longitude": 133.9071606,
        "id": "b66cd5ff-80f2-43d3-a2ba-56ce529894ef"
    },
    {
        "name": "三所仁井田神社",
        "prefectureName": "高知県",
        "cityName": "長岡郡大豊町",
        "streetName": "大久保８６２番地・８６３番地",
        "latitude": 33.82809826,
        "longitude": 133.78684227,
        "id": "03f98212-2c79-4c7c-98b6-dfdd9ff7b5d2"
    },
    {
        "name": "三所神社",
        "prefectureName": "高知県",
        "cityName": "吾川郡仁淀川町",
        "streetName": "名野川２７４番地１",
        "latitude": 33.56026512,
        "longitude": 133.13427271,
        "id": "5a028ad3-9ecf-437a-aabe-9d9501df4e9a"
    },
    {
        "name": "三所神社",
        "prefectureName": "高知県",
        "cityName": "吾川郡仁淀川町",
        "streetName": "余能４１４番地",
        "latitude": 33.5752116,
        "longitude": 133.1711319,
        "id": "e7e8d258-3248-424b-a5d2-7567cd9939c2"
    },
    {
        "name": "三所神社",
        "prefectureName": "高知県",
        "cityName": "須崎市",
        "streetName": "下分甲１７８５番地",
        "latitude": 33.40438867,
        "longitude": 133.26216867,
        "id": "9b700734-2c1a-4d41-ad26-2870e0d43135"
    },
    {
        "name": "三所神社",
        "prefectureName": "高知県",
        "cityName": "高岡郡津野町",
        "streetName": "赤木１９５８番地１",
        "latitude": 33.4466438,
        "longitude": 133.1994021,
        "id": "f89e4a68-a330-46d0-9063-9f1836f4f182"
    },
    {
        "name": "三所神社",
        "prefectureName": "高知県",
        "cityName": "吾川郡仁淀川町",
        "streetName": "長者丙２８８番地",
        "latitude": 33.48614137,
        "longitude": 133.11647044,
        "id": "9443585d-cb04-49b1-9b8d-796fcec921f3"
    },
    {
        "name": "三所神社",
        "prefectureName": "高知県",
        "cityName": "高知市",
        "streetName": "神田字御手洗３５８番地イ",
        "latitude": 33.54075187,
        "longitude": 133.50519556,
        "id": "89f1e41a-cc73-4013-b975-0eb263c201de"
    },
    {
        "name": "三所神社",
        "prefectureName": "高知県",
        "cityName": "吾川郡仁淀川町",
        "streetName": "鷲ノ巣６０番地",
        "latitude": 33.53688665,
        "longitude": 133.08157882,
        "id": "2f194713-bada-4421-add1-22493d2a487a"
    },
    {
        "name": "三日月神社",
        "prefectureName": "高知県",
        "cityName": "高岡郡四万十町",
        "streetName": "仁井田字黒石谷１５６３番地１１",
        "latitude": 33.2116551,
        "longitude": 133.1370262,
        "id": "1a89f42a-288a-4b03-aa40-76aa50770232"
    },
    {
        "name": "三河神社",
        "prefectureName": "高知県",
        "cityName": "高岡郡檮原町",
        "streetName": "上本村１０４０番地",
        "latitude": 33.3921313,
        "longitude": 132.92709,
        "id": "4545c485-d826-457b-b2c2-f1f03a8b0ac3"
    },
    {
        "name": "三滝神社",
        "prefectureName": "高知県",
        "cityName": "香美市",
        "streetName": "土佐山田町北滝本３８５番地イ",
        "latitude": 33.66515024,
        "longitude": 133.65644803,
        "id": "a3fa5c30-ceaa-4cc4-9dbf-113214bbaf6e"
    },
    {
        "name": "三滝神社",
        "prefectureName": "高知県",
        "cityName": "高岡郡四万十町",
        "streetName": "小ノ川甲１３９０番地３",
        "latitude": 33.2116551,
        "longitude": 133.1370262,
        "id": "faed5abf-084e-4d3e-b9c7-3ef1ad6957e9"
    },
    {
        "name": "三熊野神社",
        "prefectureName": "高知県",
        "cityName": "高岡郡四万十町",
        "streetName": "平串１０５３番地",
        "latitude": 33.22489543,
        "longitude": 133.15212966,
        "id": "c5a01f74-f272-4fa2-9b32-d9fea32080aa"
    },
    {
        "name": "三熊野神社",
        "prefectureName": "高知県",
        "cityName": "高岡郡四万十町",
        "streetName": "西原６９８番地",
        "latitude": 33.1960265,
        "longitude": 133.12328955,
        "id": "32858a98-e290-4cbf-918e-11f3788b0515"
    },
    {
        "name": "三熊野神社",
        "prefectureName": "高知県",
        "cityName": "高岡郡四万十町",
        "streetName": "七里甲１３９２ノ３番地",
        "latitude": 33.2116551,
        "longitude": 133.1370262,
        "id": "10c4e0c3-a486-4540-af85-9d0c6c1c50c0"
    },
    {
        "name": "三熊野神社",
        "prefectureName": "高知県",
        "cityName": "高岡郡四万十町",
        "streetName": "窪川１３２６番地",
        "latitude": 33.2075362,
        "longitude": 133.1344072,
        "id": "123ec673-6314-4172-9988-15f54b1f8193"
    },
    {
        "name": "三社神社",
        "prefectureName": "高知県",
        "cityName": "吾川郡いの町",
        "streetName": "中追字宮ノ前１００４番地",
        "latitude": 33.5489374,
        "longitude": 133.427953,
        "id": "7b7a1a55-6ca6-45d9-866c-075a9a3e8360"
    },
    {
        "name": "三社神社",
        "prefectureName": "高知県",
        "cityName": "香南市",
        "streetName": "野市町西佐古字大北５０３番地",
        "latitude": 33.56244529,
        "longitude": 133.69895787,
        "id": "820793aa-5530-4a54-85a1-09b21ea5dca5"
    },
    {
        "name": "上ノ神社",
        "prefectureName": "高知県",
        "cityName": "室戸市",
        "streetName": "佐喜浜町天ノ神５２１４番地",
        "latitude": 33.2900091,
        "longitude": 134.1520508,
        "id": "d38defd6-81e6-41f6-bc79-211bb6bae5b6"
    },
    {
        "name": "上和田神社",
        "prefectureName": "高知県",
        "cityName": "高岡郡中土佐町",
        "streetName": "久礼６８３２番地",
        "latitude": 33.3277278,
        "longitude": 133.2283852,
        "id": "d8d23004-bdee-482b-ba5b-ea5c0725fdc7"
    },
    {
        "name": "上宮神社",
        "prefectureName": "高知県",
        "cityName": "南国市",
        "streetName": "片山６２番地",
        "latitude": 33.55747485,
        "longitude": 133.64683385,
        "id": "39b91a03-9fc2-4b12-9785-570c303757e9"
    },
    {
        "name": "上宮神社",
        "prefectureName": "高知県",
        "cityName": "高知市",
        "streetName": "五台山字中神木谷４０２２番地",
        "latitude": 33.5595865,
        "longitude": 133.5292818,
        "id": "60ef1c01-7700-4a48-9a1e-d157df1785b1"
    },
    {
        "name": "上神社",
        "prefectureName": "高知県",
        "cityName": "南国市",
        "streetName": "植田１４４３番地",
        "latitude": 33.62199057,
        "longitude": 133.66119181,
        "id": "b9c0c147-8a6a-478a-9741-9c94958864e1"
    },
    {
        "name": "下折渡神社",
        "prefectureName": "高知県",
        "cityName": "高岡郡檮原町",
        "streetName": "下折渡９３番地",
        "latitude": 33.36792147,
        "longitude": 132.97945454,
        "id": "3527da16-bca9-4ac6-ab44-7555193f2861"
    },
    {
        "name": "下﨑神社",
        "prefectureName": "高知県",
        "cityName": "南国市",
        "streetName": "岡豊町小篭４４８番地",
        "latitude": 33.58307781,
        "longitude": 133.62792191,
        "id": "bbd300d6-b2d1-407b-b863-493b4498307d"
    },
    {
        "name": "中ノ川神社",
        "prefectureName": "高知県",
        "cityName": "室戸市",
        "streetName": "吉良川町乙１１６１番地",
        "latitude": 33.36975593,
        "longitude": 134.09828025,
        "id": "2b3fa6aa-8a8b-4939-b931-39c89d8ec4d5"
    },
    {
        "name": "中久保神社",
        "prefectureName": "高知県",
        "cityName": "高岡郡檮原町",
        "streetName": "仲久保３５１番地",
        "latitude": 33.3921313,
        "longitude": 132.92709,
        "id": "2aafe6da-0292-413b-ac68-01e591809d3a"
    },
    {
        "name": "中山二所神社",
        "prefectureName": "高知県",
        "cityName": "吾川郡仁淀川町",
        "streetName": "引地２０３番地",
        "latitude": 33.56758131,
        "longitude": 133.14745169,
        "id": "4660d85c-7e50-48b3-94e6-c2749205e8aa"
    },
    {
        "name": "中山神社",
        "prefectureName": "高知県",
        "cityName": "吾川郡仁淀川町",
        "streetName": "二子野２１３番地３",
        "latitude": 33.56252931,
        "longitude": 133.15185961,
        "id": "a9589eee-620d-49e6-be86-e5d8862a7306"
    },
    {
        "name": "中岡神社",
        "prefectureName": "高知県",
        "cityName": "高岡郡佐川町",
        "streetName": "丙６６７番地",
        "latitude": 33.51554635,
        "longitude": 133.26628361,
        "id": "655164b5-7e70-4f75-a4fb-fc6c7b1b3ad3"
    },
    {
        "name": "中島神社",
        "prefectureName": "高知県",
        "cityName": "吾川郡いの町",
        "streetName": "八田字天王島１１０８番地",
        "latitude": 33.5489374,
        "longitude": 133.427953,
        "id": "7af71e34-68d6-45e1-824e-943d1d0b893f"
    },
    {
        "name": "中村神社",
        "prefectureName": "高知県",
        "cityName": "吾川郡仁淀川町",
        "streetName": "中村１２２１番地",
        "latitude": 33.5752116,
        "longitude": 133.1711319,
        "id": "35476876-f5d5-45b6-b7f0-8388cfc1526a"
    },
    {
        "name": "中谷神社",
        "prefectureName": "高知県",
        "cityName": "高岡郡佐川町",
        "streetName": "永野２７９７番地ロ",
        "latitude": 33.5007654,
        "longitude": 133.2866906,
        "id": "1acbed94-ea78-4e1e-bcd6-40e1066e3a99"
    },
    {
        "name": "丸人神社",
        "prefectureName": "高知県",
        "cityName": "高岡郡佐川町",
        "streetName": "加茂４３０８番地",
        "latitude": 33.51276745,
        "longitude": 133.32503478,
        "id": "c28985ab-deb9-4bb4-b536-fc1891461b8e"
    },
    {
        "name": "丹生神社",
        "prefectureName": "高知県",
        "cityName": "土佐市",
        "streetName": "宇佐町井尻３２７番地",
        "latitude": 33.4387988,
        "longitude": 133.44345524,
        "id": "c1c6f1ee-63aa-4e73-af71-d5d5b7e44dc1"
    },
    {
        "name": "丹生神社",
        "prefectureName": "高知県",
        "cityName": "高岡郡佐川町",
        "streetName": "丙８９３番地",
        "latitude": 33.5007654,
        "longitude": 133.2866906,
        "id": "33f91d21-3c44-45f5-9bcb-8e83f11f477a"
    },
    {
        "name": "主馬神社",
        "prefectureName": "高知県",
        "cityName": "香南市",
        "streetName": "夜須町国光字北屋敷甲１０８２番地",
        "latitude": 33.52951958,
        "longitude": 133.75700551,
        "id": "aaf2a199-6647-4ddd-bed7-d07b38665e0a"
    },
    {
        "name": "久保神社",
        "prefectureName": "高知県",
        "cityName": "香美市",
        "streetName": "土佐山田町字久保１９５０番地",
        "latitude": 33.60967243,
        "longitude": 133.69153855,
        "id": "4870e107-b583-4977-a0f7-dab03f6353b5"
    },
    {
        "name": "久礼岩神社",
        "prefectureName": "高知県",
        "cityName": "安芸郡奈半利町",
        "streetName": "字久礼岩甲１３１６番地",
        "latitude": 33.4242445,
        "longitude": 134.0207275,
        "id": "0dd20b06-e3fe-41dd-8c2e-756e41b54bad"
    },
    {
        "name": "二又神社",
        "prefectureName": "高知県",
        "cityName": "安芸郡北川村",
        "streetName": "二又８６番地",
        "latitude": 33.4476938,
        "longitude": 134.0420693,
        "id": "11609455-5242-4ac4-a08e-6be9fc50efdc"
    },
    {
        "name": "二宮神社",
        "prefectureName": "高知県",
        "cityName": "土佐市",
        "streetName": "西鴨地７７０番地",
        "latitude": 33.4944578,
        "longitude": 133.4245278,
        "id": "a0c3a693-aa15-47b1-93d5-52febe70226a"
    },
    {
        "name": "二宮神社",
        "prefectureName": "高知県",
        "cityName": "高岡郡中土佐町",
        "streetName": "大野見槇野々２７９番地ノロ",
        "latitude": 33.33986999,
        "longitude": 133.12240442,
        "id": "ed74290f-6b66-48c9-835e-e3a21004aca7"
    },
    {
        "name": "二宮神社",
        "prefectureName": "高知県",
        "cityName": "高岡郡中土佐町",
        "streetName": "大野見三ツ又２番地",
        "latitude": 33.33526481,
        "longitude": 133.12047695,
        "id": "5f37e428-1307-43d3-afe0-c4b1645907f0"
    },
    {
        "name": "二所奥神社",
        "prefectureName": "高知県",
        "cityName": "吾川郡仁淀川町",
        "streetName": "宮ケ平１７８番地",
        "latitude": 33.64948961,
        "longitude": 133.19653461,
        "id": "ad0e2ff9-9f5c-445f-86bd-363c8acccbd1"
    },
    {
        "name": "二所神社",
        "prefectureName": "高知県",
        "cityName": "吾川郡仁淀川町",
        "streetName": "下名野川３２８番地",
        "latitude": 33.56715526,
        "longitude": 133.10342606,
        "id": "e601206d-f5da-45a2-8ba8-92f24aa9f86d"
    },
    {
        "name": "二社神社",
        "prefectureName": "高知県",
        "cityName": "吾川郡いの町",
        "streetName": "柳瀬本村９２９番地",
        "latitude": 33.56281459,
        "longitude": 133.3357751,
        "id": "b66fe676-2710-4bae-9c90-812b7a204489"
    },
    {
        "name": "五在所神社",
        "prefectureName": "高知県",
        "cityName": "高岡郡越知町",
        "streetName": "鎌井田桑藪３５５６番地",
        "latitude": 33.5329191,
        "longitude": 133.2519929,
        "id": "3efc2273-0ecd-49f9-b0e6-329c234a3294"
    },
    {
        "name": "五所神社",
        "prefectureName": "高知県",
        "cityName": "吾川郡仁淀川町",
        "streetName": "川渡自５６４７番地・至５６６５番地のイ",
        "latitude": 33.5752116,
        "longitude": 133.1711319,
        "id": "a95b7543-4140-4c23-a135-3c8ff7e9362b"
    },
    {
        "name": "五所神社",
        "prefectureName": "高知県",
        "cityName": "室戸市",
        "streetName": "吉良川町乙８８７番地",
        "latitude": 33.38163483,
        "longitude": 134.13377191,
        "id": "7388c30e-f233-4d39-8289-7c7fa26a4f3e"
    },
    {
        "name": "五所神社",
        "prefectureName": "高知県",
        "cityName": "高岡郡越知町",
        "streetName": "佐之国自２１１９・至２１２５合番地",
        "latitude": 33.5329191,
        "longitude": 133.2519929,
        "id": "10fbd8f8-7a72-4f27-93d8-dac4fae4237c"
    },
    {
        "name": "五所神社",
        "prefectureName": "高知県",
        "cityName": "室戸市",
        "streetName": "室戸岬町高岡字岩屋４０３０番地ロ",
        "latitude": 33.2900091,
        "longitude": 134.1520508,
        "id": "215c127e-234e-4381-b08d-0f6a16b17f2e"
    },
    {
        "name": "五所神社",
        "prefectureName": "高知県",
        "cityName": "吾川郡仁淀川町",
        "streetName": "泉２１２番地",
        "latitude": 33.49705321,
        "longitude": 133.0975305,
        "id": "bf02de84-4fc7-4315-9e97-bf6188f2e857"
    },
    {
        "name": "五所神社",
        "prefectureName": "高知県",
        "cityName": "高岡郡佐川町",
        "streetName": "乙２４４番地",
        "latitude": 33.5007654,
        "longitude": 133.2866906,
        "id": "c5324595-8c06-403b-9d37-96aaff0454b0"
    },
    {
        "name": "五所神社",
        "prefectureName": "高知県",
        "cityName": "吾川郡仁淀川町",
        "streetName": "長者丙２１４３番地",
        "latitude": 33.50136473,
        "longitude": 133.13022451,
        "id": "e2ab871a-8695-4261-b931-afc90081eb38"
    },
    {
        "name": "五社神社",
        "prefectureName": "高知県",
        "cityName": "幡多郡三原村",
        "streetName": "大字宮ノ川１００９番地",
        "latitude": 32.92215809,
        "longitude": 132.84651638,
        "id": "098628b3-fc04-4c22-9eef-1323ac5ff3f1"
    },
    {
        "name": "五社神社",
        "prefectureName": "高知県",
        "cityName": "土佐市",
        "streetName": "新居２０３４番地",
        "latitude": 33.4944578,
        "longitude": 133.4245278,
        "id": "1db21399-df67-40e4-9a82-ba4aa21c4ebf"
    },
    {
        "name": "五社神社",
        "prefectureName": "高知県",
        "cityName": "四万十市",
        "streetName": "江ノ村６５４６番地",
        "latitude": 32.9917478,
        "longitude": 132.9337212,
        "id": "a982d78c-b04b-4fa0-9de8-ce4f3ba830e8"
    },
    {
        "name": "五社神社",
        "prefectureName": "高知県",
        "cityName": "高岡郡津野町",
        "streetName": "黒川６３０番地１",
        "latitude": 33.44904475,
        "longitude": 133.15625893,
        "id": "54554e0c-85a7-4f36-99e9-7d2246f734c1"
    },
    {
        "name": "五社神社",
        "prefectureName": "高知県",
        "cityName": "高岡郡津野町",
        "streetName": "杉ノ川５１１番地",
        "latitude": 33.4466438,
        "longitude": 133.1994021,
        "id": "eb9e3185-bd54-4e67-b1ec-9a70179a7303"
    },
    {
        "name": "五社神社",
        "prefectureName": "高知県",
        "cityName": "安芸郡東洋町",
        "streetName": "大字白浜１５８番地",
        "latitude": 33.54454631,
        "longitude": 134.29093615,
        "id": "66102fff-f305-4043-aa91-b2588807c0b6"
    },
    {
        "name": "五社神社",
        "prefectureName": "高知県",
        "cityName": "高岡郡津野町",
        "streetName": "杉ノ川８４０番地ノ１",
        "latitude": 33.4466438,
        "longitude": 133.1994021,
        "id": "440894bd-5420-4837-9ae5-5a981093de49"
    },
    {
        "name": "井森神社",
        "prefectureName": "高知県",
        "cityName": "四万十市",
        "streetName": "大屋敷１３３番地",
        "latitude": 33.12732926,
        "longitude": 132.99968898,
        "id": "1d75db9e-8d2f-4c13-90d0-ff6c69ccbee0"
    },
    {
        "name": "井関神社",
        "prefectureName": "高知県",
        "cityName": "土佐市",
        "streetName": "高岡町甲１０９９番地",
        "latitude": 33.49209705,
        "longitude": 133.4307522,
        "id": "ab021110-88df-4641-b7ff-37a96aaa7b3d"
    },
    {
        "name": "仁井田三所神社",
        "prefectureName": "高知県",
        "cityName": "香美市",
        "streetName": "物部町大西１６３番地",
        "latitude": 33.75423107,
        "longitude": 133.91647686,
        "id": "b2f5dede-c635-4bb4-bbbc-5b018e864064"
    },
    {
        "name": "仁井田三所神社",
        "prefectureName": "高知県",
        "cityName": "香美市",
        "streetName": "物部町中上３２３番地",
        "latitude": 33.6038844,
        "longitude": 133.6862726,
        "id": "2bf2815f-5903-4f17-bb45-08ab71099306"
    },
    {
        "name": "仁井田三所神社",
        "prefectureName": "高知県",
        "cityName": "香美市",
        "streetName": "物部町笹４５番地ノイ",
        "latitude": 33.6038844,
        "longitude": 133.6862726,
        "id": "82b53f26-5466-4b41-852d-cd372cdaaf62"
    },
    {
        "name": "仁井田五所神社",
        "prefectureName": "高知県",
        "cityName": "香美市",
        "streetName": "土佐山田町佐野１６４０番地",
        "latitude": 33.60967243,
        "longitude": 133.69153855,
        "id": "d21dc2c8-9b68-42ec-b41a-61e82a4d9132"
    },
    {
        "name": "仁井田五所神社",
        "prefectureName": "高知県",
        "cityName": "高岡郡越知町",
        "streetName": "越知丁４０７９番地",
        "latitude": 33.5329191,
        "longitude": 133.2519929,
        "id": "a67a9002-7a43-4610-924d-8a18a85c4ad8"
    },
    {
        "name": "仁井田五所神社",
        "prefectureName": "高知県",
        "cityName": "高岡郡越知町",
        "streetName": "横畠東１番地",
        "latitude": 33.54930572,
        "longitude": 133.24656592,
        "id": "a0c4aa96-5aaa-4977-9631-67d56e588ab1"
    },
    {
        "name": "仁井田十二所神社",
        "prefectureName": "高知県",
        "cityName": "香南市",
        "streetName": "夜須町夜須川字仁井田７９２番地",
        "latitude": 33.52951958,
        "longitude": 133.75700551,
        "id": "2cf99689-bc44-4a25-a6f2-0939c7d1d898"
    },
    {
        "name": "仁井田神社",
        "prefectureName": "高知県",
        "cityName": "高知市",
        "streetName": "横浜東町１３８７番地",
        "latitude": 33.52123329,
        "longitude": 133.5501421,
        "id": "470554c6-88aa-41e1-9d17-2009fde5edca"
    },
    {
        "name": "仁井田神社",
        "prefectureName": "高知県",
        "cityName": "南国市",
        "streetName": "白木谷３６５４番地",
        "latitude": 33.62306231,
        "longitude": 133.58563487,
        "id": "db8d3e45-3e7f-4a91-aabd-ad23558b5f20"
    },
    {
        "name": "仁井田神社",
        "prefectureName": "高知県",
        "cityName": "長岡郡本山町",
        "streetName": "北山字宮谷丙２６０番地",
        "latitude": 33.757098,
        "longitude": 133.5911558,
        "id": "01b35aa9-3f5d-4bc6-a879-833017cff2dd"
    },
    {
        "name": "仁井田神社",
        "prefectureName": "高知県",
        "cityName": "安芸郡芸西村",
        "streetName": "馬ノ上仁井田３６７８番地",
        "latitude": 33.5267473,
        "longitude": 133.8092083,
        "id": "ed54624d-faa6-4026-8eb0-320584ab6267"
    },
    {
        "name": "仁井田神社",
        "prefectureName": "高知県",
        "cityName": "高知市",
        "streetName": "土佐山桑尾７８番イ地",
        "latitude": 33.63626502,
        "longitude": 133.52094286,
        "id": "2e6fa82e-684d-4e54-8159-ffd874cac2b1"
    },
    {
        "name": "仁井田神社",
        "prefectureName": "高知県",
        "cityName": "幡多郡三原村",
        "streetName": "大字下切５８４番地",
        "latitude": 32.88881784,
        "longitude": 132.79343415,
        "id": "6ea8d24a-f122-4135-8844-139f22a57001"
    },
    {
        "name": "仁井田神社",
        "prefectureName": "高知県",
        "cityName": "高岡郡越知町",
        "streetName": "南片岡字仁井田１６３５番地",
        "latitude": 33.5329191,
        "longitude": 133.2519929,
        "id": "268d4fc4-5716-4809-ae49-571af7f1bb7a"
    },
    {
        "name": "仁井田神社",
        "prefectureName": "高知県",
        "cityName": "長岡郡本山町",
        "streetName": "上関甲１２０番地",
        "latitude": 33.757098,
        "longitude": 133.5911558,
        "id": "65f53500-c38f-4f79-b3c1-3380935e0a95"
    },
    {
        "name": "仁井田神社",
        "prefectureName": "高知県",
        "cityName": "高知市",
        "streetName": "土佐山弘瀬字奈路３２８番地",
        "latitude": 33.63536815,
        "longitude": 133.52823947,
        "id": "a7bb9571-6562-4f87-98dd-28fa558a76da"
    },
    {
        "name": "仁井田神社",
        "prefectureName": "高知県",
        "cityName": "宿毛市",
        "streetName": "橋上町還住薮４０８番地",
        "latitude": 33.01405427,
        "longitude": 132.71203697,
        "id": "1ce1cc0d-4d08-4404-a4c2-970def687a5d"
    },
    {
        "name": "仁井田神社",
        "prefectureName": "高知県",
        "cityName": "高岡郡佐川町",
        "streetName": "黒原３５６番地",
        "latitude": 33.54737121,
        "longitude": 133.27876269,
        "id": "a7bab8bd-2e2b-49d4-b215-1fb00a1d2840"
    },
    {
        "name": "仁井田神社",
        "prefectureName": "高知県",
        "cityName": "香美市",
        "streetName": "香北町西川字宮ノ滝乙１９２７番地",
        "latitude": 33.65014141,
        "longitude": 133.78008697,
        "id": "41c0d51a-27df-41a3-9e01-b26039a93d50"
    },
    {
        "name": "仁井田神社",
        "prefectureName": "高知県",
        "cityName": "長岡郡本山町",
        "streetName": "坂本２２４・２２５番地",
        "latitude": 33.77171802,
        "longitude": 133.56365766,
        "id": "8ee2b5b6-bf86-402b-bbe5-1c66bfdcf811"
    },
    {
        "name": "仁井田神社",
        "prefectureName": "高知県",
        "cityName": "安芸郡北川村",
        "streetName": "大字平鍋２０３番地",
        "latitude": 33.4476938,
        "longitude": 134.0420693,
        "id": "1abf647e-14d0-4fba-9c02-47e659f292e5"
    },
    {
        "name": "仁井田神社",
        "prefectureName": "高知県",
        "cityName": "高知市",
        "streetName": "北秦泉寺３４５番地",
        "latitude": 33.58618594,
        "longitude": 133.53588668,
        "id": "20e2478e-eac6-4629-8415-96c8845452dd"
    },
    {
        "name": "仁井田神社",
        "prefectureName": "高知県",
        "cityName": "宿毛市",
        "streetName": "小筑紫町呼崎３２１番地",
        "latitude": 32.90173942,
        "longitude": 132.72412417,
        "id": "c4e6fc60-77c2-4376-acc5-1aa37b6df379"
    },
    {
        "name": "仁井田神社",
        "prefectureName": "高知県",
        "cityName": "高岡郡佐川町",
        "streetName": "四ツ白１０９８番地",
        "latitude": 33.54973247,
        "longitude": 133.31305486,
        "id": "1d5bd266-1e2a-425a-985c-32a782ba0e52"
    },
    {
        "name": "仁井田神社",
        "prefectureName": "高知県",
        "cityName": "高岡郡四万十町",
        "streetName": "下津井６８１番地",
        "latitude": 33.29335218,
        "longitude": 132.93859049,
        "id": "c873a3ea-3efa-4d73-9624-5079fcf883ff"
    },
    {
        "name": "仁井田神社",
        "prefectureName": "高知県",
        "cityName": "香美市",
        "streetName": "香北町梅久保字向田１２３０番地ロ",
        "latitude": 33.65014141,
        "longitude": 133.78008697,
        "id": "82281a10-3542-41a9-8942-5ceff95d401d"
    },
    {
        "name": "仁井田神社",
        "prefectureName": "高知県",
        "cityName": "高知市",
        "streetName": "鏡敷ノ山２６１番地",
        "latitude": 33.63112166,
        "longitude": 133.41047315,
        "id": "9fd54ead-0b5d-42e1-8694-0e846dd00f80"
    },
    {
        "name": "仁井田神社",
        "prefectureName": "高知県",
        "cityName": "宿毛市",
        "streetName": "大深浦１９９５番地",
        "latitude": 32.9372901,
        "longitude": 132.69106535,
        "id": "08cb9667-fca4-4310-98f7-296baa3925b0"
    },
    {
        "name": "仁井田神社",
        "prefectureName": "高知県",
        "cityName": "香美市",
        "streetName": "香北町有川１４１番地",
        "latitude": 33.65014141,
        "longitude": 133.78008697,
        "id": "738d74fe-ef01-40ed-a15b-3932847d0b39"
    },
    {
        "name": "仁井田神社",
        "prefectureName": "高知県",
        "cityName": "長岡郡大豊町",
        "streetName": "津家４６３・４６４番地",
        "latitude": 33.76638396,
        "longitude": 133.64602348,
        "id": "cb8f8030-2be5-4a2d-b1b3-3e4c444b5ea2"
    },
    {
        "name": "仁井田神社",
        "prefectureName": "高知県",
        "cityName": "高知市",
        "streetName": "土佐山高川自７７８至７８３合番地",
        "latitude": 33.63536815,
        "longitude": 133.52823947,
        "id": "006a6b1b-ecab-4b49-960b-80987fe1277e"
    },
    {
        "name": "仁井田神社",
        "prefectureName": "高知県",
        "cityName": "四万十市",
        "streetName": "伊才原２７６４・２７６５番地",
        "latitude": 33.08508018,
        "longitude": 132.95553524,
        "id": "30012016-9e36-4213-b459-12b7e92d8bb5"
    },
    {
        "name": "仁井田神社",
        "prefectureName": "高知県",
        "cityName": "土佐清水市",
        "streetName": "有永２１００番地",
        "latitude": 32.7816326,
        "longitude": 132.9549886,
        "id": "66890e5b-7bc1-4f62-a70a-a3c4407fd2b1"
    },
    {
        "name": "仁井田神社",
        "prefectureName": "高知県",
        "cityName": "宿毛市",
        "streetName": "小筑紫町石原１８４６番地",
        "latitude": 32.85777761,
        "longitude": 132.7456934,
        "id": "eeceec63-5f0c-4b2f-9def-1d1bd0938fcf"
    },
    {
        "name": "仁井田神社",
        "prefectureName": "高知県",
        "cityName": "香美市",
        "streetName": "香北町猪野々５１番地",
        "latitude": 33.65014141,
        "longitude": 133.78008697,
        "id": "db4934c4-df88-4597-a3dd-4e5bded1b1ed"
    },
    {
        "name": "仁井田神社",
        "prefectureName": "高知県",
        "cityName": "香美市",
        "streetName": "香北町吉野５９９番地",
        "latitude": 33.65972145,
        "longitude": 133.80830063,
        "id": "346af376-7a3d-4328-8983-32113e543640"
    },
    {
        "name": "仁井田神社",
        "prefectureName": "高知県",
        "cityName": "南国市",
        "streetName": "上倉６３２番地",
        "latitude": 33.64144875,
        "longitude": 133.58729878,
        "id": "4365c04f-2e90-488e-b146-ce8115c3efe0"
    },
    {
        "name": "仁井田神社",
        "prefectureName": "高知県",
        "cityName": "香南市",
        "streetName": "香我美町舞川字相名渕２５６３番地",
        "latitude": 33.54580891,
        "longitude": 133.73021917,
        "id": "fc3247a1-2875-4c25-89b8-334f93e0b71c"
    },
    {
        "name": "仁井田神社",
        "prefectureName": "高知県",
        "cityName": "土佐郡土佐町",
        "streetName": "和田２２６０番地",
        "latitude": 33.73594013,
        "longitude": 133.48007313,
        "id": "aea22049-813d-45a2-9685-e11303975e1a"
    },
    {
        "name": "仁井田神社",
        "prefectureName": "高知県",
        "cityName": "安芸市",
        "streetName": "古井１２８番地",
        "latitude": 33.5025959,
        "longitude": 133.9071606,
        "id": "69969302-061a-48ff-b144-cd9d8fc121fc"
    },
    {
        "name": "仁井田神社",
        "prefectureName": "高知県",
        "cityName": "四万十市",
        "streetName": "森沢３６４３番地",
        "latitude": 32.96557178,
        "longitude": 132.90054445,
        "id": "d9ad3845-0043-4a34-9f8d-9960b38e9350"
    },
    {
        "name": "仁井田神社",
        "prefectureName": "高知県",
        "cityName": "長岡郡本山町",
        "streetName": "吉延字ヲリド３９４番地",
        "latitude": 33.757098,
        "longitude": 133.5911558,
        "id": "15e772ca-c0d4-4f7a-8449-fa4274c88f5e"
    },
    {
        "name": "仁井田神社",
        "prefectureName": "高知県",
        "cityName": "安芸市",
        "streetName": "栃ノ木３３５番地",
        "latitude": 33.55934446,
        "longitude": 133.90193915,
        "id": "f7f4d851-19c8-4344-8647-86444a912015"
    },
    {
        "name": "仁井田神社",
        "prefectureName": "高知県",
        "cityName": "高知市",
        "streetName": "仁井田３５１４番地",
        "latitude": 33.52018435,
        "longitude": 133.57868966,
        "id": "62be1d4b-5978-4458-badc-59a524346754"
    },
    {
        "name": "仁井田神社",
        "prefectureName": "高知県",
        "cityName": "土佐清水市",
        "streetName": "立石１１６２番地",
        "latitude": 32.7816326,
        "longitude": 132.9549886,
        "id": "14d8a2c0-301f-473a-a5fe-94985c21567e"
    },
    {
        "name": "仁井田神社",
        "prefectureName": "高知県",
        "cityName": "幡多郡三原村",
        "streetName": "大字狼内１３２９番地",
        "latitude": 32.92688095,
        "longitude": 132.89752645,
        "id": "6cd01b72-f8c1-409b-8165-b56f550fc7a8"
    },
    {
        "name": "仁井田神社",
        "prefectureName": "高知県",
        "cityName": "香美市",
        "streetName": "土佐山田町樫谷字池ガナロ１０３番地１",
        "latitude": 33.60967243,
        "longitude": 133.69153855,
        "id": "e64d5200-a276-4ebf-92b7-be1a058986fd"
    },
    {
        "name": "仁井田神社",
        "prefectureName": "高知県",
        "cityName": "香美市",
        "streetName": "物部町押谷８４１番地",
        "latitude": 33.6038844,
        "longitude": 133.6862726,
        "id": "2d66a25e-2808-445d-bd15-da1023da85e9"
    },
    {
        "name": "仁井田神社",
        "prefectureName": "高知県",
        "cityName": "南国市",
        "streetName": "中谷３０８番地",
        "latitude": 33.64303196,
        "longitude": 133.59277325,
        "id": "eb6c16b7-da43-4703-9d63-aa962037ef8e"
    },
    {
        "name": "仁井田神社",
        "prefectureName": "高知県",
        "cityName": "香南市",
        "streetName": "夜須町羽尾字ミヤノシタ２２６番地",
        "latitude": 33.52951958,
        "longitude": 133.75700551,
        "id": "d43933fa-fe2d-498d-abcc-c89f4578703e"
    },
    {
        "name": "仁井田神社",
        "prefectureName": "高知県",
        "cityName": "安芸市",
        "streetName": "尾川乙３７２番地",
        "latitude": 33.5025959,
        "longitude": 133.9071606,
        "id": "ded6c1d2-6c1e-4c62-9bba-a7417f1bce96"
    },
    {
        "name": "仁井田神社",
        "prefectureName": "高知県",
        "cityName": "安芸郡芸西村",
        "streetName": "久重字和田乙２４２５・２４２７番地",
        "latitude": 33.5267473,
        "longitude": 133.8092083,
        "id": "8b3bb6cf-9d13-4eb3-af99-b9860f8d4bcd"
    },
    {
        "name": "今川内神社",
        "prefectureName": "高知県",
        "cityName": "須崎市",
        "streetName": "浦ノ内今川内３３７番地",
        "latitude": 33.42064737,
        "longitude": 133.41151443,
        "id": "d0e92adb-0dad-40c0-af71-920cf143aebe"
    },
    {
        "name": "今池神社",
        "prefectureName": "高知県",
        "cityName": "安芸郡東洋町",
        "streetName": "大字野根字白子石丙２１７７番地",
        "latitude": 33.528312,
        "longitude": 134.2799207,
        "id": "95ca619d-2ca0-4e10-8313-e885def787bf"
    },
    {
        "name": "今清神社",
        "prefectureName": "高知県",
        "cityName": "須崎市",
        "streetName": "幸町１１番１２号",
        "latitude": 33.38954597,
        "longitude": 133.28066171,
        "id": "5753019e-f199-4ddf-8e5a-a57d5acbfb04"
    },
    {
        "name": "伊勢ヶ岡神社",
        "prefectureName": "高知県",
        "cityName": "香南市",
        "streetName": "夜須町西山字宮ノ原２４２番地",
        "latitude": 33.52951958,
        "longitude": 133.75700551,
        "id": "60b84727-1322-4426-a111-6351007790d0"
    },
    {
        "name": "伊勢横山七所神社",
        "prefectureName": "高知県",
        "cityName": "高岡郡越知町",
        "streetName": "横畠北２８８５番地",
        "latitude": 33.58686122,
        "longitude": 133.22411608,
        "id": "825c2bd6-6728-41ac-b9ba-68ced750450a"
    },
    {
        "name": "伊勢神社",
        "prefectureName": "高知県",
        "cityName": "四万十市",
        "streetName": "横瀬字シンタテ山２７４２番地",
        "latitude": 32.98548948,
        "longitude": 132.83052648,
        "id": "d13f533d-0cce-43b4-9e95-d44d3976b812"
    },
    {
        "name": "伊勢神社",
        "prefectureName": "高知県",
        "cityName": "高知市",
        "streetName": "春野町西分３５３１番地",
        "latitude": 33.51207325,
        "longitude": 133.48603615,
        "id": "7208831d-5142-47d0-a30f-7276b3ef18a5"
    },
    {
        "name": "伊勢神社",
        "prefectureName": "高知県",
        "cityName": "高知市",
        "streetName": "春野町森山字西山３０５５番地",
        "latitude": 33.49087078,
        "longitude": 133.50150225,
        "id": "fa99c18b-b3be-445c-a3cc-caa86b084d1f"
    },
    {
        "name": "伊毛神社",
        "prefectureName": "高知県",
        "cityName": "吾川郡いの町",
        "streetName": "字神母３６６５番地",
        "latitude": 33.5489374,
        "longitude": 133.427953,
        "id": "dbb575ca-373a-4e9b-a9a5-5b83e807d777"
    },
    {
        "name": "伊気神社",
        "prefectureName": "高知県",
        "cityName": "土佐市",
        "streetName": "高岡町丙５４１番地",
        "latitude": 33.49758797,
        "longitude": 133.42765242,
        "id": "36194782-6733-4d27-99b1-c8d68ba44a9f"
    },
    {
        "name": "伊気神社",
        "prefectureName": "高知県",
        "cityName": "須崎市",
        "streetName": "上分甲１１０番地",
        "latitude": 33.4007642,
        "longitude": 133.2829582,
        "id": "09bcb48b-b02b-4d1d-9af7-1a1317abdd60"
    },
    {
        "name": "伊気神社",
        "prefectureName": "高知県",
        "cityName": "土佐市",
        "streetName": "高岡町丙２１５番地",
        "latitude": 33.49758797,
        "longitude": 133.42765242,
        "id": "902dda16-7563-4922-ae38-650b8369d695"
    },
    {
        "name": "伊気神社",
        "prefectureName": "高知県",
        "cityName": "土佐市",
        "streetName": "高岡町甲４６６番地",
        "latitude": 33.49279426,
        "longitude": 133.43849864,
        "id": "574ccacb-ded7-44e7-938d-0e0c05ffb050"
    },
    {
        "name": "伊気神社",
        "prefectureName": "高知県",
        "cityName": "南国市",
        "streetName": "田村字市場ノ前乙４７９番１１",
        "latitude": 33.56600841,
        "longitude": 133.66791317,
        "id": "427e5222-4882-4302-80ab-7ee41f49b9a0"
    },
    {
        "name": "伊気神社",
        "prefectureName": "高知県",
        "cityName": "香南市",
        "streetName": "香我美町上分３０３５番地",
        "latitude": 33.54580891,
        "longitude": 133.73021917,
        "id": "3ac3ca7b-d666-404c-bd62-2ac0c9aae8ff"
    },
    {
        "name": "伊気神社",
        "prefectureName": "高知県",
        "cityName": "土佐市",
        "streetName": "高岡町甲１１９０番地",
        "latitude": 33.48948632,
        "longitude": 133.42971075,
        "id": "50b40cb0-e5c7-4e39-81cb-a3bbc356aefd"
    },
    {
        "name": "伊気神社",
        "prefectureName": "高知県",
        "cityName": "須崎市",
        "streetName": "上分甲１２２５番地",
        "latitude": 33.4007642,
        "longitude": 133.2829582,
        "id": "32166c48-b06a-49a9-a14f-cd9d959ab84d"
    },
    {
        "name": "伊氣神社",
        "prefectureName": "高知県",
        "cityName": "高岡郡佐川町",
        "streetName": "甲１９６番地",
        "latitude": 33.5007654,
        "longitude": 133.2866906,
        "id": "08acc925-0ffc-443c-969c-f70beee027bf"
    },
    {
        "name": "伊氣神社",
        "prefectureName": "高知県",
        "cityName": "吾川郡仁淀川町",
        "streetName": "土居甲６４６番地",
        "latitude": 33.60583853,
        "longitude": 133.16431269,
        "id": "18de4efc-c359-4663-89a2-514255ecfd22"
    },
    {
        "name": "伊羅須神社",
        "prefectureName": "高知県",
        "cityName": "吾川郡仁淀川町",
        "streetName": "用居乙１８９５番地",
        "latitude": 33.5752116,
        "longitude": 133.1711319,
        "id": "66b2f92f-e95b-417b-8eb3-ecfb0ca652c5"
    },
    {
        "name": "伊豆田神社",
        "prefectureName": "高知県",
        "cityName": "土佐清水市",
        "streetName": "下ノ加江字西高知山３１３５番地",
        "latitude": 32.7816326,
        "longitude": 132.9549886,
        "id": "33031685-8872-4caf-b3cf-d70a78492c46"
    },
    {
        "name": "伊都多神社",
        "prefectureName": "高知県",
        "cityName": "南国市",
        "streetName": "前浜境目橋詰４４１番地",
        "latitude": 33.5756703,
        "longitude": 133.6414595,
        "id": "a394e945-a0c4-4a40-8d5c-8a8886515e97"
    },
    {
        "name": "伊都多神社",
        "prefectureName": "高知県",
        "cityName": "南国市",
        "streetName": "田村字龍光寺１２０９番地",
        "latitude": 33.56600841,
        "longitude": 133.66791317,
        "id": "7233e2b7-bb7c-453e-9527-e43cd9cf5e5a"
    },
    {
        "name": "伏森神社",
        "prefectureName": "高知県",
        "cityName": "香美市",
        "streetName": "土佐山田町入野字宮丸２４８番ロ地",
        "latitude": 33.60967243,
        "longitude": 133.69153855,
        "id": "595530b4-2758-4d2e-a0e4-c6c0035fdc63"
    },
    {
        "name": "住吉神社",
        "prefectureName": "高知県",
        "cityName": "宿毛市",
        "streetName": "小筑紫町栄喜５６３番地",
        "latitude": 32.9390104,
        "longitude": 132.7262852,
        "id": "69dc9943-2fee-4c20-b8ca-d33b812cd8c6"
    },
    {
        "name": "住吉神社",
        "prefectureName": "高知県",
        "cityName": "香南市",
        "streetName": "夜須町手結山字西長里１５５３番地",
        "latitude": 33.52951958,
        "longitude": 133.75700551,
        "id": "f3a285e7-f532-442d-b2f9-0a60a6de6aa6"
    },
    {
        "name": "住吉神社",
        "prefectureName": "高知県",
        "cityName": "安芸市",
        "streetName": "古井字後ロイダブチ２６６番地３８",
        "latitude": 33.5025959,
        "longitude": 133.9071606,
        "id": "4b150b4d-6ced-42a2-81c9-93594a198cfb"
    },
    {
        "name": "住吉神社",
        "prefectureName": "高知県",
        "cityName": "安芸郡奈半利町",
        "streetName": "字竪横町乙１６８０番地",
        "latitude": 33.4242445,
        "longitude": 134.0207275,
        "id": "7b8cc6c6-9567-46ad-a264-c4c41e4450b6"
    },
    {
        "name": "住吉神社",
        "prefectureName": "高知県",
        "cityName": "高知市",
        "streetName": "長浜字南江口６６１４番地",
        "latitude": 33.50129903,
        "longitude": 133.54565173,
        "id": "91d9e1fd-c27d-4309-b7bd-146c1599a60e"
    },
    {
        "name": "住吉神社",
        "prefectureName": "高知県",
        "cityName": "吾川郡いの町",
        "streetName": "勝賀瀬５２３番地",
        "latitude": 33.57804676,
        "longitude": 133.35358983,
        "id": "d4ddd704-0fe3-471a-84b5-2f4de4d915dc"
    },
    {
        "name": "住吉神社",
        "prefectureName": "高知県",
        "cityName": "高岡郡津野町",
        "streetName": "永野５１１番地",
        "latitude": 33.44432188,
        "longitude": 133.19903282,
        "id": "6b9b86d3-6a75-4dee-9763-f781462881db"
    },
    {
        "name": "住吉神社",
        "prefectureName": "高知県",
        "cityName": "高知市",
        "streetName": "池字住吉林２２２０番地",
        "latitude": 33.5595865,
        "longitude": 133.5292818,
        "id": "fbe5c86c-d794-4f0f-820a-a780c8682976"
    },
    {
        "name": "住吉神社",
        "prefectureName": "高知県",
        "cityName": "土佐清水市",
        "streetName": "大浜３８８番地",
        "latitude": 32.75118797,
        "longitude": 132.96478249,
        "id": "cbff2348-bf6b-4093-a18d-52cd3a6ac172"
    },
    {
        "name": "住吉神社",
        "prefectureName": "高知県",
        "cityName": "幡多郡大月町",
        "streetName": "大字大浦１１６３番地",
        "latitude": 32.75994453,
        "longitude": 132.76465647,
        "id": "bb4f98a6-e9b7-41f3-81c5-0fb8416fb257"
    },
    {
        "name": "住吉神社",
        "prefectureName": "高知県",
        "cityName": "南国市",
        "streetName": "大埇乙３４２３番地",
        "latitude": 33.5756703,
        "longitude": 133.6414595,
        "id": "51fc95c8-a386-44c3-9969-33e6c44d8973"
    },
    {
        "name": "住吉神社",
        "prefectureName": "高知県",
        "cityName": "土佐郡土佐町",
        "streetName": "高須字池の森７４９番地",
        "latitude": 33.7131853,
        "longitude": 133.52911146,
        "id": "04bf3f77-916b-4c58-b8a9-c673508f63b0"
    },
    {
        "name": "住吉神社",
        "prefectureName": "高知県",
        "cityName": "室戸市",
        "streetName": "室津字後免２７５６番地",
        "latitude": 33.2900091,
        "longitude": 134.1520508,
        "id": "b5f9db8f-57c6-4ea3-b3b6-deaf8411cb7c"
    },
    {
        "name": "住吉神社",
        "prefectureName": "高知県",
        "cityName": "高知市",
        "streetName": "五台山２９９８番地",
        "latitude": 33.5595865,
        "longitude": 133.5292818,
        "id": "bb80fdca-c405-47b5-8f2b-42d802c16d18"
    },
    {
        "name": "住吉神社",
        "prefectureName": "高知県",
        "cityName": "四万十市",
        "streetName": "西土佐須崎６６５番地",
        "latitude": 33.15258886,
        "longitude": 132.74095428,
        "id": "8a8d8d23-9371-4997-a9fa-2b5f99ae1baa"
    },
    {
        "name": "住吉神社",
        "prefectureName": "高知県",
        "cityName": "宿毛市",
        "streetName": "山奈町山田１２７５番地",
        "latitude": 32.96510851,
        "longitude": 132.81765925,
        "id": "e5e11f3f-f16c-4a69-a1ca-609578024a77"
    },
    {
        "name": "住吉神社",
        "prefectureName": "高知県",
        "cityName": "高岡郡中土佐町",
        "streetName": "久礼７００９・７０１０番地",
        "latitude": 33.3277278,
        "longitude": 133.2283852,
        "id": "e3e2d1f9-54fb-4384-9c86-c0728206f914"
    },
    {
        "name": "住吉神社",
        "prefectureName": "高知県",
        "cityName": "南国市",
        "streetName": "前浜字季重１７１１番地",
        "latitude": 33.5756703,
        "longitude": 133.6414595,
        "id": "c522767e-737b-43d1-b493-4bab97617e22"
    },
    {
        "name": "住吉神社",
        "prefectureName": "高知県",
        "cityName": "須崎市",
        "streetName": "上分甲２８６８番地",
        "latitude": 33.40817607,
        "longitude": 133.22130952,
        "id": "0c81d57c-8c96-4291-a433-fcc1c713bd17"
    },
    {
        "name": "佐城神社",
        "prefectureName": "高知県",
        "cityName": "長岡郡本山町",
        "streetName": "七戸字佐城４６１番地ロ",
        "latitude": 33.757098,
        "longitude": 133.5911558,
        "id": "ba451374-13b7-424b-876d-486ec27c7653"
    },
    {
        "name": "佐婆居神社",
        "prefectureName": "高知県",
        "cityName": "高岡郡佐川町",
        "streetName": "甲６５４番地",
        "latitude": 33.50488996,
        "longitude": 133.30270616,
        "id": "defb2ff6-ff6a-4ec0-a492-680fa0ebb473"
    },
    {
        "name": "佐婆為神社",
        "prefectureName": "高知県",
        "cityName": "高知市",
        "streetName": "春野町内ノ谷３９０番地",
        "latitude": 33.49087078,
        "longitude": 133.50150225,
        "id": "be6271d8-708e-4990-9f83-9cfc74937071"
    },
    {
        "name": "佐婆為神社",
        "prefectureName": "高知県",
        "cityName": "吾川郡仁淀川町",
        "streetName": "川渡自７０５４番地・至７０５５番地",
        "latitude": 33.5752116,
        "longitude": 133.1711319,
        "id": "76dbfe69-1b2b-4fb9-a4dd-894d1c0aec1e"
    },
    {
        "name": "佐田神社",
        "prefectureName": "高知県",
        "cityName": "高知市",
        "streetName": "上町２丁目２番１３号",
        "latitude": 33.55761162,
        "longitude": 133.52377112,
        "id": "84db2cef-43fa-4c66-a46d-a63133a95311"
    },
    {
        "name": "佐竹神社",
        "prefectureName": "高知県",
        "cityName": "高岡郡中土佐町",
        "streetName": "久礼７７４４番地",
        "latitude": 33.3277278,
        "longitude": 133.2283852,
        "id": "80502792-bf31-4034-8326-423153189b0e"
    },
    {
        "name": "佐葉恵神社",
        "prefectureName": "高知県",
        "cityName": "香美市",
        "streetName": "土佐山田町須江１０６番地",
        "latitude": 33.60967243,
        "longitude": 133.69153855,
        "id": "ef5c5cd6-fbf0-45aa-b584-a0dcd35ff1ae"
    },
    {
        "name": "信守神社",
        "prefectureName": "高知県",
        "cityName": "安芸郡奈半利町",
        "streetName": "甲７１番地",
        "latitude": 33.38307186,
        "longitude": 134.03790792,
        "id": "3af2f243-d42e-49d0-9a65-26fe3332be96"
    },
    {
        "name": "入江神社",
        "prefectureName": "高知県",
        "cityName": "四万十市",
        "streetName": "伊才原２８１３番地",
        "latitude": 33.08266938,
        "longitude": 132.95739629,
        "id": "7d677292-9a49-443a-a1ed-ba29e33dff1a"
    },
    {
        "name": "八坂神社",
        "prefectureName": "高知県",
        "cityName": "高知市",
        "streetName": "南はりまや町２丁目１４番４号",
        "latitude": 33.55787895,
        "longitude": 133.54601624,
        "id": "fcbe51f1-4e8c-4cec-8330-5c4b4574ea97"
    },
    {
        "name": "八坂神社",
        "prefectureName": "高知県",
        "cityName": "四万十市",
        "streetName": "田野川甲６４番地",
        "latitude": 33.04274516,
        "longitude": 132.92491726,
        "id": "0a3633ca-bb29-463b-9197-d1f3f1db799f"
    },
    {
        "name": "八坂神社",
        "prefectureName": "高知県",
        "cityName": "四万十市",
        "streetName": "西土佐薮ケ市５１７番地",
        "latitude": 33.1524948,
        "longitude": 132.7553554,
        "id": "5ee5c49f-8b3b-4e9f-a754-34145cde093a"
    },
    {
        "name": "八坂神社",
        "prefectureName": "高知県",
        "cityName": "宿毛市",
        "streetName": "小筑紫町内外ノ浦１１ノ１番地",
        "latitude": 32.9390104,
        "longitude": 132.7262852,
        "id": "1d0337f8-2723-425b-aa69-76403bf59183"
    },
    {
        "name": "八坂神社",
        "prefectureName": "高知県",
        "cityName": "吾川郡仁淀川町",
        "streetName": "大平１４４２番地",
        "latitude": 33.61962932,
        "longitude": 133.20368404,
        "id": "a249b831-65b6-4890-be6a-38e71865890e"
    },
    {
        "name": "八坂神社",
        "prefectureName": "高知県",
        "cityName": "土佐清水市",
        "streetName": "下ノ加江字下船場２５８番地",
        "latitude": 32.7816326,
        "longitude": 132.9549886,
        "id": "cbe89148-4699-4f34-bd32-4fd7d866e2a5"
    },
    {
        "name": "八坂神社",
        "prefectureName": "高知県",
        "cityName": "高岡郡四万十町",
        "streetName": "井崎１１６５番地",
        "latitude": 33.20436327,
        "longitude": 132.84680253,
        "id": "e3743d98-9d82-40d2-b2e3-d540d4da3e5c"
    },
    {
        "name": "八坂神社",
        "prefectureName": "高知県",
        "cityName": "安芸市",
        "streetName": "黒瀬６１番地",
        "latitude": 33.5626203,
        "longitude": 133.97072154,
        "id": "662e105b-93a8-4553-b169-61a753850e49"
    },
    {
        "name": "八坂神社",
        "prefectureName": "高知県",
        "cityName": "高知市",
        "streetName": "針原字宮ノ本６５９番地",
        "latitude": 33.5595865,
        "longitude": 133.5292818,
        "id": "75150fd9-465c-40dc-b590-c9421c7ddeb9"
    },
    {
        "name": "八坂神社",
        "prefectureName": "高知県",
        "cityName": "四万十市",
        "streetName": "西土佐橘１０２９番地",
        "latitude": 33.15583757,
        "longitude": 132.79583656,
        "id": "c90ea667-224e-491a-a86c-bc70ffc62e34"
    },
    {
        "name": "八坂神社",
        "prefectureName": "高知県",
        "cityName": "土佐清水市",
        "streetName": "浦尻３５８番地",
        "latitude": 32.78148614,
        "longitude": 132.97401925,
        "id": "113dc3d4-79a9-4292-8c96-fc51f030539d"
    },
    {
        "name": "八坂神社",
        "prefectureName": "高知県",
        "cityName": "宿毛市",
        "streetName": "小筑紫町栄喜５４７番地",
        "latitude": 32.87258926,
        "longitude": 132.70535825,
        "id": "0bf638c3-411c-4bb8-9f5c-91fdab232040"
    },
    {
        "name": "八坂神社",
        "prefectureName": "高知県",
        "cityName": "高岡郡四万十町",
        "streetName": "十和川口２８３番地",
        "latitude": 33.22617978,
        "longitude": 132.83537218,
        "id": "c931ab4f-bce0-4b5a-8806-3919b7eeb405"
    },
    {
        "name": "八坂神社",
        "prefectureName": "高知県",
        "cityName": "安芸市",
        "streetName": "川北甲３６１８番地",
        "latitude": 33.5089207,
        "longitude": 133.93459567,
        "id": "66696248-bca2-44f0-8f66-dc5d62d16b7b"
    },
    {
        "name": "八坂神社",
        "prefectureName": "高知県",
        "cityName": "室戸市",
        "streetName": "室津上稲石１２５８番地",
        "latitude": 33.2900091,
        "longitude": 134.1520508,
        "id": "e0cd5d20-84a3-486f-a6e0-47bd597cfd39"
    },
    {
        "name": "八坂神社",
        "prefectureName": "高知県",
        "cityName": "高知市",
        "streetName": "五台山４１５３番地のイ",
        "latitude": 33.54379529,
        "longitude": 133.57558047,
        "id": "a1156f6a-7d8d-4de3-af5a-bb7a65e30277"
    },
    {
        "name": "八坂神社",
        "prefectureName": "高知県",
        "cityName": "四万十市",
        "streetName": "楠３０１番地",
        "latitude": 33.04684212,
        "longitude": 132.83164775,
        "id": "2c2c008d-7550-4355-b5ff-a9ac8e440b40"
    },
    {
        "name": "八坂神社",
        "prefectureName": "高知県",
        "cityName": "高岡郡四万十町",
        "streetName": "黒石１１６４番地",
        "latitude": 33.2222328,
        "longitude": 133.1984695,
        "id": "6d80866f-d409-4f22-b31a-a3567ffd454f"
    },
    {
        "name": "八坂神社",
        "prefectureName": "高知県",
        "cityName": "高岡郡四万十町",
        "streetName": "小野２６８番地",
        "latitude": 33.23028085,
        "longitude": 132.86990914,
        "id": "0d5b4baf-a8d1-4cd5-a21a-ac26ed6b087e"
    },
    {
        "name": "八坂神社",
        "prefectureName": "高知県",
        "cityName": "安芸市",
        "streetName": "安芸ノ川乙７６５番地",
        "latitude": 33.5025959,
        "longitude": 133.9071606,
        "id": "68b31185-0856-428b-841f-e849f6600e20"
    },
    {
        "name": "八坂神社",
        "prefectureName": "高知県",
        "cityName": "室戸市",
        "streetName": "室戸岬町椎名字八坂４６４番地",
        "latitude": 33.2900091,
        "longitude": 134.1520508,
        "id": "0b421668-617c-46a3-925e-d69ef1200939"
    },
    {
        "name": "八坂神社",
        "prefectureName": "高知県",
        "cityName": "高知市",
        "streetName": "河ノ瀬町８２番地",
        "latitude": 33.5595865,
        "longitude": 133.5292818,
        "id": "aa24aca9-b56a-4207-b4d6-88b3e0452175"
    },
    {
        "name": "八坂神社",
        "prefectureName": "高知県",
        "cityName": "四万十市",
        "streetName": "森沢３５２４番地",
        "latitude": 32.97052144,
        "longitude": 132.90425509,
        "id": "510c40fa-9c26-4a0a-a289-2c5ab7942148"
    },
    {
        "name": "八坂神社",
        "prefectureName": "高知県",
        "cityName": "宿毛市",
        "streetName": "橋上町神有１１４３番地",
        "latitude": 32.99795822,
        "longitude": 132.76213195,
        "id": "b1219b02-2862-4590-97f1-3b0593b878fe"
    },
    {
        "name": "八坂神社",
        "prefectureName": "高知県",
        "cityName": "南国市",
        "streetName": "国分１２１４番地",
        "latitude": 33.60423989,
        "longitude": 133.6426155,
        "id": "bb3e4eeb-7f1f-4282-8954-565cedf636a3"
    },
    {
        "name": "八坂神社",
        "prefectureName": "高知県",
        "cityName": "長岡郡大豊町",
        "streetName": "杉７９４番地",
        "latitude": 33.75514671,
        "longitude": 133.66272478,
        "id": "6cbd1e53-ae41-44e6-bdd9-8162ffafce63"
    },
    {
        "name": "八坂神社",
        "prefectureName": "高知県",
        "cityName": "長岡郡本山町",
        "streetName": "古田３８４番地",
        "latitude": 33.757098,
        "longitude": 133.5911558,
        "id": "c1eae4ac-d555-4e87-8f53-14b4e107bf3b"
    },
    {
        "name": "八坂神社",
        "prefectureName": "高知県",
        "cityName": "高知市",
        "streetName": "鏡梅ノ木２８７番地",
        "latitude": 33.59628744,
        "longitude": 133.42385018,
        "id": "148d1a7e-c9c4-4a57-b8f9-204f9272404e"
    },
    {
        "name": "八坂神社",
        "prefectureName": "高知県",
        "cityName": "幡多郡大月町",
        "streetName": "大字添ノ川７６８番地",
        "latitude": 32.8484476,
        "longitude": 132.72632384,
        "id": "9b4b0ebe-9bd1-495f-9b2c-926e72f08289"
    },
    {
        "name": "八坂神社",
        "prefectureName": "高知県",
        "cityName": "宿毛市",
        "streetName": "山奈町山田８６７番地",
        "latitude": 32.97464062,
        "longitude": 132.82075014,
        "id": "6a4e4298-18f2-4527-9bb8-f8003a336b15"
    },
    {
        "name": "八坂神社",
        "prefectureName": "高知県",
        "cityName": "高岡郡日高村",
        "streetName": "下分１１４９番地",
        "latitude": 33.53885418,
        "longitude": 133.38961023,
        "id": "9d485a9e-0cd2-4bde-92db-e94b174aee11"
    },
    {
        "name": "八坂神社",
        "prefectureName": "高知県",
        "cityName": "吾川郡いの町",
        "streetName": "清水上分１０６番地",
        "latitude": 33.68399458,
        "longitude": 133.34114333,
        "id": "a8f0800e-4301-4645-9ade-d40f16345e49"
    },
    {
        "name": "八坂神社",
        "prefectureName": "高知県",
        "cityName": "土佐市",
        "streetName": "家俊１１８７番地",
        "latitude": 33.45987269,
        "longitude": 133.34706077,
        "id": "024ae95a-d6de-4cae-935b-b8471105e3ec"
    },
    {
        "name": "八坂神社",
        "prefectureName": "高知県",
        "cityName": "須崎市",
        "streetName": "下分甲２３７番地",
        "latitude": 33.38720729,
        "longitude": 133.27790934,
        "id": "62177b7d-b7bf-46f4-973c-73df0fa8d02a"
    },
    {
        "name": "八坂神社",
        "prefectureName": "高知県",
        "cityName": "高岡郡四万十町",
        "streetName": "道徳３０１番地ノロ",
        "latitude": 33.26898291,
        "longitude": 133.19108337,
        "id": "edc4dc83-f0e3-4be1-bd8b-bcae4d681006"
    },
    {
        "name": "八坂神社",
        "prefectureName": "高知県",
        "cityName": "南国市",
        "streetName": "廿枝字祇園１６９２番地",
        "latitude": 33.5756703,
        "longitude": 133.6414595,
        "id": "28a5f1bb-1064-41c7-b21c-f74e82b39dde"
    },
    {
        "name": "八坂神社",
        "prefectureName": "高知県",
        "cityName": "香南市",
        "streetName": "夜須町国光字北天王甲４０２番地",
        "latitude": 33.52951958,
        "longitude": 133.75700551,
        "id": "3ad78f9d-c807-4dd2-a400-d85532d95638"
    },
    {
        "name": "八坂神社",
        "prefectureName": "高知県",
        "cityName": "長岡郡大豊町",
        "streetName": "大平字中山４６２番地",
        "latitude": 33.7642121,
        "longitude": 133.6642272,
        "id": "6b3b07ba-a5d8-4130-a583-a223aef396b9"
    },
    {
        "name": "八坂神社",
        "prefectureName": "高知県",
        "cityName": "土佐郡土佐町",
        "streetName": "田井字山ノ神脇１５５番地",
        "latitude": 33.737127,
        "longitude": 133.5319219,
        "id": "8b670f88-d877-42f1-b32f-011fa703f710"
    },
    {
        "name": "八坂神社",
        "prefectureName": "高知県",
        "cityName": "幡多郡黒潮町",
        "streetName": "荷稲４５２番地",
        "latitude": 33.13191593,
        "longitude": 133.11921316,
        "id": "a382a1bf-8187-42aa-9ee6-a600e5399e80"
    },
    {
        "name": "八坂神社",
        "prefectureName": "高知県",
        "cityName": "宿毛市",
        "streetName": "山奈町山田８６７番地",
        "latitude": 32.97464062,
        "longitude": 132.82075014,
        "id": "b7c87dfe-c600-4f97-9056-4967ceca29ab"
    },
    {
        "name": "八坂神社",
        "prefectureName": "高知県",
        "cityName": "吾川郡いの町",
        "streetName": "６４７９番地",
        "latitude": 33.54759378,
        "longitude": 133.44504856,
        "id": "d1bf818d-3061-4c21-b0a9-8e3f4339e134"
    },
    {
        "name": "八坂神社",
        "prefectureName": "高知県",
        "cityName": "香南市",
        "streetName": "香我美町正延字ドウメン６７番地のロ",
        "latitude": 33.54580891,
        "longitude": 133.73021917,
        "id": "d0e2c40a-0a39-48f4-8877-f52f39a58981"
    },
    {
        "name": "八坂神社",
        "prefectureName": "高知県",
        "cityName": "土佐郡大川村",
        "streetName": "中切２９１番地",
        "latitude": 33.7840621,
        "longitude": 133.4665968,
        "id": "3725ef0b-846e-4d70-b8c8-87c61f962df2"
    },
    {
        "name": "八坂神社",
        "prefectureName": "高知県",
        "cityName": "吾川郡いの町",
        "streetName": "上八川寺野１２７９番地",
        "latitude": 33.5489374,
        "longitude": 133.427953,
        "id": "b9c154d1-429e-4200-80dd-14825d65bcaf"
    },
    {
        "name": "八坂神社",
        "prefectureName": "高知県",
        "cityName": "高岡郡四万十町",
        "streetName": "七里甲１０１１番地",
        "latitude": 33.257816,
        "longitude": 133.1256326,
        "id": "e0c2d505-d425-4de4-8776-25c371b1c807"
    },
    {
        "name": "八坂神社",
        "prefectureName": "高知県",
        "cityName": "高岡郡四万十町",
        "streetName": "興津２３３５番地",
        "latitude": 33.16082249,
        "longitude": 133.20904802,
        "id": "4011d2ff-6d43-42a9-963f-6c1c9c67b8f5"
    },
    {
        "name": "八坂神社",
        "prefectureName": "高知県",
        "cityName": "香美市",
        "streetName": "土佐山田町東川２６０４番地",
        "latitude": 33.60967243,
        "longitude": 133.69153855,
        "id": "11902789-a3c0-4007-9fbd-ebe2cdc69821"
    },
    {
        "name": "八坂神社",
        "prefectureName": "高知県",
        "cityName": "香美市",
        "streetName": "香北町太郎丸字道ノ北１５８番地",
        "latitude": 33.65014141,
        "longitude": 133.78008697,
        "id": "d4aa4cf5-0618-4efa-948e-3dfee7bcb2d6"
    },
    {
        "name": "八坂神社",
        "prefectureName": "高知県",
        "cityName": "南国市",
        "streetName": "成合２３９番イ地",
        "latitude": 33.65087739,
        "longitude": 133.65437027,
        "id": "6e687b2d-550b-496a-b8fb-1c2a7b9d6699"
    },
    {
        "name": "八坂神社",
        "prefectureName": "高知県",
        "cityName": "幡多郡三原村",
        "streetName": "大字宮ノ川１０１３番地",
        "latitude": 32.91680589,
        "longitude": 132.84795545,
        "id": "5164a5f9-55f5-4046-9498-3b98375fae42"
    },
    {
        "name": "八坂神社",
        "prefectureName": "高知県",
        "cityName": "香美市",
        "streetName": "土佐山田町逆川字大坪２５５番地",
        "latitude": 33.60967243,
        "longitude": 133.69153855,
        "id": "186de52d-6601-49ff-963e-6ac444abeed3"
    },
    {
        "name": "八幡宮神社",
        "prefectureName": "高知県",
        "cityName": "高知市",
        "streetName": "春野町弘岡上字西和田１４４７番地",
        "latitude": 33.49087078,
        "longitude": 133.50150225,
        "id": "ce0dec77-507d-4de1-9d56-4c44fe45d63a"
    },
    {
        "name": "八幡神社",
        "prefectureName": "高知県",
        "cityName": "宿毛市",
        "streetName": "沖の島町母島１７０９番地",
        "latitude": 32.9390104,
        "longitude": 132.7262852,
        "id": "968b33ff-c6cc-4ef6-af51-1aacd3e5debe"
    },
    {
        "name": "八幡神社",
        "prefectureName": "高知県",
        "cityName": "高岡郡日高村",
        "streetName": "沖名１番地",
        "latitude": 33.53161324,
        "longitude": 133.37367188,
        "id": "c82e5652-23e5-4b4b-902d-6b3e17e33cd6"
    },
    {
        "name": "八幡神社",
        "prefectureName": "高知県",
        "cityName": "土佐清水市",
        "streetName": "越１０６番地",
        "latitude": 32.7816326,
        "longitude": 132.9549886,
        "id": "461817ee-9c37-44cc-a1a5-41e99ddb50f6"
    },
    {
        "name": "八所川内神社",
        "prefectureName": "高知県",
        "cityName": "吾川郡いの町",
        "streetName": "上八川下分７１８１番地・７１８２番地",
        "latitude": 33.5489374,
        "longitude": 133.427953,
        "id": "0b26469c-47d2-4142-87c4-ac8f45e651d4"
    },
    {
        "name": "八所川内神社",
        "prefectureName": "高知県",
        "cityName": "吾川郡いの町",
        "streetName": "上八川津賀ノ谷１４４５番地",
        "latitude": 33.5489374,
        "longitude": 133.427953,
        "id": "a2a1dc18-034a-4149-845f-51e39203a43f"
    },
    {
        "name": "八所川内神社",
        "prefectureName": "高知県",
        "cityName": "吾川郡仁淀川町",
        "streetName": "川内谷５番地",
        "latitude": 33.61130497,
        "longitude": 133.18474912,
        "id": "ffa71fef-573f-4d2b-9903-37990861b920"
    },
    {
        "name": "八所河内神社",
        "prefectureName": "高知県",
        "cityName": "吾川郡仁淀川町",
        "streetName": "土居５７番地",
        "latitude": 33.64033786,
        "longitude": 133.19407936,
        "id": "27a671c8-b8c4-4c73-80d1-489acc0551b8"
    },
    {
        "name": "八所河内神社",
        "prefectureName": "高知県",
        "cityName": "吾川郡いの町",
        "streetName": "小野字土居屋敷ノ上１７１６番地",
        "latitude": 33.5489374,
        "longitude": 133.427953,
        "id": "2d931a56-c375-4211-84cf-795743763cf6"
    },
    {
        "name": "八所神社",
        "prefectureName": "高知県",
        "cityName": "吾川郡仁淀川町",
        "streetName": "大植２２１７番地",
        "latitude": 33.47714504,
        "longitude": 133.10317176,
        "id": "1cc8eb1a-5c59-4be9-91f3-659df3062f3a"
    },
    {
        "name": "八所神社",
        "prefectureName": "高知県",
        "cityName": "吾川郡仁淀川町",
        "streetName": "大植１５２０番地",
        "latitude": 33.47996654,
        "longitude": 133.0931005,
        "id": "7f3a9166-d41f-4f3c-b4c0-34abe1b32097"
    },
    {
        "name": "八所鞍馬神社",
        "prefectureName": "高知県",
        "cityName": "吾川郡いの町",
        "streetName": "小川新別９７７番地",
        "latitude": 33.63025769,
        "longitude": 133.2768825,
        "id": "96b9c7f9-513d-45ee-a0f8-d8bc0394b330"
    },
    {
        "name": "八王子日吉神社",
        "prefectureName": "高知県",
        "cityName": "香南市",
        "streetName": "香我美町上分字幅ノ後３０８２番地・３０８３番地",
        "latitude": 33.54580891,
        "longitude": 133.73021917,
        "id": "1fac3d11-a32c-4efb-ad24-4866eaaac714"
    },
    {
        "name": "八王子神社",
        "prefectureName": "高知県",
        "cityName": "高岡郡佐川町",
        "streetName": "瑞應２８０番地",
        "latitude": 33.53538079,
        "longitude": 133.28684552,
        "id": "b3769e54-a4f5-4c62-be80-82842b5d2c66"
    },
    {
        "name": "八王子神社",
        "prefectureName": "高知県",
        "cityName": "室戸市",
        "streetName": "室戸岬町椎名字宮ノ上７０３番地",
        "latitude": 33.2900091,
        "longitude": 134.1520508,
        "id": "bcc36753-e3d7-4923-b4d6-2e22b2dc1adc"
    },
    {
        "name": "八王子神社",
        "prefectureName": "高知県",
        "cityName": "須崎市",
        "streetName": "神田４１７番地",
        "latitude": 33.41592911,
        "longitude": 133.30988372,
        "id": "45df7ac0-1e76-4758-ac82-9340369b3a4c"
    },
    {
        "name": "八王子神社",
        "prefectureName": "高知県",
        "cityName": "安芸郡北川村",
        "streetName": "大字野友甲６１０番地",
        "latitude": 33.44742164,
        "longitude": 134.03856411,
        "id": "45dc0f0b-227e-428f-8f97-5c8fd426d641"
    },
    {
        "name": "八王子神社",
        "prefectureName": "高知県",
        "cityName": "須崎市",
        "streetName": "浦ノ内立目摺木７４３番地",
        "latitude": 33.43630349,
        "longitude": 133.37680917,
        "id": "b8391f75-4227-409b-9c70-649f9e7319ca"
    },
    {
        "name": "八王神社",
        "prefectureName": "高知県",
        "cityName": "吾川郡いの町",
        "streetName": "上八川下分４８８９番地・４９０１番地",
        "latitude": 33.5489374,
        "longitude": 133.427953,
        "id": "3b9e2ce5-4d52-4199-9f87-804b18ff26b2"
    },
    {
        "name": "八皇子神社",
        "prefectureName": "高知県",
        "cityName": "幡多郡大月町",
        "streetName": "大字頭集６４９番地",
        "latitude": 32.8414813,
        "longitude": 132.7070259,
        "id": "6c33e7ff-128f-4126-a950-1d64ddd04d5c"
    },
    {
        "name": "八社中和田神社",
        "prefectureName": "高知県",
        "cityName": "四万十市",
        "streetName": "具同８６６９・８６７０番地",
        "latitude": 32.9917478,
        "longitude": 132.9337212,
        "id": "9cd2edbc-1c34-48a6-b1b3-45d44d501c39"
    },
    {
        "name": "八社川内神社",
        "prefectureName": "高知県",
        "cityName": "吾川郡いの町",
        "streetName": "小川西津賀才４８０番地イ・４８０番地ロ",
        "latitude": 33.6303774,
        "longitude": 133.28553996,
        "id": "3d01e706-ab71-473a-b379-0f6e336ad751"
    },
    {
        "name": "八社河内神社",
        "prefectureName": "高知県",
        "cityName": "高知市",
        "streetName": "鏡横矢１７０番地",
        "latitude": 33.60761123,
        "longitude": 133.43876524,
        "id": "0152a2d4-7925-4a1b-9902-da7a11c7f4e2"
    },
    {
        "name": "八面神社",
        "prefectureName": "高知県",
        "cityName": "宿毛市",
        "streetName": "小筑紫町石原１８８０番地",
        "latitude": 32.84050802,
        "longitude": 132.76415833,
        "id": "74a660dc-0a3f-4231-a725-c4bcccadedb1"
    },
    {
        "name": "八面神社",
        "prefectureName": "高知県",
        "cityName": "土佐清水市",
        "streetName": "斧積２４５番地",
        "latitude": 32.7816326,
        "longitude": 132.9549886,
        "id": "8c4c56dd-7459-475c-bd3d-db9cf9508c4a"
    },
    {
        "name": "八面神社",
        "prefectureName": "高知県",
        "cityName": "長岡郡大豊町",
        "streetName": "筏木４２４・４２５番地",
        "latitude": 33.7642121,
        "longitude": 133.6642272,
        "id": "30dd7690-915b-4a8c-9adb-cc7762a11f7f"
    },
    {
        "name": "公士方神社",
        "prefectureName": "高知県",
        "cityName": "香美市",
        "streetName": "物部町別府１８６・１８７合番地",
        "latitude": 33.76250699,
        "longitude": 134.03014564,
        "id": "0a9f9522-f2fb-45b8-b026-ac738df46b94"
    },
    {
        "name": "六十余尊神社",
        "prefectureName": "高知県",
        "cityName": "高岡郡四万十町",
        "streetName": "日野地２８１番地ロ",
        "latitude": 33.30785256,
        "longitude": 133.08435934,
        "id": "6ec76e31-0ccb-4626-bb58-d65f22cbbef7"
    },
    {
        "name": "六所神社",
        "prefectureName": "高知県",
        "cityName": "高岡郡日高村",
        "streetName": "岩目地４０番地イ",
        "latitude": 33.52465777,
        "longitude": 133.32832055,
        "id": "6ffdd10b-8c16-4a6b-bfc1-8b1fa9f7e3f0"
    },
    {
        "name": "六拾余尊神社",
        "prefectureName": "高知県",
        "cityName": "高岡郡津野町",
        "streetName": "杉ノ川８９９番地２",
        "latitude": 33.4466438,
        "longitude": 133.1994021,
        "id": "fa64e81f-58df-4dec-9cd8-35f2dccdc732"
    },
    {
        "name": "六社川内神社",
        "prefectureName": "高知県",
        "cityName": "吾川郡いの町",
        "streetName": "小川樅ノ木山２９２１番地",
        "latitude": 33.64954354,
        "longitude": 133.27696037,
        "id": "ccc459cc-6843-47db-95a6-c7de45e02b13"
    },
    {
        "name": "六社神社",
        "prefectureName": "高知県",
        "cityName": "吾川郡いの町",
        "streetName": "上八川乙６１１番イ地",
        "latitude": 33.5489374,
        "longitude": 133.427953,
        "id": "4ba80270-ad86-40b0-9410-a333a861751f"
    },
    {
        "name": "六社神社",
        "prefectureName": "高知県",
        "cityName": "高岡郡中土佐町",
        "streetName": "大野見三ツ又５９６番地ノ１",
        "latitude": 33.3277278,
        "longitude": 133.2283852,
        "id": "a76d60ac-63db-448d-beac-a15c75ff4c05"
    },
    {
        "name": "六社聖神社",
        "prefectureName": "高知県",
        "cityName": "長岡郡大豊町",
        "streetName": "日浦１０４番地",
        "latitude": 33.77108367,
        "longitude": 133.68324357,
        "id": "4e179b3d-a7d0-4562-8dbc-77a2cde73046"
    },
    {
        "name": "六竿神社",
        "prefectureName": "高知県",
        "cityName": "土佐清水市",
        "streetName": "三崎５０２２番地",
        "latitude": 32.78917576,
        "longitude": 132.87212062,
        "id": "2ceb7cdb-6682-4454-a2e0-a82fef4b588e"
    },
    {
        "name": "兼山神社",
        "prefectureName": "高知県",
        "cityName": "高知市",
        "streetName": "吸江２１０番地４",
        "latitude": 33.5490806,
        "longitude": 133.5693475,
        "id": "9e6cb97b-474d-4259-8259-5824b39e33d4"
    },
    {
        "name": "内ノ川神社",
        "prefectureName": "高知県",
        "cityName": "室戸市",
        "streetName": "吉良川町甲１９６９番地",
        "latitude": 33.2900091,
        "longitude": 134.1520508,
        "id": "ae0da0b5-e963-4160-bfc8-8dd2bea9927e"
    },
    {
        "name": "内宮神社",
        "prefectureName": "高知県",
        "cityName": "香南市",
        "streetName": "野市町東佐古字東ノ宮４９１番地",
        "latitude": 33.56244529,
        "longitude": 133.69895787,
        "id": "6f79de56-ac12-4b01-a298-0755a6d7e054"
    },
    {
        "name": "出雲神社",
        "prefectureName": "高知県",
        "cityName": "高岡郡檮原町",
        "streetName": "川西路２３５２番地",
        "latitude": 33.39153411,
        "longitude": 132.9242264,
        "id": "cd103a77-3356-463d-9467-1c23a00a7ef1"
    },
    {
        "name": "刈谷神社",
        "prefectureName": "高知県",
        "cityName": "須崎市",
        "streetName": "浦ノ内西分３５４４番地のロ",
        "latitude": 33.4007642,
        "longitude": 133.2829582,
        "id": "10853607-a069-4eb8-a63d-07ed608640df"
    },
    {
        "name": "初瀬神社",
        "prefectureName": "高知県",
        "cityName": "高岡郡檮原町",
        "streetName": "初瀬本村７番地",
        "latitude": 33.36043573,
        "longitude": 132.94485218,
        "id": "6c61e61b-64ba-478f-8f86-cb1ac6f908ce"
    },
    {
        "name": "判官神社",
        "prefectureName": "高知県",
        "cityName": "高岡郡四万十町",
        "streetName": "奈路１５０番地",
        "latitude": 33.23383689,
        "longitude": 133.18649533,
        "id": "ade9b647-490c-4b5e-abe1-de822d15683a"
    },
    {
        "name": "利賀神社",
        "prefectureName": "高知県",
        "cityName": "安芸市",
        "streetName": "井ノ口乙２０９０番地",
        "latitude": 33.5482428,
        "longitude": 133.89457633,
        "id": "2447ae1d-42c9-44e0-98df-248b8c8b05da"
    },
    {
        "name": "剣尾神社",
        "prefectureName": "高知県",
        "cityName": "須崎市",
        "streetName": "浦ノ内塩間７３２番地",
        "latitude": 33.4541433,
        "longitude": 133.40039522,
        "id": "d75bc8d8-a452-43a9-a041-5b93bdadf404"
    },
    {
        "name": "剣神社",
        "prefectureName": "高知県",
        "cityName": "香美市",
        "streetName": "香北町西川字宮ノ奥甲３６番地",
        "latitude": 33.65014141,
        "longitude": 133.78008697,
        "id": "efe8f005-f7c2-43d3-857d-866e4308e2b2"
    },
    {
        "name": "剱尾神社",
        "prefectureName": "高知県",
        "cityName": "南国市",
        "streetName": "里改田２６４４番地",
        "latitude": 33.53332828,
        "longitude": 133.63358315,
        "id": "6e583c9d-1c4f-490c-984b-54c502a83a96"
    },
    {
        "name": "加茂神社",
        "prefectureName": "高知県",
        "cityName": "香美市",
        "streetName": "土佐山田町加茂字タタズノモト８９７番地",
        "latitude": 33.60967243,
        "longitude": 133.69153855,
        "id": "557d2087-8eae-4882-98d4-435fd376f6fc"
    },
    {
        "name": "加茂神社",
        "prefectureName": "高知県",
        "cityName": "須崎市",
        "streetName": "多ノ郷甲１７８０番地",
        "latitude": 33.41154083,
        "longitude": 133.27746937,
        "id": "633e2cfb-4718-4fdc-b014-d58fd5a807f2"
    },
    {
        "name": "加茂神社",
        "prefectureName": "高知県",
        "cityName": "香美市",
        "streetName": "土佐山田町繁藤１３番地１・１３番地３",
        "latitude": 33.67954098,
        "longitude": 133.68638338,
        "id": "3e345ff0-a0b1-42ba-9d15-1021ab22769a"
    },
    {
        "name": "加茂神社",
        "prefectureName": "高知県",
        "cityName": "幡多郡黒潮町",
        "streetName": "入野６９３０番地",
        "latitude": 33.02275534,
        "longitude": 133.01458847,
        "id": "9ec9029c-fb12-444d-817d-19c57a1da677"
    },
    {
        "name": "加茂神社",
        "prefectureName": "高知県",
        "cityName": "高岡郡四万十町",
        "streetName": "中村３０３・３０４番地",
        "latitude": 33.2116551,
        "longitude": 133.1370262,
        "id": "567cb7ac-34a7-4b9a-bfac-19ff54e3b38e"
    },
    {
        "name": "勝手神社",
        "prefectureName": "高知県",
        "cityName": "高知市",
        "streetName": "鏡今井７０６番地",
        "latitude": 33.61092228,
        "longitude": 133.4686346,
        "id": "b787d0ee-4cf9-4da8-8b5a-4edbd35624b8"
    },
    {
        "name": "勝手神社",
        "prefectureName": "高知県",
        "cityName": "香南市",
        "streetName": "香我美町口西川字下モヤシキ１３０９番地",
        "latitude": 33.54580891,
        "longitude": 133.73021917,
        "id": "dccf158c-a235-4a8f-826b-5b280e376c56"
    },
    {
        "name": "勝間神社",
        "prefectureName": "高知県",
        "cityName": "四万十市",
        "streetName": "勝間６４４番地",
        "latitude": 33.06129532,
        "longitude": 132.81804552,
        "id": "6fcb5b9c-079f-4c20-bf45-5850a5b4ab71"
    },
    {
        "name": "北川神社",
        "prefectureName": "高知県",
        "cityName": "吾川郡仁淀川町",
        "streetName": "北川１１７番地",
        "latitude": 33.5752116,
        "longitude": 133.1711319,
        "id": "b1dbeef6-f0b2-4f1a-a960-8c39a700e253"
    },
    {
        "name": "北村神社",
        "prefectureName": "高知県",
        "cityName": "高岡郡中土佐町",
        "streetName": "久礼６８３３番地",
        "latitude": 33.34042007,
        "longitude": 133.22580757,
        "id": "66aa7850-5710-4692-a57b-74b394d196fa"
    },
    {
        "name": "北野川神社",
        "prefectureName": "高知県",
        "cityName": "高岡郡四万十町",
        "streetName": "北野川３７番地",
        "latitude": 33.2116551,
        "longitude": 133.1370262,
        "id": "ed70eaa7-aec8-4536-aed9-76b5288c588a"
    },
    {
        "name": "北野神社",
        "prefectureName": "高知県",
        "cityName": "室戸市",
        "streetName": "室戸岬町三津字丸山１８４９番地",
        "latitude": 33.2900091,
        "longitude": 134.1520508,
        "id": "5a4e7d8a-f49d-4df6-9cef-b52ac58e9d02"
    },
    {
        "name": "十三躰星神社",
        "prefectureName": "高知県",
        "cityName": "安芸郡芸西村",
        "streetName": "道家字マトバ１３４番地",
        "latitude": 33.5267473,
        "longitude": 133.8092083,
        "id": "0ff13a2a-517f-4afd-a489-0795538ebb42"
    },
    {
        "name": "十二所神社",
        "prefectureName": "高知県",
        "cityName": "安芸市",
        "streetName": "小谷４８３番地",
        "latitude": 33.55828299,
        "longitude": 133.88082798,
        "id": "824d9026-a5d4-4a6e-8551-fa423881387b"
    },
    {
        "name": "十二所神社",
        "prefectureName": "高知県",
        "cityName": "安芸郡芸西村",
        "streetName": "久重乙２１９４番地",
        "latitude": 33.56359401,
        "longitude": 133.82954435,
        "id": "058f0b14-be52-4083-943f-66a3900ff23d"
    },
    {
        "name": "十二所神社",
        "prefectureName": "高知県",
        "cityName": "長岡郡大豊町",
        "streetName": "谷５８９番地",
        "latitude": 33.78246552,
        "longitude": 133.67557513,
        "id": "f0b84726-7e7a-438e-acf6-0a73b8dd61f2"
    },
    {
        "name": "十二所神社",
        "prefectureName": "高知県",
        "cityName": "安芸郡北川村",
        "streetName": "大字野友乙８１２番地",
        "latitude": 33.45255978,
        "longitude": 134.04135804,
        "id": "ccd07786-6f4d-4f07-8125-78ee4bce9727"
    },
    {
        "name": "十二所神社",
        "prefectureName": "高知県",
        "cityName": "長岡郡大豊町",
        "streetName": "中村大王１１８４番地",
        "latitude": 33.75282488,
        "longitude": 133.67029055,
        "id": "ef162265-89ad-48fb-8691-0a1c576e4218"
    },
    {
        "name": "十二所神社",
        "prefectureName": "高知県",
        "cityName": "土佐市",
        "streetName": "北地４１１６番地",
        "latitude": 33.4944578,
        "longitude": 133.4245278,
        "id": "1fe7f4e0-3edc-46da-94c0-2d127f3a54f6"
    },
    {
        "name": "十二所神社",
        "prefectureName": "高知県",
        "cityName": "香美市",
        "streetName": "土佐山田町曽我部川字宮ノ谷１２８２番地イ",
        "latitude": 33.60967243,
        "longitude": 133.69153855,
        "id": "dc2e0c49-2b15-4add-9714-c745074734ec"
    },
    {
        "name": "十二所神社",
        "prefectureName": "高知県",
        "cityName": "香美市",
        "streetName": "物部町小浜３１０番地",
        "latitude": 33.71319323,
        "longitude": 133.91647302,
        "id": "7da4f45e-dba5-4a79-86d7-ec6744411700"
    },
    {
        "name": "十二所神社",
        "prefectureName": "高知県",
        "cityName": "長岡郡大豊町",
        "streetName": "小川１６４９番地",
        "latitude": 33.73638004,
        "longitude": 133.66614955,
        "id": "84045ad0-ad95-4308-9baa-c398101e662c"
    },
    {
        "name": "十二所神社",
        "prefectureName": "高知県",
        "cityName": "長岡郡本山町",
        "streetName": "下関６４・６５番地",
        "latitude": 33.757098,
        "longitude": 133.5911558,
        "id": "baf54a32-2e0a-45db-9a46-2d8bca346e4e"
    },
    {
        "name": "十二所神社",
        "prefectureName": "高知県",
        "cityName": "香美市",
        "streetName": "物部町市宇３７２番地２",
        "latitude": 33.7436763,
        "longitude": 134.00058452,
        "id": "d0d2f591-807c-4688-9ec5-b1b0cc77a490"
    },
    {
        "name": "十二所神社",
        "prefectureName": "高知県",
        "cityName": "長岡郡大豊町",
        "streetName": "西峰字宮尾１８２６番地",
        "latitude": 33.7642121,
        "longitude": 133.6642272,
        "id": "226c28f8-aee4-4c69-ae29-db4cd794c424"
    },
    {
        "name": "十二所神社",
        "prefectureName": "高知県",
        "cityName": "長岡郡本山町",
        "streetName": "本山２４８番地",
        "latitude": 33.75433453,
        "longitude": 133.58911443,
        "id": "2541839a-d1ed-4f4b-8c21-0b9c236d5f94"
    },
    {
        "name": "十二社神社",
        "prefectureName": "高知県",
        "cityName": "吾川郡いの町",
        "streetName": "鎌田４６番地",
        "latitude": 33.54418492,
        "longitude": 133.41877083,
        "id": "045019b1-e5be-4bb8-b62f-eac7b00884eb"
    },
    {
        "name": "十二社神社",
        "prefectureName": "高知県",
        "cityName": "高岡郡日高村",
        "streetName": "大花５６３番地１",
        "latitude": 33.55265743,
        "longitude": 133.34375791,
        "id": "4f41dd80-6c02-4f5d-9d6f-e61aacf0db78"
    },
    {
        "name": "十二社神社",
        "prefectureName": "高知県",
        "cityName": "高岡郡中土佐町",
        "streetName": "久礼６８３９番地",
        "latitude": 33.3277278,
        "longitude": 133.2283852,
        "id": "7cdf583b-2a86-4b1f-b159-d5839a9fbed8"
    },
    {
        "name": "十二神社",
        "prefectureName": "高知県",
        "cityName": "安芸市",
        "streetName": "尾川乙８３番地",
        "latitude": 33.5025959,
        "longitude": 133.9071606,
        "id": "bf69eef9-905a-4986-bcaf-a28460a6b8a4"
    },
    {
        "name": "千福神社",
        "prefectureName": "高知県",
        "cityName": "安芸郡田野町",
        "streetName": "１３００番地",
        "latitude": 33.4279385,
        "longitude": 134.0084815,
        "id": "37bc4745-8dd5-4d59-a1d5-f0c14edfead4"
    },
    {
        "name": "厚朴神社",
        "prefectureName": "高知県",
        "cityName": "土佐清水市",
        "streetName": "有永１１２６番地",
        "latitude": 32.7816326,
        "longitude": 132.9549886,
        "id": "904644c9-b103-400c-a2be-524492e2278c"
    },
    {
        "name": "原田神社",
        "prefectureName": "高知県",
        "cityName": "安芸郡奈半利町",
        "streetName": "字原田甲７０１５番地",
        "latitude": 33.4242445,
        "longitude": 134.0207275,
        "id": "56035322-ea26-40b2-8c51-7757c64fd301"
    },
    {
        "name": "原神社",
        "prefectureName": "高知県",
        "cityName": "高知市",
        "streetName": "長浜３９２２番地",
        "latitude": 33.50129903,
        "longitude": 133.54565173,
        "id": "6a05448d-61ba-43b1-a99c-478eb06f9dab"
    },
    {
        "name": "厳島神社",
        "prefectureName": "高知県",
        "cityName": "高知市",
        "streetName": "御畳瀬４２９番地１",
        "latitude": 33.50638781,
        "longitude": 133.55875322,
        "id": "432fd0c5-f7a5-49e5-bdfc-276576c724ad"
    },
    {
        "name": "厳島神社",
        "prefectureName": "高知県",
        "cityName": "幡多郡黒潮町",
        "streetName": "浮鞭１３２６番地",
        "latitude": 33.04370648,
        "longitude": 133.0300305,
        "id": "aeaf159c-3ac1-4822-9789-9b9b04849167"
    },
    {
        "name": "厳島神社",
        "prefectureName": "高知県",
        "cityName": "四万十市",
        "streetName": "不破１３５９番地",
        "latitude": 32.98000993,
        "longitude": 132.93882967,
        "id": "f458872c-dbf5-420f-a7e3-d71f1bcca22f"
    },
    {
        "name": "厳島神社",
        "prefectureName": "高知県",
        "cityName": "土佐清水市",
        "streetName": "爪白４７９番地",
        "latitude": 32.7816326,
        "longitude": 132.9549886,
        "id": "200c3a9f-c4b0-4e7c-ab37-45fcbc1616f0"
    },
    {
        "name": "厳島神社",
        "prefectureName": "高知県",
        "cityName": "須崎市",
        "streetName": "下分甲２４５番地",
        "latitude": 33.4007642,
        "longitude": 133.2829582,
        "id": "f2af707b-204d-4b4a-80f8-658a4f60e077"
    },
    {
        "name": "厳島神社",
        "prefectureName": "高知県",
        "cityName": "安芸郡東洋町",
        "streetName": "大字河内６番地",
        "latitude": 33.528312,
        "longitude": 134.2799207,
        "id": "50309073-43c7-4e3d-9b35-f7e4a56bd335"
    },
    {
        "name": "古井神社",
        "prefectureName": "高知県",
        "cityName": "香美市",
        "streetName": "香北町古井１５８番地",
        "latitude": 33.65014141,
        "longitude": 133.78008697,
        "id": "ebebb9ad-0bba-422b-9961-b39839ad16e5"
    },
    {
        "name": "古津賀神社",
        "prefectureName": "高知県",
        "cityName": "四万十市",
        "streetName": "古津賀１８４３番地",
        "latitude": 32.9917478,
        "longitude": 132.9337212,
        "id": "23990756-2ee4-4a82-86c8-56c58c27a35e"
    },
    {
        "name": "古用地神社",
        "prefectureName": "高知県",
        "cityName": "高岡郡佐川町",
        "streetName": "永野３１１７番地",
        "latitude": 33.49716616,
        "longitude": 133.30170342,
        "id": "347bfc0e-354a-4d63-b12b-2717c611bb6b"
    },
    {
        "name": "古美谷上神社",
        "prefectureName": "高知県",
        "cityName": "高岡郡日高村",
        "streetName": "鴨地５３１番地１",
        "latitude": 33.535235,
        "longitude": 133.3733441,
        "id": "e241e5f1-0fbd-4477-bae0-3fc59a08cac8"
    },
    {
        "name": "吉良神社",
        "prefectureName": "高知県",
        "cityName": "土佐市",
        "streetName": "蓮池９２４番地のロ",
        "latitude": 33.49345515,
        "longitude": 133.41662864,
        "id": "dbb0d769-67d3-40e4-b147-08a6a5a21071"
    },
    {
        "name": "吉良神社",
        "prefectureName": "高知県",
        "cityName": "高知市",
        "streetName": "春野町弘岡中字ミコ石２８０９番地",
        "latitude": 33.49087078,
        "longitude": 133.50150225,
        "id": "863209a5-9d51-4f25-bc88-8270177f1813"
    },
    {
        "name": "吉良神社",
        "prefectureName": "高知県",
        "cityName": "高知市",
        "streetName": "春野町西分３５２１番地",
        "latitude": 33.49598929,
        "longitude": 133.49268571,
        "id": "46344f98-5070-4e23-93e6-a255ece0df4b"
    },
    {
        "name": "吉野神社",
        "prefectureName": "高知県",
        "cityName": "高知市",
        "streetName": "神田字神母メン１９１４番地",
        "latitude": 33.54075187,
        "longitude": 133.50519556,
        "id": "b98a4d8d-a3fc-43c6-b75f-bdb8f3ae4c5b"
    },
    {
        "name": "君子方神社",
        "prefectureName": "高知県",
        "cityName": "香南市",
        "streetName": "香我美町中西川字宮ノ谷１５０８番地",
        "latitude": 33.54580891,
        "longitude": 133.73021917,
        "id": "c5092d92-2aec-4a84-a5dc-376dbaca8b33"
    },
    {
        "name": "和霊神社",
        "prefectureName": "高知県",
        "cityName": "須崎市",
        "streetName": "下郷字中屋式８６８番地",
        "latitude": 33.39398942,
        "longitude": 133.24445449,
        "id": "46f01c1b-a73e-4deb-b843-79b3b63170ad"
    },
    {
        "name": "和霊神社大山神社",
        "prefectureName": "高知県",
        "cityName": "高岡郡四万十町",
        "streetName": "六反地４３３番地",
        "latitude": 33.2116551,
        "longitude": 133.1370262,
        "id": "010f3829-319b-4b4a-bbc5-bcedfd7fd209"
    },
    {
        "name": "和靈神社",
        "prefectureName": "高知県",
        "cityName": "高岡郡津野町",
        "streetName": "白石１４１０番地",
        "latitude": 33.4466438,
        "longitude": 133.1994021,
        "id": "fbfc137d-90ce-4c5d-880c-ba8a83221fc2"
    },
    {
        "name": "嚴島神社",
        "prefectureName": "高知県",
        "cityName": "高知市",
        "streetName": "吸江２０８番地",
        "latitude": 33.5477336,
        "longitude": 133.57191676,
        "id": "88cdf68e-3c9d-4cc2-95e5-5d199d20b5e2"
    },
    {
        "name": "嚴島神社",
        "prefectureName": "高知県",
        "cityName": "高知市",
        "streetName": "春野町弘岡上字池ノ上３７２番地",
        "latitude": 33.49087078,
        "longitude": 133.50150225,
        "id": "3217ca3c-b6d3-43de-87e9-73448c5f64e9"
    },
    {
        "name": "嚴島神社",
        "prefectureName": "高知県",
        "cityName": "高知市",
        "streetName": "春野町弘岡上字谷嚴島宮廻り２７３０番地",
        "latitude": 33.49087078,
        "longitude": 133.50150225,
        "id": "9f4453e6-7584-48fb-97fc-4380bb81fcc7"
    },
    {
        "name": "嚴島神社",
        "prefectureName": "高知県",
        "cityName": "吾川郡仁淀川町",
        "streetName": "北浦５９１番地",
        "latitude": 33.5752116,
        "longitude": 133.1711319,
        "id": "e336c2ff-df14-4e56-8f70-852cce23e246"
    },
    {
        "name": "嚴島神社",
        "prefectureName": "高知県",
        "cityName": "長岡郡本山町",
        "streetName": "下津野２２５番地",
        "latitude": 33.76013383,
        "longitude": 133.59914111,
        "id": "59ab757f-fdee-4bcb-969c-cbd8c2693a17"
    },
    {
        "name": "嚴島神社",
        "prefectureName": "高知県",
        "cityName": "香南市",
        "streetName": "野市町本村字大平山１８７９番地",
        "latitude": 33.56244529,
        "longitude": 133.69895787,
        "id": "49573daf-fe06-409b-b6ca-39d767bc60ba"
    },
    {
        "name": "嚴島神社",
        "prefectureName": "高知県",
        "cityName": "四万十市",
        "streetName": "利岡１７４３番地",
        "latitude": 32.9917478,
        "longitude": 132.9337212,
        "id": "e92c8508-02ea-4d35-b50b-d69d7fb85868"
    },
    {
        "name": "嚴島神社",
        "prefectureName": "高知県",
        "cityName": "香美市",
        "streetName": "香北町西川甲４３８番地",
        "latitude": 33.65014141,
        "longitude": 133.78008697,
        "id": "815922b0-addc-4a0a-b376-16f66ead4efe"
    },
    {
        "name": "嚴島神社",
        "prefectureName": "高知県",
        "cityName": "四万十市",
        "streetName": "鍋島７８７番地",
        "latitude": 32.95986534,
        "longitude": 132.97728299,
        "id": "41d54ee6-ccdb-428a-bfb9-62dedcdc9cf5"
    },
    {
        "name": "嚴島神社",
        "prefectureName": "高知県",
        "cityName": "四万十市",
        "streetName": "板ノ川１２６７番地",
        "latitude": 32.9917478,
        "longitude": 132.9337212,
        "id": "049a7672-6442-4147-a0bf-939fe132d120"
    },
    {
        "name": "嚴島神社",
        "prefectureName": "高知県",
        "cityName": "高岡郡中土佐町",
        "streetName": "久礼６９５４番地",
        "latitude": 33.3277278,
        "longitude": 133.2283852,
        "id": "5f96d895-8cec-4c9c-aa90-e3369ae432e4"
    },
    {
        "name": "嚴島神社",
        "prefectureName": "高知県",
        "cityName": "香美市",
        "streetName": "香北町朴ノ木字宮ノ谷４２５番地",
        "latitude": 33.65014141,
        "longitude": 133.78008697,
        "id": "2b35e3cc-ff44-45ab-834f-ede18ca2f5d1"
    },
    {
        "name": "嚴島神社",
        "prefectureName": "高知県",
        "cityName": "室戸市",
        "streetName": "佐喜浜町唐谷２３４１番地ロ",
        "latitude": 33.2900091,
        "longitude": 134.1520508,
        "id": "77f4c413-9f56-4472-a855-aa80bc642515"
    },
    {
        "name": "嚴島神社",
        "prefectureName": "高知県",
        "cityName": "室戸市",
        "streetName": "室戸岬町椎名字新畑５１０番地",
        "latitude": 33.2900091,
        "longitude": 134.1520508,
        "id": "c1d5aa3b-b8af-43ae-8883-27b13033baf5"
    },
    {
        "name": "嚴嶋神社",
        "prefectureName": "高知県",
        "cityName": "幡多郡黒潮町",
        "streetName": "田野浦２６９１番地",
        "latitude": 33.024952,
        "longitude": 133.0041559,
        "id": "7fedf22b-3e43-4a45-baa8-5e71c34aebed"
    },
    {
        "name": "嚴嶋神社",
        "prefectureName": "高知県",
        "cityName": "高岡郡四万十町",
        "streetName": "東川角乙７０８番地",
        "latitude": 33.2116551,
        "longitude": 133.1370262,
        "id": "a3f45493-c169-4d8f-8f15-d9bed151116a"
    },
    {
        "name": "嚴嶋神社",
        "prefectureName": "高知県",
        "cityName": "幡多郡黒潮町",
        "streetName": "加持２２３０番地",
        "latitude": 33.024952,
        "longitude": 133.0041559,
        "id": "58fd3dcf-ae94-4ac5-9729-b6185fbf2fd0"
    },
    {
        "name": "四社住吉神社",
        "prefectureName": "高知県",
        "cityName": "長岡郡大豊町",
        "streetName": "立川下名１０９３番地・１０９４番地",
        "latitude": 33.83442765,
        "longitude": 133.67178953,
        "id": "3b6310f3-9b87-4a79-a0da-520a71f20ef2"
    },
    {
        "name": "四社神社",
        "prefectureName": "高知県",
        "cityName": "高岡郡日高村",
        "streetName": "長畑１１２番地",
        "latitude": 33.55845939,
        "longitude": 133.32920634,
        "id": "09c6f4a8-b9ce-436e-828c-75d34544bc86"
    },
    {
        "name": "四社神社熊野神社",
        "prefectureName": "高知県",
        "cityName": "高知市",
        "streetName": "比島町２丁目１３番１号",
        "latitude": 33.57238012,
        "longitude": 133.55345685,
        "id": "e211ced8-757e-4be4-8c2c-e53500d45bca"
    },
    {
        "name": "国安神社",
        "prefectureName": "高知県",
        "cityName": "高知市",
        "streetName": "春野町内ノ谷８３５番地",
        "latitude": 33.49087078,
        "longitude": 133.50150225,
        "id": "e107e478-d098-4fe7-9141-79ac8fd19661"
    },
    {
        "name": "国石神社",
        "prefectureName": "高知県",
        "cityName": "高知市",
        "streetName": "土佐山東川字国石２２２５番地",
        "latitude": 33.63536815,
        "longitude": 133.52823947,
        "id": "050f2ca5-9b78-4322-81c5-1828171222c4"
    },
    {
        "name": "土佐厳島神社",
        "prefectureName": "高知県",
        "cityName": "高知市",
        "streetName": "北秦泉寺７７９番地",
        "latitude": 33.5595865,
        "longitude": 133.5292818,
        "id": "a878415d-fba4-4cb4-9878-8fbaa8adaac5"
    },
    {
        "name": "土佐神社",
        "prefectureName": "高知県",
        "cityName": "高知市",
        "streetName": "一宮しなね２丁目１６番１号",
        "latitude": 33.59192455,
        "longitude": 133.56745816,
        "id": "b1e902b5-2df3-4928-b6b3-4102398358f4"
    },
    {
        "name": "土佐稲荷神社",
        "prefectureName": "高知県",
        "cityName": "高知市",
        "streetName": "二葉町１７番１８号",
        "latitude": 33.55542678,
        "longitude": 133.55708738,
        "id": "fec826ed-8456-436d-8d80-2d9bbc22f05d"
    },
    {
        "name": "土岐神社",
        "prefectureName": "高知県",
        "cityName": "四万十市",
        "streetName": "古津賀１８０１番地",
        "latitude": 32.9825599,
        "longitude": 132.95451174,
        "id": "67f1d393-ed23-4234-a13b-097809509637"
    },
    {
        "name": "在宮三所神社",
        "prefectureName": "高知県",
        "cityName": "長岡郡大豊町",
        "streetName": "西峰字在宮１９９番地",
        "latitude": 33.7642121,
        "longitude": 133.6642272,
        "id": "24b27aee-4304-47e7-a96b-687c86086b5d"
    },
    {
        "name": "在宮三所神社",
        "prefectureName": "高知県",
        "cityName": "長岡郡大豊町",
        "streetName": "怒田字在宮２９２８番地",
        "latitude": 33.7642121,
        "longitude": 133.6642272,
        "id": "036e7e75-eb0c-4f50-9dd0-af6c56ea9211"
    },
    {
        "name": "在宮三所神社",
        "prefectureName": "高知県",
        "cityName": "長岡郡大豊町",
        "streetName": "柚木字宮ノ谷１１９８番地",
        "latitude": 33.7642121,
        "longitude": 133.6642272,
        "id": "1ec2811a-5640-46de-8f30-b0435bb5fe9c"
    },
    {
        "name": "地主神社",
        "prefectureName": "高知県",
        "cityName": "高知市",
        "streetName": "七ツ渕５０５番地",
        "latitude": 33.5595865,
        "longitude": 133.5292818,
        "id": "877cefa0-86c4-4fae-b606-d37cb9baf839"
    },
    {
        "name": "地主神社",
        "prefectureName": "高知県",
        "cityName": "吾川郡仁淀川町",
        "streetName": "日浦３６６番地",
        "latitude": 33.60949156,
        "longitude": 133.20094809,
        "id": "9ae300db-137f-4db2-96d8-67f07cac79f7"
    },
    {
        "name": "地主神社",
        "prefectureName": "高知県",
        "cityName": "長岡郡本山町",
        "streetName": "大石字北野地９１３番地",
        "latitude": 33.757098,
        "longitude": 133.5911558,
        "id": "c22efc6e-1f6b-426f-9e39-07860a3a7cdf"
    },