[
    {
        "name": "㟢野神社",
        "prefectureName": "福岡県",
        "cityName": "行橋市",
        "streetName": "西泉１丁目２番７号",
        "latitude": 33.71696226,
        "longitude": 130.97672051,
        "id": "0cf4734a-be76-4e1b-9c1e-43a89b87b483"
    },
    {
        "name": "一ノ宮神社",
        "prefectureName": "福岡県",
        "cityName": "福岡市西区",
        "streetName": "大字女原２８８番地",
        "latitude": 33.5700655,
        "longitude": 130.26205594,
        "id": "605d2733-893f-435a-a10d-a88048070654"
    },
    {
        "name": "一之瀬神社",
        "prefectureName": "福岡県",
        "cityName": "うきは市",
        "streetName": "浮羽町朝田１０４９番地の２",
        "latitude": 33.33314059,
        "longitude": 130.79393114,
        "id": "ee8408be-9a26-4461-a4eb-57b1c5cd8c53"
    },
    {
        "name": "一宮神社",
        "prefectureName": "福岡県",
        "cityName": "北九州市八幡西区",
        "streetName": "山寺町１２番３０号",
        "latitude": 33.86130357,
        "longitude": 130.75599605,
        "id": "524fe37a-2e14-474c-9632-40bae9b19245"
    },
    {
        "name": "一目連神社",
        "prefectureName": "福岡県",
        "cityName": "久留米市",
        "streetName": "北野町中字大島２５８９番地",
        "latitude": 33.3597972,
        "longitude": 130.5863601,
        "id": "7cba0046-5412-43ae-885e-84d5555c6f98"
    },
    {
        "name": "七所神社",
        "prefectureName": "福岡県",
        "cityName": "福岡市西区",
        "streetName": "大字小呂島１０番地",
        "latitude": 33.8632241,
        "longitude": 130.03734897,
        "id": "fa61f9b8-caf3-48da-994d-35d311bc562a"
    },
    {
        "name": "七社神社",
        "prefectureName": "福岡県",
        "cityName": "豊前市",
        "streetName": "大字岩屋字岩屋山１２１４番地の２",
        "latitude": 33.6115021,
        "longitude": 131.1302757,
        "id": "946f8081-0492-4af7-aec0-685ca3f0396b"
    },
    {
        "name": "七社神社",
        "prefectureName": "福岡県",
        "cityName": "みやま市",
        "streetName": "瀬高町本吉１６６９番地",
        "latitude": 33.14194285,
        "longitude": 130.47908094,
        "id": "28741f37-7104-42a7-83ba-48e2af988eb5"
    },
    {
        "name": "七社神社",
        "prefectureName": "福岡県",
        "cityName": "みやま市",
        "streetName": "瀬高町小田２０１６番地",
        "latitude": 33.14194285,
        "longitude": 130.47908094,
        "id": "d49db94c-df30-4da7-a01c-93f89b623503"
    },
    {
        "name": "七社神社",
        "prefectureName": "福岡県",
        "cityName": "宗像市",
        "streetName": "石丸字宮ノ下３８０番地",
        "latitude": 33.8055313,
        "longitude": 130.5407483,
        "id": "e25f0da4-4c4d-4e89-89a3-ec64e1e4f6cb"
    },
    {
        "name": "七社神社",
        "prefectureName": "福岡県",
        "cityName": "築上郡上毛町",
        "streetName": "大字原井８２３番地",
        "latitude": 33.5783935,
        "longitude": 131.1640931,
        "id": "e74cbdae-f91e-4553-8feb-7c718dec8496"
    },
    {
        "name": "七靈神社",
        "prefectureName": "福岡県",
        "cityName": "みやま市",
        "streetName": "高田町竹飯字門前１１７２番地",
        "latitude": 33.09869712,
        "longitude": 130.45886956,
        "id": "cf72a3bb-c85d-47f7-b48a-31442ac2edb7"
    },
    {
        "name": "三先神社",
        "prefectureName": "福岡県",
        "cityName": "うきは市",
        "streetName": "浮羽町小塩３５６６番地",
        "latitude": 33.33314059,
        "longitude": 130.79393114,
        "id": "366e5797-8937-4958-89bd-269702f5fb06"
    },
    {
        "name": "三坂神社",
        "prefectureName": "福岡県",
        "cityName": "糸島市",
        "streetName": "三坂９０２番地",
        "latitude": 33.52213379,
        "longitude": 130.22052494,
        "id": "61f9367b-9243-4a48-a880-f4f4c069d1ca"
    },
    {
        "name": "三宮神社",
        "prefectureName": "福岡県",
        "cityName": "糟屋郡粕屋町",
        "streetName": "大字酒殿字原７７７番地２",
        "latitude": 33.6107421,
        "longitude": 130.4805223,
        "id": "93d5e5b4-9434-42d1-abc9-bf1a11ae7657"
    },
    {
        "name": "三島神社",
        "prefectureName": "福岡県",
        "cityName": "三潴郡大木町",
        "streetName": "大字大藪１番地１",
        "latitude": 33.19612258,
        "longitude": 130.4487908,
        "id": "e9ef714e-4aff-40e3-be0d-ceefdd7ea1de"
    },
    {
        "name": "三島神社",
        "prefectureName": "福岡県",
        "cityName": "三潴郡大木町",
        "streetName": "大字大藪６９９番地",
        "latitude": 33.19205903,
        "longitude": 130.44370505,
        "id": "0b747315-e437-4e3e-8210-c01aa416a263"
    },
    {
        "name": "三島神社",
        "prefectureName": "福岡県",
        "cityName": "大川市",
        "streetName": "大字下木佐木３８０番地",
        "latitude": 33.20692004,
        "longitude": 130.40754624,
        "id": "0f7f96ec-c624-4975-b1d4-009a65c90494"
    },
    {
        "name": "三島神社",
        "prefectureName": "福岡県",
        "cityName": "筑後市",
        "streetName": "大字西牟田１９５０番地",
        "latitude": 33.23561019,
        "longitude": 130.47792987,
        "id": "89d14b53-f180-4bf1-b2a3-0fe6016c5a75"
    },
    {
        "name": "三島神社",
        "prefectureName": "福岡県",
        "cityName": "三潴郡大木町",
        "streetName": "大字蛭池８７１番地の１",
        "latitude": 33.2173869,
        "longitude": 130.45831486,
        "id": "6041fa59-62a1-4a83-9255-84faae55dfb9"
    },
    {
        "name": "三島神社",
        "prefectureName": "福岡県",
        "cityName": "飯塚市",
        "streetName": "菰田東２丁目８番１９号",
        "latitude": 33.63187018,
        "longitude": 130.69049234,
        "id": "7e3732c9-69ff-4d51-836d-3df3cf02eddd"
    },
    {
        "name": "三島神社",
        "prefectureName": "福岡県",
        "cityName": "筑後市",
        "streetName": "大字西牟田５９８１番地",
        "latitude": 33.24039349,
        "longitude": 130.49939493,
        "id": "bf686e56-b736-4301-9552-3a2b6b7bbc45"
    },
    {
        "name": "三島神社",
        "prefectureName": "福岡県",
        "cityName": "三潴郡大木町",
        "streetName": "大字上木佐木１１５４番地",
        "latitude": 33.20536253,
        "longitude": 130.42787,
        "id": "1cae74de-f06b-4b56-82c3-3262444174f8"
    },
    {
        "name": "三島神社",
        "prefectureName": "福岡県",
        "cityName": "三潴郡大木町",
        "streetName": "大字三八松１３８６番地",
        "latitude": 33.18774829,
        "longitude": 130.43889982,
        "id": "75148dad-5be3-42d0-8682-cd60ea3aa796"
    },
    {
        "name": "三島神社",
        "prefectureName": "福岡県",
        "cityName": "久留米市",
        "streetName": "三潴町西牟田４７１０番地１",
        "latitude": 33.24814238,
        "longitude": 130.48629841,
        "id": "1b73a545-6feb-4be0-804a-9d58246a2c59"
    },
    {
        "name": "三島神社",
        "prefectureName": "福岡県",
        "cityName": "柳川市",
        "streetName": "三橋町枝光１９４番地",
        "latitude": 33.1630693,
        "longitude": 130.405761,
        "id": "861051ea-2429-4281-b2e1-8a7493c2dd19"
    },
    {
        "name": "三島神社",
        "prefectureName": "福岡県",
        "cityName": "三潴郡大木町",
        "streetName": "大字筏溝６５４番地",
        "latitude": 33.19558059,
        "longitude": 130.43493343,
        "id": "d997aeac-9abd-4ad9-ac1c-e5f08faf9421"
    },
    {
        "name": "三島神社",
        "prefectureName": "福岡県",
        "cityName": "朝倉市",
        "streetName": "古毛２６７８番地",
        "latitude": 33.3717028,
        "longitude": 130.74099764,
        "id": "f2fbafae-7225-42af-b658-76be743c11a9"
    },
    {
        "name": "三島神社",
        "prefectureName": "福岡県",
        "cityName": "久留米市",
        "streetName": "三潴町西牟田２０６９番地",
        "latitude": 33.23910417,
        "longitude": 130.47414119,
        "id": "d28aa287-7b11-43e9-8408-f28f4af36601"
    },
    {
        "name": "三島神社",
        "prefectureName": "福岡県",
        "cityName": "柳川市",
        "streetName": "西蒲池６１５番地",
        "latitude": 33.18565271,
        "longitude": 130.40184154,
        "id": "4a2e89a9-b942-453c-b2f2-cbba44175533"
    },
    {
        "name": "三島神社",
        "prefectureName": "福岡県",
        "cityName": "三潴郡大木町",
        "streetName": "大字大角２２１番地",
        "latitude": 33.22641349,
        "longitude": 130.45530937,
        "id": "4824b32a-fdfd-4dcd-9e62-a9d1a49dac08"
    },
    {
        "name": "三島神社",
        "prefectureName": "福岡県",
        "cityName": "三潴郡大木町",
        "streetName": "大字三八松１８８１番地",
        "latitude": 33.19328094,
        "longitude": 130.4376138,
        "id": "2d49b894-2c92-404c-8dc6-38e0174dd793"
    },
    {
        "name": "三島神社",
        "prefectureName": "福岡県",
        "cityName": "柳川市",
        "streetName": "立石３８８番地",
        "latitude": 33.1630693,
        "longitude": 130.405761,
        "id": "9340e9b3-91ac-4d74-b727-8c2b26d1144c"
    },
    {
        "name": "三島神社",
        "prefectureName": "福岡県",
        "cityName": "三潴郡大木町",
        "streetName": "大字三八松３４５番地",
        "latitude": 33.19258943,
        "longitude": 130.44043583,
        "id": "da6a8673-7e79-400e-bdfc-d766bc6fe784"
    },
    {
        "name": "三島神社",
        "prefectureName": "福岡県",
        "cityName": "久留米市",
        "streetName": "三潴町西牟田１５２０番地",
        "latitude": 33.24271225,
        "longitude": 130.4802129,
        "id": "58cee1d5-03eb-4940-a0be-91affbed89ef"
    },
    {
        "name": "三島神社",
        "prefectureName": "福岡県",
        "cityName": "柳川市",
        "streetName": "高島３７７番地",
        "latitude": 33.18434282,
        "longitude": 130.42908106,
        "id": "5332f11a-3148-428c-b4ac-6553da5cb86f"
    },
    {
        "name": "三島神社",
        "prefectureName": "福岡県",
        "cityName": "柳川市",
        "streetName": "三橋町今古賀字前田４７２番地",
        "latitude": 33.1630693,
        "longitude": 130.405761,
        "id": "40f7b68f-1a0a-45c1-ad96-ea14cedf0792"
    },
    {
        "name": "三島神社",
        "prefectureName": "福岡県",
        "cityName": "三潴郡大木町",
        "streetName": "大字上牟田口４６１番地",
        "latitude": 33.19914385,
        "longitude": 130.42877273,
        "id": "9d92b8d3-addf-48f7-8260-eceb8a97391f"
    },
    {
        "name": "三島神社",
        "prefectureName": "福岡県",
        "cityName": "三潴郡大木町",
        "streetName": "大字上木佐木５００番地",
        "latitude": 33.20314095,
        "longitude": 130.4404775,
        "id": "788b44a6-7332-4fa5-a1e6-3b0cbfd1829d"
    },
    {
        "name": "三所神社",
        "prefectureName": "福岡県",
        "cityName": "福岡市西区",
        "streetName": "大字千里５５７番地",
        "latitude": 33.56060387,
        "longitude": 130.24018614,
        "id": "ccde2a17-3039-451c-8687-038f72d06c0c"
    },
    {
        "name": "三所神社",
        "prefectureName": "福岡県",
        "cityName": "福岡市西区",
        "streetName": "大字宮浦１１５７番地１",
        "latitude": 33.64241246,
        "longitude": 130.22871231,
        "id": "bfa87dd3-0225-4676-bbcb-5011711a4626"
    },
    {
        "name": "三所神社",
        "prefectureName": "福岡県",
        "cityName": "朝倉市",
        "streetName": "三奈木２４０９番地",
        "latitude": 33.39835965,
        "longitude": 130.70390028,
        "id": "71b2166c-1163-4124-bc2d-a56532f9d3d4"
    },
    {
        "name": "三所神社",
        "prefectureName": "福岡県",
        "cityName": "宮若市",
        "streetName": "本城６１２番地",
        "latitude": 33.72893906,
        "longitude": 130.6683766,
        "id": "ab5bd88f-98aa-4d6b-902f-64d27467a82d"
    },
    {
        "name": "三柱神社",
        "prefectureName": "福岡県",
        "cityName": "柳川市",
        "streetName": "三橋町高畑３２３番地の１",
        "latitude": 33.1691634,
        "longitude": 130.4149796,
        "id": "20c9cb7d-142f-4723-b8f7-650c02a1a1d0"
    },
    {
        "name": "三柱神社",
        "prefectureName": "福岡県",
        "cityName": "八女市",
        "streetName": "矢部村北矢部１０４８４番地",
        "latitude": 33.1501053,
        "longitude": 130.82296449,
        "id": "ea3a7c2a-de74-4fe1-a0b6-acd05c16668e"
    },
    {
        "name": "三柱神社",
        "prefectureName": "福岡県",
        "cityName": "大川市",
        "streetName": "大字向島２０８９・２０９０番地合併",
        "latitude": 33.2138985,
        "longitude": 130.36816829,
        "id": "15644d02-f489-457f-951f-458fd1b56129"
    },
    {
        "name": "三柱神社",
        "prefectureName": "福岡県",
        "cityName": "筑後市",
        "streetName": "大字西牟田３７２７番地",
        "latitude": 33.23314665,
        "longitude": 130.48160188,
        "id": "16663dd9-0711-431a-9076-5cb7a95ed1ed"
    },
    {
        "name": "三次神社",
        "prefectureName": "福岡県",
        "cityName": "うきは市",
        "streetName": "浮羽町山北２０７４番地",
        "latitude": 33.3301551,
        "longitude": 130.80753585,
        "id": "97cc467a-03cc-498d-ac10-c395354a6438"
    },
    {
        "name": "三池神社",
        "prefectureName": "福岡県",
        "cityName": "大牟田市",
        "streetName": "大字今山２９４８番地",
        "latitude": 33.03225346,
        "longitude": 130.50361335,
        "id": "f7284959-5ad9-4bf4-975c-9de6a969fc09"
    },
    {
        "name": "三社大神社",
        "prefectureName": "福岡県",
        "cityName": "京都郡みやこ町",
        "streetName": "呰見字前ケ迫８７６番地",
        "latitude": 33.6992218,
        "longitude": 130.9200926,
        "id": "6a3c0c7d-99f4-41f8-841c-becb470a950f"
    },
    {
        "name": "三社神社",
        "prefectureName": "福岡県",
        "cityName": "築上郡上毛町",
        "streetName": "大字西友枝３２６４番地",
        "latitude": 33.5783935,
        "longitude": 131.1640931,
        "id": "26ffdc96-188a-4ef5-8dbd-ace43c0d4bda"
    },
    {
        "name": "三社神社",
        "prefectureName": "福岡県",
        "cityName": "糸島市",
        "streetName": "香力２２３番地",
        "latitude": 33.53406826,
        "longitude": 130.21791117,
        "id": "4c15cc80-631e-474e-802f-90060d76ecfe"
    },
    {
        "name": "三社神社",
        "prefectureName": "福岡県",
        "cityName": "行橋市",
        "streetName": "泉中央５丁目７番１７号",
        "latitude": 33.70981872,
        "longitude": 130.98491719,
        "id": "c61d2464-9b13-4f52-be63-e0987fce7717"
    },
    {
        "name": "三社神社",
        "prefectureName": "福岡県",
        "cityName": "糸島市",
        "streetName": "井田２９０番地の２",
        "latitude": 33.54681959,
        "longitude": 130.23898346,
        "id": "e9b39b0f-e684-4b24-9c41-d3ea0ba5aa24"
    },
    {
        "name": "三社神社",
        "prefectureName": "福岡県",
        "cityName": "宮若市",
        "streetName": "小伏１３２４番地",
        "latitude": 33.7235701,
        "longitude": 130.6666547,
        "id": "5c1a89a8-e8ed-4963-91c4-7fbbf3377387"
    },
    {
        "name": "三笠神社",
        "prefectureName": "福岡県",
        "cityName": "大牟田市",
        "streetName": "鳥塚町８８番地１",
        "latitude": 33.04170533,
        "longitude": 130.46020282,
        "id": "aee06a76-42b0-4531-bb39-2808f4454635"
    },
    {
        "name": "三角稻荷神社",
        "prefectureName": "福岡県",
        "cityName": "福岡市東区",
        "streetName": "馬出１丁目２０番１号",
        "latitude": 33.60979433,
        "longitude": 130.42289672,
        "id": "c92a8aa1-464b-4a34-a1d9-6875ec669ec9"
    },
    {
        "name": "三諸神社",
        "prefectureName": "福岡県",
        "cityName": "田川市",
        "streetName": "大字伊田１１０３番地",
        "latitude": 33.64414031,
        "longitude": 130.82891191,
        "id": "4c291cd7-8a1f-4bfd-a65d-d24e3e6a38cb"
    },
    {
        "name": "三諸神社",
        "prefectureName": "福岡県",
        "cityName": "京都郡みやこ町",
        "streetName": "犀川大村字若一王寺８４９番地",
        "latitude": 33.6992218,
        "longitude": 130.9200926,
        "id": "a0a9b80c-e9b8-413f-8662-2ac28288d952"
    },
    {
        "name": "三郎天神社",
        "prefectureName": "福岡県",
        "cityName": "筑紫野市",
        "streetName": "大字常松２８１番地",
        "latitude": 33.4963418,
        "longitude": 130.5156571,
        "id": "754d5e6d-bb79-48cc-84ac-5ab3437da7b3"
    },
    {
        "name": "上女鹿野神社",
        "prefectureName": "福岡県",
        "cityName": "八女市",
        "streetName": "矢部村北矢部５８５８番地",
        "latitude": 33.14418083,
        "longitude": 130.82902244,
        "id": "13bdc1c7-1ebc-4ea4-9edf-311d06e2d285"
    },
    {
        "name": "上御側神社",
        "prefectureName": "福岡県",
        "cityName": "八女市",
        "streetName": "矢部村北矢部６５３６番地",
        "latitude": 33.14418083,
        "longitude": 130.82902244,
        "id": "775bf14d-b901-407e-bad9-fc0f570a89bc"
    },
    {
        "name": "下庄八幡神社",
        "prefectureName": "福岡県",
        "cityName": "みやま市",
        "streetName": "瀬高町下庄字宮前１３９７番地",
        "latitude": 33.14194285,
        "longitude": 130.47908094,
        "id": "48ec3b99-9e34-44cf-b811-d08e00f773cd"
    },
    {
        "name": "下木佐木神社",
        "prefectureName": "福岡県",
        "cityName": "大川市",
        "streetName": "大字下木佐木１０７４番地",
        "latitude": 33.2065942,
        "longitude": 130.3839573,
        "id": "5452a7f9-13ad-43ce-93cc-f598f3145f72"
    },
    {
        "name": "下田神社",
        "prefectureName": "福岡県",
        "cityName": "柳川市",
        "streetName": "蒲生１１３０番地",
        "latitude": 33.19548856,
        "longitude": 130.42382861,
        "id": "8a4bba81-98fa-4f17-8e6a-d84e5e80fada"
    },
    {
        "name": "下竪恵比須神社",
        "prefectureName": "福岡県",
        "cityName": "福岡市博多区",
        "streetName": "下呉服町１０番４８号",
        "latitude": 33.60220056,
        "longitude": 130.4085784,
        "id": "403707c5-d164-4c8f-b74e-aeb9cf6aad24"
    },
    {
        "name": "下須崎恵比須神社",
        "prefectureName": "福岡県",
        "cityName": "福岡市博多区",
        "streetName": "須崎町１３番８号",
        "latitude": 33.59767318,
        "longitude": 130.40235668,
        "id": "bd2add4b-69a6-46ee-8d8a-d4debb1c6a3a"
    },
    {
        "name": "両所神社",
        "prefectureName": "福岡県",
        "cityName": "糸島市",
        "streetName": "富５９７番地",
        "latitude": 33.6061697,
        "longitude": 130.4181138,
        "id": "dc34c0f4-a79f-405f-babb-9588cd15df09"
    },
    {
        "name": "中原神社",
        "prefectureName": "福岡県",
        "cityName": "糸島市",
        "streetName": "志摩松隈５７９番地",
        "latitude": 33.58527493,
        "longitude": 130.19784281,
        "id": "052aafd2-0c34-4422-bc2e-7294eda732f0"
    },
    {
        "name": "中古賀神社",
        "prefectureName": "福岡県",
        "cityName": "大川市",
        "streetName": "大字中古賀６３５番地",
        "latitude": 33.22806155,
        "longitude": 130.39212193,
        "id": "eb0beff2-9bea-478f-8dec-7e8b8f6109b1"
    },
    {
        "name": "中司孫太郎稲荷神社",
        "prefectureName": "福岡県",
        "cityName": "福岡市中央区",
        "streetName": "西公園１３番１０号",
        "latitude": 33.59748112,
        "longitude": 130.37684194,
        "id": "cf12ca05-3f0f-41db-b82d-561eb2899a7a"
    },
    {
        "name": "中村神社",
        "prefectureName": "福岡県",
        "cityName": "八女市",
        "streetName": "矢部村北矢部１０８５０番地",
        "latitude": 33.14418083,
        "longitude": 130.82902244,
        "id": "d7fc11f9-975f-4da1-8e08-f2c9aedbf80f"
    },
    {
        "name": "中津屋神社",
        "prefectureName": "福岡県",
        "cityName": "朝倉郡筑前町",
        "streetName": "砥上９８０番地",
        "latitude": 33.47613873,
        "longitude": 130.60082662,
        "id": "60206692-5c8d-40d5-8503-cfa201e76668"
    },
    {
        "name": "中西宮地嶽神社",
        "prefectureName": "福岡県",
        "cityName": "福岡市早良区",
        "streetName": "西新５丁目８番１９号",
        "latitude": 33.58137678,
        "longitude": 130.35580245,
        "id": "9db77dba-7e31-4030-9557-67d8dc976a23"
    },
    {
        "name": "中間神社",
        "prefectureName": "福岡県",
        "cityName": "八女市",
        "streetName": "矢部村北矢部１００８３番地",
        "latitude": 33.14418083,
        "longitude": 130.82902244,
        "id": "96289db0-4a94-47d8-9324-bd857375c81b"
    },
    {
        "name": "串毛神社",
        "prefectureName": "福岡県",
        "cityName": "八女市",
        "streetName": "矢部村矢部３０２０番地",
        "latitude": 33.15593521,
        "longitude": 130.80386803,
        "id": "6731d23c-0c91-4ba1-8d3f-26d7f25796cc"
    },
    {
        "name": "丸山神社",
        "prefectureName": "福岡県",
        "cityName": "朝倉市",
        "streetName": "持丸２５４番地",
        "latitude": 33.4353052,
        "longitude": 130.66527276,
        "id": "c38582ed-38f1-494e-a543-50e230a0acaa"
    },
    {
        "name": "丸山神社",
        "prefectureName": "福岡県",
        "cityName": "太宰府市",
        "streetName": "大字向佐野字前田４４２番地",
        "latitude": 33.5127984,
        "longitude": 130.5239065,
        "id": "5105dcaf-fc09-4f0c-9600-3ab763b78778"
    },
    {
        "name": "丹波神社",
        "prefectureName": "福岡県",
        "cityName": "田川郡大任町",
        "streetName": "大字大行事４９４番地の１",
        "latitude": 33.58677715,
        "longitude": 130.84433759,
        "id": "962591af-0a31-453d-8074-422b052f7f70"
    },
    {
        "name": "主計神社",
        "prefectureName": "福岡県",
        "cityName": "宮若市",
        "streetName": "下１７１６番地",
        "latitude": 33.7235701,
        "longitude": 130.6666547,
        "id": "a25b5da6-f812-4f2a-bd2c-14a141c39693"
    },
    {
        "name": "久志神社",
        "prefectureName": "福岡県",
        "cityName": "柳川市",
        "streetName": "三橋町下百町字屋敷ノ内１５４番地",
        "latitude": 33.1630693,
        "longitude": 130.405761,
        "id": "8126fddd-fcf0-46b7-90b5-cce841931b10"
    },
    {
        "name": "久我神社",
        "prefectureName": "福岡県",
        "cityName": "遠賀郡水巻町",
        "streetName": "古賀１丁目１１番２６号",
        "latitude": 33.86275186,
        "longitude": 130.68455185,
        "id": "7aa8880d-7d07-4781-ba51-3a5f3fc72045"
    },
    {
        "name": "乙女八幡神社",
        "prefectureName": "福岡県",
        "cityName": "豊前市",
        "streetName": "大字吉木１０４０番地",
        "latitude": 33.61049658,
        "longitude": 131.13005624,
        "id": "d8506990-a16d-4670-aaef-da6d43364540"
    },
    {
        "name": "乙姫神社",
        "prefectureName": "福岡県",
        "cityName": "みやま市",
        "streetName": "瀬高町下庄字上町１３１６番地の２",
        "latitude": 33.14194285,
        "longitude": 130.47908094,
        "id": "1e645fdf-c426-4734-8be2-148cd2cd00ed"
    },
    {
        "name": "乙子神社",
        "prefectureName": "福岡県",
        "cityName": "宮若市",
        "streetName": "宮田１２６０番地",
        "latitude": 33.70415811,
        "longitude": 130.65990576,
        "id": "2c518447-fde8-4f20-966e-02c34da0a1ff"
    },
    {
        "name": "乙宮神社",
        "prefectureName": "福岡県",
        "cityName": "朝倉市",
        "streetName": "頓田８３番地",
        "latitude": 33.41208015,
        "longitude": 130.67436671,
        "id": "87b7dba0-e6cf-48cc-a47a-ccbb8184fc43"
    },
    {
        "name": "乙宮神社",
        "prefectureName": "福岡県",
        "cityName": "大牟田市",
        "streetName": "宮坂町２１番地",
        "latitude": 33.0302867,
        "longitude": 130.4459763,
        "id": "653f3ba1-3138-41c0-af71-8e7d64b7d3f0"
    },
    {
        "name": "乙宮神社",
        "prefectureName": "福岡県",
        "cityName": "大牟田市",
        "streetName": "大字今山３１６１番地",
        "latitude": 33.02902914,
        "longitude": 130.49512308,
        "id": "fe3230b6-39d5-4648-82ac-21317360e8ec"
    },
    {
        "name": "乙宮神社",
        "prefectureName": "福岡県",
        "cityName": "糟屋郡久山町",
        "streetName": "大字久原字橋本８３２番地",
        "latitude": 33.6467475,
        "longitude": 130.4998634,
        "id": "a363cf3f-280a-4067-8474-254d0fe1e618"
    },
    {
        "name": "九社神社",
        "prefectureName": "福岡県",
        "cityName": "柳川市",
        "streetName": "筑紫字中散田５１９番地",
        "latitude": 33.16726585,
        "longitude": 130.40125858,
        "id": "655c7569-fb32-4209-96db-e5436e04bb9c"
    },
    {
        "name": "九躰神社",
        "prefectureName": "福岡県",
        "cityName": "みやま市",
        "streetName": "高田町岩津９０１番地",
        "latitude": 33.11341547,
        "longitude": 130.47281248,
        "id": "d8991326-af7a-4a64-91ed-2a2055448442"
    },
    {
        "name": "亀山神社",
        "prefectureName": "福岡県",
        "cityName": "福津市",
        "streetName": "福間駅東３丁目１番３号",
        "latitude": 33.76236852,
        "longitude": 130.49309836,
        "id": "4e5ba388-3313-4af2-ab4d-327ceae48e02"
    },
    {
        "name": "亀山神社",
        "prefectureName": "福岡県",
        "cityName": "鞍手郡小竹町",
        "streetName": "大字勝野字井田２９７１番地",
        "latitude": 33.6925021,
        "longitude": 130.7127737,
        "id": "b6892df6-ca77-447f-b621-ebaa14bc32d4"
    },
    {
        "name": "事代主神社",
        "prefectureName": "福岡県",
        "cityName": "久留米市",
        "streetName": "本町２番地の１５",
        "latitude": 33.31479185,
        "longitude": 130.50982787,
        "id": "11d897ab-cfb0-4be7-8717-fb02a8593c34"
    },
    {
        "name": "事代主神社",
        "prefectureName": "福岡県",
        "cityName": "久留米市",
        "streetName": "城島町江島３８３番地",
        "latitude": 33.25438754,
        "longitude": 130.42907812,
        "id": "caf1336e-d117-4018-ade3-43f726d0689d"
    },
    {
        "name": "事代神社",
        "prefectureName": "福岡県",
        "cityName": "福岡市西区",
        "streetName": "愛宕浜４丁目４９番２号",
        "latitude": 33.5931983,
        "longitude": 130.32712369,
        "id": "bc5bc3ab-5869-4f93-bb8c-0e158257be17"
    },
    {
        "name": "事代神社",
        "prefectureName": "福岡県",
        "cityName": "福岡市西区",
        "streetName": "姪の浜３丁目１４番７号",
        "latitude": 33.58944312,
        "longitude": 130.32595996,
        "id": "8804c68c-5331-487a-a3e4-951e5051a7c6"
    },
    {
        "name": "事比羅神社",
        "prefectureName": "福岡県",
        "cityName": "飯塚市",
        "streetName": "阿恵字大ヶ阪２１７８番地",
        "latitude": 33.646567,
        "longitude": 130.6911521,
        "id": "2d7af77a-4967-4c43-9866-2f3d6177e87f"
    },
    {
        "name": "事比羅神社",
        "prefectureName": "福岡県",
        "cityName": "築上郡吉富町",
        "streetName": "大字広津６６２番地",
        "latitude": 33.6029009,
        "longitude": 131.17210065,
        "id": "0e23e626-9f0f-436f-b7fb-3cd76806b05f"
    },
    {
        "name": "事比良神社",
        "prefectureName": "福岡県",
        "cityName": "八女市",
        "streetName": "立花町谷川１７６１番地の３",
        "latitude": 33.18606728,
        "longitude": 130.55790831,
        "id": "393f4dd0-67fc-4896-85b8-39c03c9c87c3"
    },
    {
        "name": "二兒神社",
        "prefectureName": "福岡県",
        "cityName": "京都郡みやこ町",
        "streetName": "犀川花熊字宮山１３４３番地",
        "latitude": 33.6992218,
        "longitude": 130.9200926,
        "id": "8a841b61-8998-4805-bfd9-96176c89764c"
    },
    {
        "name": "二宮神社",
        "prefectureName": "福岡県",
        "cityName": "柳川市",
        "streetName": "稲荷町字西北町２１４番地",
        "latitude": 33.16039131,
        "longitude": 130.39335106,
        "id": "c3d5dfa5-2253-4bab-8e3f-0deee6b449c6"
    },
    {
        "name": "二宮神社",
        "prefectureName": "福岡県",
        "cityName": "福岡市西区",
        "streetName": "下山門３丁目１６番７号",
        "latitude": 33.5779888,
        "longitude": 130.31169995,
        "id": "10e358bf-fe29-497b-98d2-b62002e3ce3a"
    },
    {
        "name": "二宮神社",
        "prefectureName": "福岡県",
        "cityName": "福岡市西区",
        "streetName": "今宿１丁目１０番３２号",
        "latitude": 33.58221751,
        "longitude": 130.27309912,
        "id": "bbedc6d7-f40e-4f36-8a22-27c581cf7e96"
    },
    {
        "name": "五十猛神社",
        "prefectureName": "福岡県",
        "cityName": "福岡市西区",
        "streetName": "大字金武１１８３番地",
        "latitude": 33.52267935,
        "longitude": 130.31336254,
        "id": "a52c0722-3ebc-458a-9366-1cf7a1cdac20"
    },
    {
        "name": "五大王子神社",
        "prefectureName": "福岡県",
        "cityName": "大牟田市",
        "streetName": "大字宮崎字宮谷１４８３番地",
        "latitude": 33.0302867,
        "longitude": 130.4459763,
        "id": "62b6da72-ffd4-426f-b409-09f66e1ab15f"
    },
    {
        "name": "五所神社",
        "prefectureName": "福岡県",
        "cityName": "朝倉市",
        "streetName": "桑原１０２１番地",
        "latitude": 33.38582339,
        "longitude": 130.67648282,
        "id": "64b15226-649d-44aa-84cb-32f2bc2b92de"
    },
    {
        "name": "五柱神社",
        "prefectureName": "福岡県",
        "cityName": "筑後市",
        "streetName": "大字津島９０５番地２",
        "latitude": 33.17640884,
        "longitude": 130.49048836,
        "id": "bd871bf4-17e9-4dd1-a871-b255fdd022fe"
    },
    {
        "name": "五柱神社",
        "prefectureName": "福岡県",
        "cityName": "久留米市",
        "streetName": "田主丸町中尾１６８９番地の２",
        "latitude": 33.31911049,
        "longitude": 130.64853661,
        "id": "d306c91e-be0b-4b56-9c15-c5cf61464d76"
    },
    {
        "name": "五玉神社",
        "prefectureName": "福岡県",
        "cityName": "朝倉郡筑前町",
        "streetName": "三ケ山１１４４番地",
        "latitude": 33.4570595,
        "longitude": 130.5951553,
        "id": "a3a78a79-292c-45e2-a6f3-35d89fd1b191"
    },
    {
        "name": "五社八幡神社",
        "prefectureName": "福岡県",
        "cityName": "京都郡みやこ町",
        "streetName": "勝山池田字安峯４４５番地",
        "latitude": 33.6992218,
        "longitude": 130.9200926,
        "id": "60938c66-b5cf-4792-9455-aafaf5411971"
    },
    {
        "name": "五社八幡神社",
        "prefectureName": "福岡県",
        "cityName": "行橋市",
        "streetName": "大字入覚字カミ１３１１番地",
        "latitude": 33.7287751,
        "longitude": 130.982967,
        "id": "7b49a003-4c86-4308-8f24-c3351c639051"
    },
    {
        "name": "五社大神社",
        "prefectureName": "福岡県",
        "cityName": "北九州市小倉北区",
        "streetName": "大字藍島字本村３３番地",
        "latitude": 33.8808759,
        "longitude": 130.8734242,
        "id": "27dd06e2-570a-4754-95f3-2924f6f408fb"
    },
    {
        "name": "五社大神社",
        "prefectureName": "福岡県",
        "cityName": "京都郡みやこ町",
        "streetName": "徳永字宮地２０４６番地",
        "latitude": 33.6992218,
        "longitude": 130.9200926,
        "id": "b2d9d55b-f5b9-4011-b9ce-e0aea435a2da"
    },
    {
        "name": "五社神社",
        "prefectureName": "福岡県",
        "cityName": "福岡市南区",
        "streetName": "桧原２丁目２４番２０号",
        "latitude": 33.53841548,
        "longitude": 130.39690307,
        "id": "ffabebe7-3bbc-40e6-8a10-dbe9f1ffac5c"
    },
    {
        "name": "五社神社",
        "prefectureName": "福岡県",
        "cityName": "朝倉郡筑前町",
        "streetName": "赤坂２６０８番地",
        "latitude": 33.47758047,
        "longitude": 130.59001616,
        "id": "2c1a07b4-d194-486c-ad96-21e7f92a8f58"
    },
    {
        "name": "五社神社",
        "prefectureName": "福岡県",
        "cityName": "行橋市",
        "streetName": "西泉３丁目１５番２２号",
        "latitude": 33.71029062,
        "longitude": 130.97213497,
        "id": "653d3b74-59f1-46c4-a0ac-353969367114"
    },
    {
        "name": "五社神社",
        "prefectureName": "福岡県",
        "cityName": "築上郡築上町",
        "streetName": "大字極楽寺字神田４７４番地",
        "latitude": 33.6561427,
        "longitude": 131.0560318,
        "id": "5b25fdb2-5270-42d4-9f02-9311bb76c3ac"
    },
    {
        "name": "五社神社",
        "prefectureName": "福岡県",
        "cityName": "行橋市",
        "streetName": "大字寺畔字岩田８６番地",
        "latitude": 33.7287751,
        "longitude": 130.982967,
        "id": "f881c69e-df4d-494e-b342-b6c890f24196"
    },
    {
        "name": "五社神社",
        "prefectureName": "福岡県",
        "cityName": "築上郡吉富町",
        "streetName": "大字鈴熊２３６番地",
        "latitude": 33.60411447,
        "longitude": 131.16488459,
        "id": "62a505ec-d2b8-497e-92a7-3f3670c8ead1"
    },
    {
        "name": "五社神社",
        "prefectureName": "福岡県",
        "cityName": "柳川市",
        "streetName": "三橋町蒲船津字出畑７２６番地",
        "latitude": 33.1630693,
        "longitude": 130.405761,
        "id": "4a34bc5e-72c7-42ce-8d4d-a7082d5c8ae4"
    },
    {
        "name": "五社神社",
        "prefectureName": "福岡県",
        "cityName": "北九州市若松区",
        "streetName": "大字有毛字深田４８６番地",
        "latitude": 33.9054525,
        "longitude": 130.8111317,
        "id": "56b73cff-3f7b-49a0-9eef-c7a4dfb09346"
    },
    {
        "name": "五穀神社",
        "prefectureName": "福岡県",
        "cityName": "田川郡添田町",
        "streetName": "大字落合４０７６番地",
        "latitude": 33.5718567,
        "longitude": 130.853957,
        "id": "9abe5c4d-8929-4e35-88ed-e90521ac3d40"
    },
    {
        "name": "五穀神社",
        "prefectureName": "福岡県",
        "cityName": "久留米市",
        "streetName": "通外町字東外町５８番地",
        "latitude": 33.3192609,
        "longitude": 130.5083363,
        "id": "cc359926-5d84-454e-8bb2-40b465eda5c7"
    },
    {
        "name": "五穀神社",
        "prefectureName": "福岡県",
        "cityName": "直方市",
        "streetName": "大字下境字高山田８８４番地",
        "latitude": 33.7441832,
        "longitude": 130.7296349,
        "id": "c43b21c9-4677-4e53-8373-fbb7d8b20c12"
    },
    {
        "name": "五穀神社",
        "prefectureName": "福岡県",
        "cityName": "宮若市",
        "streetName": "三ケ畑１８０６番地",
        "latitude": 33.7235701,
        "longitude": 130.6666547,
        "id": "010bc99f-98b5-4417-b484-b7a7cd0b4590"
    },
    {
        "name": "五穀神社",
        "prefectureName": "福岡県",
        "cityName": "田川郡福智町",
        "streetName": "神崎１０５６番地",
        "latitude": 33.67663344,
        "longitude": 130.76299728,
        "id": "fee2b4ba-16f8-426d-b804-ff86ec2698f0"
    },
    {
        "name": "五穀神社",
        "prefectureName": "福岡県",
        "cityName": "嘉麻市",
        "streetName": "飯田２６２番地",
        "latitude": 33.56677871,
        "longitude": 130.70171017,
        "id": "744f2062-6a98-46c0-bff9-eecf2ad279fd"
    },
    {
        "name": "五穀神社",
        "prefectureName": "福岡県",
        "cityName": "飯塚市",
        "streetName": "柳橋８３６番地",
        "latitude": 33.67402015,
        "longitude": 130.68686074,
        "id": "c93fbc04-335a-4af1-86d7-9481ede5b4ea"
    },
    {
        "name": "五穀神社",
        "prefectureName": "福岡県",
        "cityName": "嘉麻市",
        "streetName": "牛隈７２６番地",
        "latitude": 33.5632959,
        "longitude": 130.7116009,
        "id": "e257e4ce-4e8e-4904-984f-edab8d78ff78"
    },
    {
        "name": "五穀神社",
        "prefectureName": "福岡県",
        "cityName": "宮若市",
        "streetName": "鶴田１５７５番地",
        "latitude": 33.71893505,
        "longitude": 130.69154159,
        "id": "53c17bfb-8b4d-4281-806a-1c65294a033b"
    },
    {
        "name": "五穀神社",
        "prefectureName": "福岡県",
        "cityName": "飯塚市",
        "streetName": "綱分３２０番地",
        "latitude": 33.646567,
        "longitude": 130.6911521,
        "id": "742e5e91-95df-4f17-bd51-dc171f1468a0"
    },
    {
        "name": "五穀神社",
        "prefectureName": "福岡県",
        "cityName": "田川郡添田町",
        "streetName": "大字中元寺１７１８番地",
        "latitude": 33.5718567,
        "longitude": 130.853957,
        "id": "82b44660-8b98-4f25-897a-c4338534e302"
    },
    {
        "name": "五道神社",
        "prefectureName": "福岡県",
        "cityName": "福岡市西区",
        "streetName": "富士見１丁目１４９９番",
        "latitude": 33.582691,
        "longitude": 130.3231103,
        "id": "2c00d661-1916-421e-9888-0ae01927efba"
    },
    {
        "name": "井手神社",
        "prefectureName": "福岡県",
        "cityName": "遠賀郡遠賀町",
        "streetName": "大字木守１５７６番地",
        "latitude": 33.84024574,
        "longitude": 130.66662403,
        "id": "17d3f079-512a-48a7-8761-c47ade54799d"
    },
    {
        "name": "井樋神社",
        "prefectureName": "福岡県",
        "cityName": "久留米市",
        "streetName": "田主丸町地徳３６４８番地",
        "latitude": 33.31725822,
        "longitude": 130.66629365,
        "id": "d37543f8-df6e-44be-ac89-89922dcf5a94"
    },
    {
        "name": "井田原神社",
        "prefectureName": "福岡県",
        "cityName": "糸島市",
        "streetName": "志摩井田原１番地",
        "latitude": 33.58711576,
        "longitude": 130.18509647,
        "id": "96c1ae56-3c72-4195-bdfa-0ebeeebde9d7"
    },
    {
        "name": "人丸神社",
        "prefectureName": "福岡県",
        "cityName": "糟屋郡新宮町",
        "streetName": "大字下府１２４４番地",
        "latitude": 33.7152781,
        "longitude": 130.4465381,
        "id": "2dea72ba-2fa2-41b7-a17e-e5b71f4adc5a"
    },
    {
        "name": "今宮神社",
        "prefectureName": "福岡県",
        "cityName": "宮若市",
        "streetName": "下８６８番地",
        "latitude": 33.7235701,
        "longitude": 130.6666547,
        "id": "f92a5dba-7a0e-4bd4-a0f1-855837bd77ef"
    },
    {
        "name": "今宮神社",
        "prefectureName": "福岡県",
        "cityName": "古賀市",
        "streetName": "薦野１１２３番地",
        "latitude": 33.7287889,
        "longitude": 130.4699868,
        "id": "34dc0d45-9170-4474-beae-8e45173fb4c7"
    },
    {
        "name": "今宮神社",
        "prefectureName": "福岡県",
        "cityName": "久留米市",
        "streetName": "善導寺町島６８１番地",
        "latitude": 33.3192609,
        "longitude": 130.5083363,
        "id": "26cfefba-708f-48ce-b2a2-0424cd80c2b6"
    },
    {
        "name": "今宮神社",
        "prefectureName": "福岡県",
        "cityName": "直方市",
        "streetName": "大字植木５８７番地",
        "latitude": 33.7441832,
        "longitude": 130.7296349,
        "id": "fcdef12a-5c25-4978-97e5-58d85a90dbd9"
    },
    {
        "name": "今宮神社",
        "prefectureName": "福岡県",
        "cityName": "久留米市",
        "streetName": "北野町大城字船端６２２番地",
        "latitude": 33.3597972,
        "longitude": 130.5863601,
        "id": "fcc7d0eb-ea61-458c-a862-5514244e376f"
    },
    {
        "name": "今宮神社",
        "prefectureName": "福岡県",
        "cityName": "宮若市",
        "streetName": "縁山畑４９７番地",
        "latitude": 33.7235701,
        "longitude": 130.6666547,
        "id": "9332c157-38ec-4512-b411-c50179c421a5"
    },
    {
        "name": "今村鶴山神神社",
        "prefectureName": "福岡県",
        "cityName": "八女市",
        "streetName": "矢部村北矢部５９５３番地",
        "latitude": 33.14418083,
        "longitude": 130.82902244,
        "id": "91b39318-a32d-47c6-84ae-7b84306caa18"
    },
    {
        "name": "今松神社",
        "prefectureName": "福岡県",
        "cityName": "三潴郡大木町",
        "streetName": "大字高橋２６８番地",
        "latitude": 33.1890597,
        "longitude": 130.45756528,
        "id": "1635baa9-dc15-4e15-9ac4-1cdcb1ba2e0e"
    },
    {
        "name": "今泉神社",
        "prefectureName": "福岡県",
        "cityName": "遠賀郡遠賀町",
        "streetName": "大字別府字宮前３２０７番地",
        "latitude": 33.8479922,
        "longitude": 130.6683762,
        "id": "5a38adf9-a7ed-4feb-9883-f6ec15d49d14"
    },
    {
        "name": "伊久志神社",
        "prefectureName": "福岡県",
        "cityName": "宮若市",
        "streetName": "山口９３番地",
        "latitude": 33.74698853,
        "longitude": 130.60148014,
        "id": "fa7ef584-9f91-4a9c-8212-4f7f6146011e"
    },
    {
        "name": "伊勢天照御祖神社",
        "prefectureName": "福岡県",
        "cityName": "久留米市",
        "streetName": "大石町１３２番地",
        "latitude": 33.31661373,
        "longitude": 130.49776242,
        "id": "df3f7a80-7072-4a6f-a354-96433db68e37"
    },
    {
        "name": "伊勢神社",
        "prefectureName": "福岡県",
        "cityName": "八女市",
        "streetName": "長野７９１番地",
        "latitude": 33.22232282,
        "longitude": 130.62152489,
        "id": "a8d65ca5-caec-4012-8b08-5fd9ceb27dc2"
    },
    {
        "name": "伊勢神社",
        "prefectureName": "福岡県",
        "cityName": "田川郡添田町",
        "streetName": "大字中元寺２０３５番地",
        "latitude": 33.5718567,
        "longitude": 130.853957,
        "id": "0fc98c12-b703-4b1a-b352-7b7167732b54"
    },
    {
        "name": "伊勢神社",
        "prefectureName": "福岡県",
        "cityName": "田川郡添田町",
        "streetName": "大字中元寺３６５番地",
        "latitude": 33.5718567,
        "longitude": 130.853957,
        "id": "279ef409-be3c-4a75-a014-4d430ef004ad"
    },
    {
        "name": "伊弉諾神社",
        "prefectureName": "福岡県",
        "cityName": "三潴郡大木町",
        "streetName": "大字上八院７９３番地",
        "latitude": 33.21384493,
        "longitude": 130.43046148,
        "id": "488686df-b05e-40a4-808a-38dab35df762"
    },
    {
        "name": "伊弉諾神社",
        "prefectureName": "福岡県",
        "cityName": "朝倉市",
        "streetName": "菱野３７０番地",
        "latitude": 33.4234065,
        "longitude": 130.665584,
        "id": "c202c7b8-c6b5-437f-b784-83829b6bfd97"
    },
    {
        "name": "伊我理神社",
        "prefectureName": "福岡県",
        "cityName": "久留米市",
        "streetName": "城島町楢津１３６４番地",
        "latitude": 33.25057115,
        "longitude": 130.41822291,
        "id": "5829b326-2af0-4e36-900a-043b4f6e6f99"
    },
    {
        "name": "伊我理神社",
        "prefectureName": "福岡県",
        "cityName": "久留米市",
        "streetName": "城島町六町原８４７番地",
        "latitude": 33.25258228,
        "longitude": 130.43560816,
        "id": "f6eb5f0f-f87c-480e-8df5-01616d7120f1"
    },
    {
        "name": "伊摩神社",
        "prefectureName": "福岡県",
        "cityName": "宗像市",
        "streetName": "吉田字安入寺６２０番地",
        "latitude": 33.83955735,
        "longitude": 130.51836376,
        "id": "5d5643c4-d2cd-4ed8-95e9-1e69a9af9c0a"
    },
    {
        "name": "伊覩神社",
        "prefectureName": "福岡県",
        "cityName": "福岡市西区",
        "streetName": "大字周船寺４４０番地",
        "latitude": 33.582691,
        "longitude": 130.3231103,
        "id": "03808b4c-e698-4bfe-93f8-a1172134bd89"
    },
    {
        "name": "伊豆神社",
        "prefectureName": "福岡県",
        "cityName": "遠賀郡水巻町",
        "streetName": "朳一丁目８番１７号",
        "latitude": 33.8547475,
        "longitude": 130.6948455,
        "id": "85d30dbd-9502-49d9-89e0-3addb902ae08"
    },
    {
        "name": "伊豆神社",
        "prefectureName": "福岡県",
        "cityName": "遠賀郡水巻町",
        "streetName": "頃末北２丁目９番１号",
        "latitude": 33.85468077,
        "longitude": 130.69219295,
        "id": "aa462567-9b46-4196-bfb7-84157c7abcce"
    },
    {
        "name": "伊豆神社",
        "prefectureName": "福岡県",
        "cityName": "遠賀郡遠賀町",
        "streetName": "大字島津字丸山５７８番地",
        "latitude": 33.8479922,
        "longitude": 130.6683762,
        "id": "0a98a952-2532-4412-a638-3a4a7f53b7c2"
    },
    {
        "name": "伍社神社",
        "prefectureName": "福岡県",
        "cityName": "行橋市",
        "streetName": "南泉１丁目１２番１号",
        "latitude": 33.70197495,
        "longitude": 130.97767916,
        "id": "2438d6a8-13d9-427e-a446-3a84361fee7a"
    },
    {
        "name": "伏見神社",
        "prefectureName": "福岡県",
        "cityName": "那珂川市",
        "streetName": "大字山田字茶屋前８８０番地の１",
        "latitude": 33.4995999,
        "longitude": 130.4221769,
        "id": "cdc5dbe0-bbed-4c18-a9e7-08f3c653ea4b"
    },
    {
        "name": "位登八幡神社",
        "prefectureName": "福岡県",
        "cityName": "田川市",
        "streetName": "大字位登６８０番地",
        "latitude": 33.60832939,
        "longitude": 130.79185225,
        "id": "43f4339a-a65a-4cea-9a40-db17e5ca65e7"
    },
    {
        "name": "住吉八幡神社",
        "prefectureName": "福岡県",
        "cityName": "田川郡川崎町",
        "streetName": "大字安眞木３３９３番地",
        "latitude": 33.5998781,
        "longitude": 130.8145476,
        "id": "cf5b213a-24e6-4751-ac77-5ec7ae5c4e79"
    },
    {
        "name": "住吉神社",
        "prefectureName": "福岡県",
        "cityName": "柳川市",
        "streetName": "大和町中島字松本３３６番地",
        "latitude": 33.12274135,
        "longitude": 130.43865657,
        "id": "bc2ca721-b02b-41f5-adb7-c2e3cdd5b06b"
    },
    {
        "name": "住吉神社",
        "prefectureName": "福岡県",
        "cityName": "福岡市南区",
        "streetName": "若久１丁目２０番２８号",
        "latitude": 33.55473023,
        "longitude": 130.41331479,
        "id": "b881017f-c268-459e-a22c-c32e1f7f9098"
    },
    {
        "name": "住吉神社",
        "prefectureName": "福岡県",
        "cityName": "春日市",
        "streetName": "小倉３丁目３７番地",
        "latitude": 33.5307675,
        "longitude": 130.45172929,
        "id": "d316956a-957d-4a30-80fa-aeb063cb7f4a"
    },
    {
        "name": "住吉神社",
        "prefectureName": "福岡県",
        "cityName": "春日市",
        "streetName": "須玖北３丁目４２番地",
        "latitude": 33.54320179,
        "longitude": 130.44500618,
        "id": "5df7c04f-7293-48c3-8d3a-3ec2cf165aa5"
    },
    {
        "name": "住吉神社",
        "prefectureName": "福岡県",
        "cityName": "久留米市",
        "streetName": "藤光町字北宇度１１３５番地",
        "latitude": 33.3192609,
        "longitude": 130.5083363,
        "id": "d85986f3-f6e2-4bc6-8886-2926feeef41f"
    },
    {
        "name": "住吉神社",
        "prefectureName": "福岡県",
        "cityName": "北九州市八幡西区",
        "streetName": "屋敷１丁目９番１０号",
        "latitude": 33.871175,
        "longitude": 130.77436079,
        "id": "738f8bff-cc7a-4745-a7ed-ce5d25aa47e1"
    },
    {
        "name": "住吉神社",
        "prefectureName": "福岡県",
        "cityName": "福岡市南区",
        "streetName": "曰佐１丁目８番１１号",
        "latitude": 33.54116271,
        "longitude": 130.43470061,
        "id": "5b25b732-3c13-4e0a-ac5d-981a17b7ba92"
    },
    {
        "name": "住吉神社",
        "prefectureName": "福岡県",
        "cityName": "糸島市",
        "streetName": "井原１３２１番地",
        "latitude": 33.52702803,
        "longitude": 130.24261994,
        "id": "d5f0bfcc-58a3-4a8e-bd51-5ccbce30a48b"
    },
    {
        "name": "住吉神社",
        "prefectureName": "福岡県",
        "cityName": "柳川市",
        "streetName": "大和町塩塚８８９番地",
        "latitude": 33.13980585,
        "longitude": 130.4270404,
        "id": "bf589080-8962-4c2d-9987-b978aba3d59a"
    },
    {
        "name": "住吉神社",
        "prefectureName": "福岡県",
        "cityName": "三潴郡大木町",
        "streetName": "大字福土１８５番地",
        "latitude": 33.23488184,
        "longitude": 130.45187061,
        "id": "ef9ed9c4-b7ed-4d8a-b99d-d68f7eea89a3"
    },
    {
        "name": "住吉神社",
        "prefectureName": "福岡県",
        "cityName": "福岡市博多区",
        "streetName": "住吉３丁目１番５１号",
        "latitude": 33.58591895,
        "longitude": 130.41373662,
        "id": "85cc3704-83cb-4c29-8696-85f8e1c89712"
    },
    {
        "name": "住吉神社",
        "prefectureName": "福岡県",
        "cityName": "柳川市",
        "streetName": "大和町六合１１７７番地",
        "latitude": 33.13955632,
        "longitude": 130.4413671,
        "id": "9eb54eff-36a4-40f7-a23b-3af86249546d"
    },
    {
        "name": "住吉神社",
        "prefectureName": "福岡県",
        "cityName": "大川市",
        "streetName": "大字小保９００番地の１",
        "latitude": 33.20758517,
        "longitude": 130.36181923,
        "id": "a906c034-538d-4848-93ae-3a47e726630d"
    },
    {
        "name": "住吉神社",
        "prefectureName": "福岡県",
        "cityName": "福岡市西区",
        "streetName": "姪の浜３丁目５番５号",
        "latitude": 33.58866544,
        "longitude": 130.32389066,
        "id": "b656c40a-831f-4bd6-9dac-2ab98aabbc97"
    },
    {
        "name": "住吉神社",
        "prefectureName": "福岡県",
        "cityName": "柳川市",
        "streetName": "大和町塩塚４６３番地の１",
        "latitude": 33.1418697,
        "longitude": 130.43258716,
        "id": "dfa08705-a6ac-4b20-baeb-d02063c858af"
    },
    {
        "name": "住吉神社",
        "prefectureName": "福岡県",
        "cityName": "北九州市門司区",
        "streetName": "大字田野浦字町４７番地",
        "latitude": 33.9411377,
        "longitude": 130.9596622,
        "id": "3fcd104f-0530-434b-b93c-7cd23cfcb4ae"
    },
    {
        "name": "住吉神社",
        "prefectureName": "福岡県",
        "cityName": "遠賀郡遠賀町",
        "streetName": "大字若松２３１６番地",
        "latitude": 33.86682047,
        "longitude": 130.66995051,
        "id": "b1a995d5-64f4-480d-8d6d-b531de3bab83"
    },
    {
        "name": "住吉神社",
        "prefectureName": "福岡県",
        "cityName": "福岡市中央区",
        "streetName": "港３丁目３番１３号",
        "latitude": 33.59760063,
        "longitude": 130.3810777,
        "id": "ea2d6262-7b41-4a3f-9675-f47f41759cf1"
    },
    {
        "name": "住吉神社",
        "prefectureName": "福岡県",
        "cityName": "柳川市",
        "streetName": "大和町中島字上ヶ地１５１３番地",
        "latitude": 33.12274135,
        "longitude": 130.43865657,
        "id": "5d4e516e-b8b1-4c00-977e-72ad5046eb38"
    },
    {
        "name": "佐谷神社",
        "prefectureName": "福岡県",
        "cityName": "糟屋郡須惠町",
        "streetName": "大字佐谷６１７番地",
        "latitude": 33.58503765,
        "longitude": 130.53940647,
        "id": "0c354fa4-a255-42c5-875d-9bd76f5a9ccc"
    },
    {
        "name": "依岳神社",
        "prefectureName": "福岡県",
        "cityName": "宗像市",
        "streetName": "田野字依岳１８７２番地",
        "latitude": 33.86383798,
        "longitude": 130.5268209,
        "id": "82b2835d-d397-4d2c-9e12-c50b9a56f2f5"
    },
    {
        "name": "保食神社",
        "prefectureName": "福岡県",
        "cityName": "田川郡大任町",
        "streetName": "大字大行事２９７番地の２",
        "latitude": 33.59308762,
        "longitude": 130.84489277,
        "id": "8d84bd48-867f-485e-85b4-026b46c1e41a"
    },
    {
        "name": "保食神社",
        "prefectureName": "福岡県",
        "cityName": "八女市",
        "streetName": "長野２１０７番地",
        "latitude": 33.22232282,
        "longitude": 130.62152489,
        "id": "0b47c402-5bc3-4472-90c5-c1c1854e16c3"
    },
    {
        "name": "倉園天神社",
        "prefectureName": "福岡県",
        "cityName": "朝倉市",
        "streetName": "倉吉４００番地",
        "latitude": 33.37631897,
        "longitude": 130.64346703,
        "id": "808ed944-14e5-4cf7-821f-eb0c715573cf"
    },
    {
        "name": "倉稲魂神社",
        "prefectureName": "福岡県",
        "cityName": "久留米市",
        "streetName": "荒木町藤田１０８８番地",
        "latitude": 33.25877242,
        "longitude": 130.51125168,
        "id": "de385ae3-b5ad-4b09-bd8a-9e15bb50340e"
    },
    {
        "name": "元寇神社",
        "prefectureName": "福岡県",
        "cityName": "福岡市早良区",
        "streetName": "西新７丁目４番１号",
        "latitude": 33.58449323,
        "longitude": 130.35131382,
        "id": "80c2cd63-02e7-4ab8-b341-a76896f11159"
    },
    {
        "name": "光雲神社",
        "prefectureName": "福岡県",
        "cityName": "福岡市中央区",
        "streetName": "西公園１３番１号",
        "latitude": 33.59713115,
        "longitude": 130.37635865,
        "id": "e7d45af0-cf97-4f87-be9a-2b8080ebdf83"
    },
    {
        "name": "八剣神社",
        "prefectureName": "福岡県",
        "cityName": "八女市",
        "streetName": "立花町北山２２８番地",
        "latitude": 33.1815343,
        "longitude": 130.55120898,
        "id": "070b0474-9a78-4085-8fcb-545882bf4c8d"
    },
    {
        "name": "八剣神社",
        "prefectureName": "福岡県",
        "cityName": "鞍手郡鞍手町",
        "streetName": "大字中山１５８８番地",
        "latitude": 33.7755091,
        "longitude": 130.68519615,
        "id": "c91faf1f-fe7b-4151-8a18-9e3c2c2e3631"
    },
    {
        "name": "八剣神社",
        "prefectureName": "福岡県",
        "cityName": "北九州市若松区",
        "streetName": "大字小敷字本村３１１番地",
        "latitude": 33.9054525,
        "longitude": 130.8111317,
        "id": "e340561a-cb65-4d30-913b-ce8a19ca8656"
    },
    {
        "name": "八剣神社",
        "prefectureName": "福岡県",
        "cityName": "鞍手郡鞍手町",
        "streetName": "大字小牧１３２４番地",
        "latitude": 33.7918292,
        "longitude": 130.6740523,
        "id": "99dd48ca-64be-46fb-8479-6825bfe6bdb2"
    },
    {
        "name": "八剣神社",
        "prefectureName": "福岡県",
        "cityName": "北九州市若松区",
        "streetName": "塩屋３丁目１８番１号",
        "latitude": 33.89302143,
        "longitude": 130.7162177,
        "id": "8443ff5e-105d-44ee-948c-4d314abe2721"
    },
    {
        "name": "八剱神社",
        "prefectureName": "福岡県",
        "cityName": "八女市",
        "streetName": "立花町谷川１６７３番地",
        "latitude": 33.20011325,
        "longitude": 130.60085488,
        "id": "77acc42a-cea1-4945-98a4-b0408ea70f8a"
    },
    {
        "name": "八剱神社",
        "prefectureName": "福岡県",
        "cityName": "遠賀郡水巻町",
        "streetName": "立屋敷３丁目１３番３０号",
        "latitude": 33.84733144,
        "longitude": 130.68655221,
        "id": "396a7cb1-5a91-4a3a-9e8f-458d614b9323"
    },
    {
        "name": "八剱神社",
        "prefectureName": "福岡県",
        "cityName": "遠賀郡遠賀町",
        "streetName": "大字今古賀４４２番地",
        "latitude": 33.8479922,
        "longitude": 130.6683762,
        "id": "c3cb1e05-8225-4459-b3fe-13a1eeac6fd5"
    },
    {
        "name": "八剱神社",
        "prefectureName": "福岡県",
        "cityName": "遠賀郡遠賀町",
        "streetName": "大字広渡１７２６番地の１",
        "latitude": 33.85368332,
        "longitude": 130.67724734,
        "id": "8aded305-7f81-4b2c-af5f-e57fc20427b7"
    },
    {
        "name": "八劍神社",
        "prefectureName": "福岡県",
        "cityName": "北九州市八幡西区",
        "streetName": "本城２丁目１番５６号",
        "latitude": 33.87952866,
        "longitude": 130.72554515,
        "id": "cda0f71d-159b-4310-a371-c580a76a2d24"
    },
    {
        "name": "八劔神社",
        "prefectureName": "福岡県",
        "cityName": "中間市",
        "streetName": "大字中底井野字八番柏４９２番地",
        "latitude": 33.8166521,
        "longitude": 130.7090794,
        "id": "9133132a-dde9-4495-98be-1129a6476fe1"
    },
    {
        "name": "八劔神社",
        "prefectureName": "福岡県",
        "cityName": "みやま市",
        "streetName": "高田町下楠田１７７５番地",
        "latitude": 33.09131446,
        "longitude": 130.45937808,
        "id": "211aaa5f-3d7d-44c5-aee5-3c18062dbb5d"
    },
    {
        "name": "八千矛神社",
        "prefectureName": "福岡県",
        "cityName": "うきは市",
        "streetName": "吉井町橘田１８１番地の１",
        "latitude": 33.34291081,
        "longitude": 130.75598864,
        "id": "31a4fcbc-33f6-420c-845c-0d8e6c71148f"
    },
    {
        "name": "八千鉾神社",
        "prefectureName": "福岡県",
        "cityName": "八女市",
        "streetName": "黒木町大渕４４６９番地",
        "latitude": 33.19027219,
        "longitude": 130.71532363,
        "id": "e9db6b20-80b9-46b2-8db6-b1f21798fbb0"
    },
    {
        "name": "八千鉾神社",
        "prefectureName": "福岡県",
        "cityName": "北九州市八幡西区",
        "streetName": "小嶺３丁目１２番１２号",
        "latitude": 33.81703637,
        "longitude": 130.75672794,
        "id": "d1253144-b84e-4ee8-90d4-441b94bb58d8"
    },
    {
        "name": "八坂神社",
        "prefectureName": "福岡県",
        "cityName": "みやま市",
        "streetName": "瀬高町上庄８９７番地",
        "latitude": 33.16183752,
        "longitude": 130.45354638,
        "id": "49b2fbdd-0ab9-4649-a852-37267bf6e7ad"
    },
    {
        "name": "八坂神社",
        "prefectureName": "福岡県",
        "cityName": "みやま市",
        "streetName": "瀬高町上庄１５５番地",
        "latitude": 33.15859089,
        "longitude": 130.46754828,
        "id": "87f2988a-bc76-435d-a72c-08b478f14c40"
    },
    {
        "name": "八坂神社",
        "prefectureName": "福岡県",
        "cityName": "大川市",
        "streetName": "大字榎津７０１・７０２番地合併の１",
        "latitude": 33.2069855,
        "longitude": 130.37311736,
        "id": "0aaeed8b-5f7d-4494-9f7c-2f1fdb9b8cfe"
    },
    {
        "name": "八坂神社",
        "prefectureName": "福岡県",
        "cityName": "北九州市門司区",
        "streetName": "大字今津字丸山３７８番地",
        "latitude": 33.9411377,
        "longitude": 130.9596622,
        "id": "59c0f985-c1ed-4ae5-98e7-e623dc0cae36"
    },
    {
        "name": "八坂神社",
        "prefectureName": "福岡県",
        "cityName": "糸島市",
        "streetName": "二丈松国４５４番地",
        "latitude": 33.51764908,
        "longitude": 130.17591786,
        "id": "459e608f-5d25-404d-8e10-b16b6b69d0dc"
    },
    {
        "name": "八坂神社",
        "prefectureName": "福岡県",
        "cityName": "北九州市小倉南区",
        "streetName": "大字母原字篠堀４５４番地",
        "latitude": 33.8464327,
        "longitude": 130.884591,
        "id": "41b4ff34-1499-48f8-82c6-13fad37a8d67"
    },
    {
        "name": "八坂神社",
        "prefectureName": "福岡県",
        "cityName": "八女市",
        "streetName": "立花町上辺春１００６番地",
        "latitude": 33.18606728,
        "longitude": 130.55790831,
        "id": "88333fcd-31a2-4b63-89fc-dd76852b68f0"
    },
    {
        "name": "八坂神社",
        "prefectureName": "福岡県",
        "cityName": "北九州市小倉北区",
        "streetName": "城内２番２号",
        "latitude": 33.88532821,
        "longitude": 130.87357126,
        "id": "c92c5e9c-5d29-4e1f-b953-6ece2184ba64"
    },
    {
        "name": "八坂神社",
        "prefectureName": "福岡県",
        "cityName": "北九州市小倉南区",
        "streetName": "大字頂吉４８０番地",
        "latitude": 33.8464327,
        "longitude": 130.884591,
        "id": "700242ae-40a8-460e-a975-001ec679fc20"
    },
    {
        "name": "八坂神社",
        "prefectureName": "福岡県",
        "cityName": "福岡市西区",
        "streetName": "大字元岡２６４１番地１",
        "latitude": 33.58984489,
        "longitude": 130.22044059,
        "id": "8f872d87-0b7b-4fa7-bfb6-2a9f8e68d1cf"
    },
    {
        "name": "八坂神社",
        "prefectureName": "福岡県",
        "cityName": "築上郡吉富町",
        "streetName": "大字直江１４３番地",
        "latitude": 33.60638376,
        "longitude": 131.16672048,
        "id": "dc74b58f-9088-41db-aea2-bbb91b846694"
    },
    {
        "name": "八坂神社",
        "prefectureName": "福岡県",
        "cityName": "みやま市",
        "streetName": "瀬高町小田１０９４番地",
        "latitude": 33.17923133,
        "longitude": 130.52481659,
        "id": "e5415ded-1d10-4c29-81f1-bfdb7de462d0"
    },
    {
        "name": "八坂神社",
        "prefectureName": "福岡県",
        "cityName": "築上郡上毛町",
        "streetName": "大字垂水６４８番地の１",
        "latitude": 33.5783935,
        "longitude": 131.1640931,
        "id": "b39e840a-1cd6-47fa-9f7e-fb55c02ebf6d"
    },
    {
        "name": "八女津媛神社",
        "prefectureName": "福岡県",
        "cityName": "八女市",
        "streetName": "矢部村北矢部４０１５番地",
        "latitude": 33.15868247,
        "longitude": 130.81845906,
        "id": "8c517489-c116-4813-941a-d38b4fdbff5c"
    },
    {
        "name": "八幡古表神社",
        "prefectureName": "福岡県",
        "cityName": "築上郡吉富町",
        "streetName": "大字小犬丸３５３番地の１",
        "latitude": 33.61481382,
        "longitude": 131.18091071,
        "id": "f2bfd773-c5bf-4bd4-891d-fbb5ea99d3df"
    },
    {
        "name": "八幡神社",
        "prefectureName": "福岡県",
        "cityName": "福岡市城南区",
        "streetName": "田島４丁目３番１９号",
        "latitude": 33.56740646,
        "longitude": 130.37400675,
        "id": "2af574fe-c249-48f6-98a4-372835e812f0"
    },
    {
        "name": "八幡神社",
        "prefectureName": "福岡県",
        "cityName": "宗像市",
        "streetName": "朝町２３７３番地",
        "latitude": 33.78000645,
        "longitude": 130.57199118,
        "id": "4fbeb9b8-1986-479e-840d-bc6f17b12614"
    },
    {
        "name": "八幡神社",
        "prefectureName": "福岡県",
        "cityName": "八女市",
        "streetName": "立花町下辺春４９６８番地",
        "latitude": 33.18606728,
        "longitude": 130.55790831,
        "id": "2eae7eac-5eee-4752-a057-660253c9f554"
    },
    {
        "name": "八幡神社",
        "prefectureName": "福岡県",
        "cityName": "久留米市",
        "streetName": "津福本町字宮の後１０７４番地の１",
        "latitude": 33.29739042,
        "longitude": 130.49798159,
        "id": "5b0a1a77-51cd-428e-ba50-798cd0a42179"
    },
    {
        "name": "八幡神社",
        "prefectureName": "福岡県",
        "cityName": "久留米市",
        "streetName": "北野町千代島字堂丁２８４番地・２８５番地・２８６番地",
        "latitude": 33.3597972,
        "longitude": 130.5863601,
        "id": "1c05eda1-5562-477d-a5ad-1613bc01a57e"
    },
    {
        "name": "八幡神社",
        "prefectureName": "福岡県",
        "cityName": "久留米市",
        "streetName": "田主丸町牧１２１２番地",
        "latitude": 33.3423333,
        "longitude": 130.65193059,
        "id": "c5e2dadc-d8f0-4d28-9420-fbf2b68e69be"
    },
    {
        "name": "八幡神社",
        "prefectureName": "福岡県",
        "cityName": "柳川市",
        "streetName": "三橋町垂見字宮の前３０５番地３０６番地",
        "latitude": 33.16345081,
        "longitude": 130.43435598,
        "id": "dfa16538-1d68-43fa-b0ef-90dd8b1d08db"
    },
    {
        "name": "八幡神社",
        "prefectureName": "福岡県",
        "cityName": "大川市",
        "streetName": "大字九網字古屋敷１２１番地",
        "latitude": 33.2065942,
        "longitude": 130.3839573,
        "id": "d1c08b22-88d4-4dc0-8f66-ba49a0726caf"
    },
    {
        "name": "八幡神社",
        "prefectureName": "福岡県",
        "cityName": "みやま市",
        "streetName": "瀬高町下庄字樋口２４３６番地の１",
        "latitude": 33.14194285,
        "longitude": 130.47908094,
        "id": "fa83216a-52b3-41c8-b0bf-a4c3c201334e"
    },
    {
        "name": "八幡神社",
        "prefectureName": "福岡県",
        "cityName": "みやま市",
        "streetName": "高田町竹飯１４７６番地",
        "latitude": 33.12229531,
        "longitude": 130.49241652,
        "id": "bb852855-47f0-48ce-bb57-3c9f75b618f7"
    },
    {
        "name": "八幡神社",
        "prefectureName": "福岡県",
        "cityName": "大牟田市",
        "streetName": "大字草木９０２番地",
        "latitude": 33.05200988,
        "longitude": 130.46542131,
        "id": "e0fccb6a-7d3f-4b1c-a5f1-1d7751c0a7e3"
    },
    {
        "name": "八幡神社",
        "prefectureName": "福岡県",
        "cityName": "直方市",
        "streetName": "大字上頓野３０５２番地",
        "latitude": 33.7441832,
        "longitude": 130.7296349,
        "id": "90fe6360-3b8f-4d8b-89cd-a2eb95bf87db"
    },
    {
        "name": "八幡神社",
        "prefectureName": "福岡県",
        "cityName": "田川郡大任町",
        "streetName": "大字今任原３１２４番地",
        "latitude": 33.6124997,
        "longitude": 130.8536026,
        "id": "a60bc076-983c-4ac4-b0b5-204c5a0c9902"
    },
    {
        "name": "八幡神社",
        "prefectureName": "福岡県",
        "cityName": "福岡市城南区",
        "streetName": "堤１丁目２０番１１号",
        "latitude": 33.54666171,
        "longitude": 130.3795513,
        "id": "c8022f4a-6995-4f1f-972e-40f1f9696bcc"
    },
    {
        "name": "八幡神社",
        "prefectureName": "福岡県",
        "cityName": "宗像市",
        "streetName": "朝町字谷３１２番地",
        "latitude": 33.8055313,
        "longitude": 130.5407483,
        "id": "fb39b4d4-a8e5-4eab-b9b2-34b8cb01c70e"
    },
    {
        "name": "八幡神社",
        "prefectureName": "福岡県",
        "cityName": "八女郡広川町",
        "streetName": "大字吉常６９５番地",
        "latitude": 33.2414418,
        "longitude": 130.5512769,
        "id": "9c9d5889-c5dc-4a0e-aa8c-f282cbc2fa0a"
    },
    {
        "name": "八幡神社",
        "prefectureName": "福岡県",
        "cityName": "筑後市",
        "streetName": "大字津島１３３３番地",
        "latitude": 33.2122189,
        "longitude": 130.50199,
        "id": "bce453ff-70da-4cea-b22e-fa11faa0dd5c"
    },
    {
        "name": "八幡神社",
        "prefectureName": "福岡県",
        "cityName": "久留米市",
        "streetName": "安武町安武本６３７番地",
        "latitude": 33.29164342,
        "longitude": 130.48114197,
        "id": "f763d0db-3041-47bb-b826-26060cdf5167"
    },
    {
        "name": "八幡神社",
        "prefectureName": "福岡県",
        "cityName": "三井郡大刀洗町",
        "streetName": "大字守部字内屋敷８４１番地の１",
        "latitude": 33.3723884,
        "longitude": 130.622488,
        "id": "dd17328a-4e0c-4317-abf2-b9e6b7954024"
    },
    {
        "name": "八幡神社",
        "prefectureName": "福岡県",
        "cityName": "久留米市",
        "streetName": "田主丸町恵利１１７３番地の１",
        "latitude": 33.35738496,
        "longitude": 130.67047888,
        "id": "b48deb9d-086f-4cc8-881d-48503e58aad3"
    },
    {
        "name": "八幡神社",
        "prefectureName": "福岡県",
        "cityName": "柳川市",
        "streetName": "大和町栄５０６番地の２",
        "latitude": 33.12274135,
        "longitude": 130.43865657,
        "id": "2fbf67ff-0301-444a-a5c7-019ed614a9f8"
    },
    {
        "name": "八幡神社",
        "prefectureName": "福岡県",
        "cityName": "大川市",
        "streetName": "大字津字神脇３６０番地",
        "latitude": 33.2065942,
        "longitude": 130.3839573,
        "id": "e169dfc5-ac83-4051-b79a-ad395f18e09c"
    },
    {
        "name": "八幡神社",
        "prefectureName": "福岡県",
        "cityName": "みやま市",
        "streetName": "高田町亀谷１３５３番地",
        "latitude": 33.09998651,
        "longitude": 130.52949882,
        "id": "86e1e45e-5bed-467a-8293-884aea534f14"
    },
    {
        "name": "八幡神社",
        "prefectureName": "福岡県",
        "cityName": "大牟田市",
        "streetName": "大字三池２８４番地",
        "latitude": 33.04813542,
        "longitude": 130.47482922,
        "id": "4ed1ea8e-4c75-4fc8-85fe-f0fe9f7e4352"
    },
    {
        "name": "八幡神社",
        "prefectureName": "福岡県",
        "cityName": "北九州市小倉南区",
        "streetName": "蒲生２丁目６番２３号",
        "latitude": 33.84559369,
        "longitude": 130.86478161,
        "id": "153ee4a7-41ff-44c1-9542-8119a9239c7c"
    },
    {
        "name": "八幡神社",
        "prefectureName": "福岡県",
        "cityName": "鞍手郡鞍手町",
        "streetName": "大字長谷５２２番地",
        "latitude": 33.7918292,
        "longitude": 130.6740523,
        "id": "739eabf6-f6f0-4928-a659-c5101ed712c2"
    },
    {
        "name": "八幡神社",
        "prefectureName": "福岡県",
        "cityName": "田川郡添田町",
        "streetName": "大字桝田７５３番地",
        "latitude": 33.53249992,
        "longitude": 130.86937044,
        "id": "ae9b7a20-24f0-4a1a-90e7-51fa8335bd9a"
    },
    {
        "name": "八幡神社",
        "prefectureName": "福岡県",
        "cityName": "糸島市",
        "streetName": "篠原東３丁目１４番４１号",
        "latitude": 33.55248762,
        "longitude": 130.21497513,
        "id": "7c6bd57b-3a2e-4b4f-a5bb-0153ac497160"
    },
    {
        "name": "八幡神社",
        "prefectureName": "福岡県",
        "cityName": "宗像市",
        "streetName": "光岡字辻園９４９番地",
        "latitude": 33.8055313,
        "longitude": 130.5407483,
        "id": "26e0dd52-bbb0-483c-a7fb-405c6b380c90"
    },
    {
        "name": "八幡神社",
        "prefectureName": "福岡県",
        "cityName": "八女市",
        "streetName": "新庄１６７１番地",
        "latitude": 33.19527967,
        "longitude": 130.53346025,
        "id": "aacdd508-b75f-4589-84a1-711658455b64"
    },
    {
        "name": "八幡神社",
        "prefectureName": "福岡県",
        "cityName": "筑後市",
        "streetName": "大字中折地２０番地",
        "latitude": 33.19017381,
        "longitude": 130.47747238,
        "id": "f55f6945-6271-4903-b34e-cd06b5e3187d"
    },
    {
        "name": "八幡神社",
        "prefectureName": "福岡県",
        "cityName": "久留米市",
        "streetName": "高良内町８７６番地",
        "latitude": 33.29381419,
        "longitude": 130.56413845,
        "id": "cd05a7fb-7204-4cd9-a4cc-d0c7cbd976ca"
    },
    {
        "name": "八幡神社",
        "prefectureName": "福岡県",
        "cityName": "久留米市",
        "streetName": "三潴町清松字杉ノ元５４８番地ノ１",
        "latitude": 33.3192609,
        "longitude": 130.5083363,
        "id": "e8034f38-661d-49ab-8f9f-e9ee3e9c30ee"
    },
    {
        "name": "八幡神社",
        "prefectureName": "福岡県",
        "cityName": "三井郡大刀洗町",
        "streetName": "大字三川字小川畑１５４５番地",
        "latitude": 33.3723884,
        "longitude": 130.622488,
        "id": "d43912ff-446a-4123-9aff-e91360eba569"
    },
    {
        "name": "八幡神社",
        "prefectureName": "福岡県",
        "cityName": "みやま市",
        "streetName": "瀬高町太神字浦田１１６６番地",
        "latitude": 33.14194285,
        "longitude": 130.47908094,
        "id": "f2aa544a-4707-4f28-aeb2-f6ea308e112e"
    },
    {
        "name": "八幡神社",
        "prefectureName": "福岡県",
        "cityName": "みやま市",
        "streetName": "瀬高町松田１５３３番地",
        "latitude": 33.14646478,
        "longitude": 130.49922964,
        "id": "9f591d89-be49-4c14-ae69-713182bb2f67"
    },
    {
        "name": "八幡神社",
        "prefectureName": "福岡県",
        "cityName": "みやま市",
        "streetName": "高田町今福２番地",
        "latitude": 33.11440964,
        "longitude": 130.46552411,
        "id": "5432e7cc-d0b7-446b-b75e-fe1cd6ff8538"
    },
    {
        "name": "八幡神社",
        "prefectureName": "福岡県",
        "cityName": "みやま市",
        "streetName": "高田町下楠田１３８０番地",
        "latitude": 33.09662247,
        "longitude": 130.46580803,
        "id": "f9d5ac72-3eb8-47db-a727-46696b0ed19f"
    },
    {
        "name": "八幡神社",
        "prefectureName": "福岡県",
        "cityName": "大牟田市",
        "streetName": "上白川町２丁目２４５番地",
        "latitude": 33.04605774,
        "longitude": 130.46556611,
        "id": "ee886b3f-cb78-4013-8b26-1d916076af78"
    },
    {
        "name": "八幡神社",
        "prefectureName": "福岡県",
        "cityName": "田川郡添田町",
        "streetName": "大字中元寺２４８１番地",
        "latitude": 33.5718567,
        "longitude": 130.853957,
        "id": "44716d27-7646-49e2-8aab-e2552ab246a8"
    },
    {
        "name": "八幡神社",
        "prefectureName": "福岡県",
        "cityName": "飯塚市",
        "streetName": "川島１６５番地",
        "latitude": 33.65354599,
        "longitude": 130.69219367,
        "id": "a9b85a78-da93-44a2-a657-d90daf00327b"
    },
    {
        "name": "八幡神社",
        "prefectureName": "福岡県",
        "cityName": "八女市",
        "streetName": "川犬１３０２番地",
        "latitude": 33.2118698,
        "longitude": 130.5577744,
        "id": "65fd0931-bffe-4d70-a866-50867a93f46e"
    },
    {
        "name": "八幡神社",
        "prefectureName": "福岡県",
        "cityName": "八女市",
        "streetName": "上陽町上横山３４８２番地",
        "latitude": 33.23733814,
        "longitude": 130.64213925,
        "id": "6b2df00d-02f9-4f0a-9076-2294e3ef1e55"
    },
    {
        "name": "八幡神社",
        "prefectureName": "福岡県",
        "cityName": "久留米市",
        "streetName": "長門石５丁目１番１３号",
        "latitude": 33.33054585,
        "longitude": 130.48426781,
        "id": "f2a2065e-222d-4c4c-8a10-ab4efd2ab8b4"
    },
    {
        "name": "八幡神社",
        "prefectureName": "福岡県",
        "cityName": "久留米市",
        "streetName": "三潴町生岩２３４番地",
        "latitude": 33.23536532,
        "longitude": 130.459034,
        "id": "fef91e97-c1ad-4041-b96e-0dbae738e55b"
    },
    {
        "name": "八幡神社",
        "prefectureName": "福岡県",
        "cityName": "三井郡大刀洗町",
        "streetName": "大字西原字川原田６０４番地の１",
        "latitude": 33.3723884,
        "longitude": 130.622488,
        "id": "ac3f1adf-cb67-4d21-9e37-641cc9220ce7"
    },
    {
        "name": "八幡神社",
        "prefectureName": "福岡県",
        "cityName": "柳川市",
        "streetName": "大字吉富字八幡３１番地の２・３２番地・３３番地・３４番地の１",
        "latitude": 33.1630693,
        "longitude": 130.405761,
        "id": "10be1c08-5e84-45a6-b392-c099cbe826de"
    },
    {
        "name": "八幡神社",
        "prefectureName": "福岡県",
        "cityName": "大川市",
        "streetName": "大字下白垣８７番地",
        "latitude": 33.22398737,
        "longitude": 130.4020628,
        "id": "8b95925e-f26f-45cd-995b-14b0df95c5a9"
    },
    {
        "name": "八幡神社",
        "prefectureName": "福岡県",
        "cityName": "みやま市",
        "streetName": "瀬高町本郷字中土居９６２番地の１及２",
        "latitude": 33.14194285,
        "longitude": 130.47908094,
        "id": "c5cb4f42-268f-436f-af8a-30f7cc6f02fa"
    },
    {
        "name": "八幡神社",
        "prefectureName": "福岡県",
        "cityName": "みやま市",
        "streetName": "瀬高町小川８３６番地",
        "latitude": 33.15028925,
        "longitude": 130.48626653,
        "id": "4890cc8b-5c8c-41dc-9b6c-736796b60112"
    },
    {
        "name": "八幡神社",
        "prefectureName": "福岡県",
        "cityName": "大牟田市",
        "streetName": "大字上内１６３１番地",
        "latitude": 33.07464376,
        "longitude": 130.50312063,
        "id": "f6a59e05-9c28-4081-b106-bab2c4ee9aaf"
    },
    {
        "name": "八幡神社",
        "prefectureName": "福岡県",
        "cityName": "糸島市",
        "streetName": "泊１２１６番地の２",
        "latitude": 33.57666795,
        "longitude": 130.2087864,
        "id": "09eb6a53-a9b0-4ed9-8798-8ac212cefc05"
    },
    {
        "name": "八幡神社",
        "prefectureName": "福岡県",
        "cityName": "福津市",
        "streetName": "畦町９４５番地",
        "latitude": 33.7668235,
        "longitude": 130.4910901,
        "id": "13075f15-ecbf-45d6-9409-dacd07b08284"
    },
    {
        "name": "八幡神社",
        "prefectureName": "福岡県",
        "cityName": "八女市",
        "streetName": "上陽町下横山４８３６番地",
        "latitude": 33.23733814,
        "longitude": 130.64213925,
        "id": "899dd9ca-ce8a-4700-8fb9-2a1dde8efc10"
    },
    {
        "name": "八幡神社",
        "prefectureName": "福岡県",
        "cityName": "久留米市",
        "streetName": "善導寺町飯田７６７番地",
        "latitude": 33.33119734,
        "longitude": 130.60759789,
        "id": "fbbe62a2-a81b-4820-b65f-55bf87d16325"
    },
    {
        "name": "八幡神社",
        "prefectureName": "福岡県",
        "cityName": "柳川市",
        "streetName": "大和町栄３０８番地の１・３０８番地の２",
        "latitude": 33.12974027,
        "longitude": 130.42772116,
        "id": "9fe4ee3f-1b95-46be-9be9-da6883f1bb3f"
    },
    {
        "name": "八幡神社",
        "prefectureName": "福岡県",
        "cityName": "大川市",
        "streetName": "大字一木字小深町の弐３５番地３６番地合併",
        "latitude": 33.2065942,
        "longitude": 130.3839573,
        "id": "cb3b5ebd-bf0f-4785-9a6b-8695fe93ff02"
    },
    {
        "name": "八幡神社",
        "prefectureName": "福岡県",
        "cityName": "みやま市",
        "streetName": "瀬高町大廣園１３２４番地",
        "latitude": 33.13910711,
        "longitude": 130.48514446,
        "id": "dbfb582c-79b1-4d29-8a59-462fc2225f58"
    },
    {
        "name": "八幡神社",
        "prefectureName": "福岡県",
        "cityName": "みやま市",
        "streetName": "高田町江浦７４２番地の２",
        "latitude": 33.10415188,
        "longitude": 130.45049219,
        "id": "c530b22d-37be-4cab-a5b7-3877f98887c1"
    },
    {
        "name": "八幡神社",
        "prefectureName": "福岡県",
        "cityName": "大牟田市",
        "streetName": "飯田町６９番地",
        "latitude": 33.00921398,
        "longitude": 130.45675121,
        "id": "93cc00a8-3231-4fdf-8101-24732f0d5c31"
    },
    {
        "name": "八幡神社",
        "prefectureName": "福岡県",
        "cityName": "北九州市若松区",
        "streetName": "大字安屋脇田浦字堀川１７８２番地",
        "latitude": 33.9054525,
        "longitude": 130.8111317,
        "id": "58d9d777-f20b-4eec-a7b0-d15ddb387dd3"
    },
    {
        "name": "八幡神社",
        "prefectureName": "福岡県",
        "cityName": "宮若市",
        "streetName": "宮永字片鉾２４４番地",
        "latitude": 33.7235701,
        "longitude": 130.6666547,
        "id": "ece3d678-8994-4cba-b2ee-cc3da6382b8b"
    },
    {
        "name": "八幡神社",
        "prefectureName": "福岡県",
        "cityName": "京都郡みやこ町",
        "streetName": "犀川崎山字中尾２９５９番地",
        "latitude": 33.6992218,
        "longitude": 130.9200926,
        "id": "a3d55902-23bb-4def-a5cf-d7880e12a796"
    },
    {
        "name": "八幡神社",
        "prefectureName": "福岡県",
        "cityName": "田川郡赤村",
        "streetName": "大字赤１５１７番地",
        "latitude": 33.6165914,
        "longitude": 130.8710377,
        "id": "f25ca59c-036a-4434-8cd5-faba20515c97"
    },
    {
        "name": "八幡神社",
        "prefectureName": "福岡県",
        "cityName": "糸島市",
        "streetName": "浦志２丁目１１番２号",
        "latitude": 33.56276681,
        "longitude": 130.21341123,
        "id": "a9d8d405-3f5d-4e98-9a8e-66ac789cb94e"
    },
    {
        "name": "八幡神社",
        "prefectureName": "福岡県",
        "cityName": "宗像市",
        "streetName": "王丸字尾中５２６番地",
        "latitude": 33.8055313,
        "longitude": 130.5407483,
        "id": "f4302909-9bc0-4941-a31e-c2793fb16028"
    },
    {
        "name": "八幡神社",
        "prefectureName": "福岡県",
        "cityName": "太宰府市",
        "streetName": "坂本３丁目１２番地",
        "latitude": 33.5177702,
        "longitude": 130.51207106,
        "id": "3fd71d9f-08fc-4d11-8cfe-d100fec98638"
    },
    {
        "name": "八幡神社",
        "prefectureName": "福岡県",
        "cityName": "飯塚市",
        "streetName": "柏の森３１２番地",
        "latitude": 33.63716763,
        "longitude": 130.68712519,
        "id": "57db3ec5-aaf5-43e7-b7a8-5888b97e2671"
    },
    {
        "name": "八幡神社",
        "prefectureName": "福岡県",
        "cityName": "八女市",
        "streetName": "星野村１８７７３番地の２",
        "latitude": 33.25004757,
        "longitude": 130.76239499,
        "id": "de42de50-c840-4767-9ae5-629295a44c3e"
    },
    {
        "name": "八幡神社",
        "prefectureName": "福岡県",
        "cityName": "筑後市",
        "streetName": "大字久富１３８番地の１の１の２",
        "latitude": 33.2267807,
        "longitude": 130.48249916,
        "id": "a1e3c366-8cca-433c-8b6a-a5c9822fa45f"
    },
    {
        "name": "八幡神社",
        "prefectureName": "福岡県",
        "cityName": "久留米市",
        "streetName": "宮ノ陣６丁目１３番３号",
        "latitude": 33.32738029,
        "longitude": 130.54118752,
        "id": "35c025a1-5b81-4946-9ab5-a495a1cc86ae"
    },
    {
        "name": "八幡神社",
        "prefectureName": "福岡県",
        "cityName": "柳川市",
        "streetName": "東蒲池７５７番地",
        "latitude": 33.1630693,
        "longitude": 130.405761,
        "id": "bf788d2d-073a-44b9-b9ec-7c60f07f222d"
    },
    {
        "name": "八幡神社",
        "prefectureName": "福岡県",
        "cityName": "三潴郡大木町",
        "streetName": "大字三八松１９６１番地",
        "latitude": 33.19456961,
        "longitude": 130.43547783,
        "id": "4ce2270c-6aa0-42e9-8c4a-815ec8b196a5"
    },
    {
        "name": "八幡神社",
        "prefectureName": "福岡県",
        "cityName": "みやま市",
        "streetName": "瀬高町本郷字小路６０８番地",
        "latitude": 33.14194285,
        "longitude": 130.47908094,
        "id": "51db0737-84a6-4f4c-8386-03c08d12cb2b"
    },
    {
        "name": "八幡神社",
        "prefectureName": "福岡県",
        "cityName": "みやま市",
        "streetName": "山川町原町字宮の上２５６番地",
        "latitude": 33.13014463,
        "longitude": 130.51189031,
        "id": "14485131-ba99-46c2-bd49-a263d2ced5a1"
    },
    {
        "name": "八幡神社",
        "prefectureName": "福岡県",
        "cityName": "大牟田市",
        "streetName": "下白川町２丁目４００番地",
        "latitude": 33.04656028,
        "longitude": 130.45661665,
        "id": "b66a1fce-d5d6-44bf-b05f-50f9279fcaf3"
    },
    {
        "name": "八幡神社",
        "prefectureName": "福岡県",
        "cityName": "大牟田市",
        "streetName": "馬場町１６０番地",
        "latitude": 33.01453262,
        "longitude": 130.44655449,
        "id": "51f9cd33-8fa1-421c-8667-fd28e4556ab4"
    },
    {
        "name": "八幡神社",
        "prefectureName": "福岡県",
        "cityName": "北九州市八幡東区",
        "streetName": "大蔵２丁目１６番３３号",
        "latitude": 33.86100478,
        "longitude": 130.81941266,
        "id": "b78aee3d-5e57-49ac-82df-a031091a8a43"
    },
    {
        "name": "八幡神社",
        "prefectureName": "福岡県",
        "cityName": "行橋市",
        "streetName": "大字流末字土井ノ内１２１９番地",
        "latitude": 33.7287751,
        "longitude": 130.982967,
        "id": "79089f88-3538-4d41-a13c-7d4645fd34ae"
    },
    {
        "name": "八幡神社",
        "prefectureName": "福岡県",
        "cityName": "福津市",
        "streetName": "４０９８番地",
        "latitude": 33.7668235,
        "longitude": 130.4910901,
        "id": "4d1bd246-c5eb-4757-9b62-adf57957bd91"
    },
    {
        "name": "八幡神社",
        "prefectureName": "福岡県",
        "cityName": "宗像市",
        "streetName": "土穴字西浦５８３番地",
        "latitude": 33.8055313,
        "longitude": 130.5407483,
        "id": "3575ddb1-a591-45e0-a2a0-c2df67dab9a8"
    },
    {
        "name": "八幡神社",
        "prefectureName": "福岡県",
        "cityName": "飯塚市",
        "streetName": "伊川１２７６番地",
        "latitude": 33.65548819,
        "longitude": 130.65565813,
        "id": "57a51695-a84c-47a3-80c7-891e6628f62d"
    },
    {
        "name": "八幡神社",
        "prefectureName": "福岡県",
        "cityName": "八女市",
        "streetName": "星野村１０４２８番地",
        "latitude": 33.25178053,
        "longitude": 130.74138748,
        "id": "5613e843-2769-4c8a-97b4-e713c4592e93"
    },
    {
        "name": "八幡神社",
        "prefectureName": "福岡県",
        "cityName": "久留米市",
        "streetName": "高野１丁目２番３０号",
        "latitude": 33.33081044,
        "longitude": 130.52583067,
        "id": "0ffe5254-650d-4089-af35-493b52e1327c"
    },
    {
        "name": "八幡神社",
        "prefectureName": "福岡県",
        "cityName": "柳川市",
        "streetName": "金納１０６番地",
        "latitude": 33.19152218,
        "longitude": 130.41893454,
        "id": "f219c142-2798-4ec0-8e9e-9f6b196c1142"
    },
    {
        "name": "八幡神社",
        "prefectureName": "福岡県",
        "cityName": "みやま市",
        "streetName": "瀬高町小川字内畑金栗３６６番地の１",
        "latitude": 33.14194285,
        "longitude": 130.47908094,
        "id": "00bef2bc-37e9-41da-b3d7-1f7b8c42ccd1"
    },
    {
        "name": "八幡神社",
        "prefectureName": "福岡県",
        "cityName": "みやま市",
        "streetName": "瀬高町太神字鉾町１１５６番地",
        "latitude": 33.14194285,
        "longitude": 130.47908094,
        "id": "d83a1ffc-45c3-4ea1-a67f-6c7149c35f21"
    },
    {
        "name": "八幡神社",
        "prefectureName": "福岡県",
        "cityName": "大牟田市",
        "streetName": "大字田隈２４５番地",
        "latitude": 33.05493469,
        "longitude": 130.47356779,
        "id": "cb38f4f4-04d1-4954-ad14-5203d4695a2c"
    },
    {
        "name": "八幡神社",
        "prefectureName": "福岡県",
        "cityName": "大牟田市",
        "streetName": "大字吉野字東神屋原１１１６番地の１",
        "latitude": 33.0302867,
        "longitude": 130.4459763,
        "id": "15bd8e35-6d1f-4c99-8040-9dea7f64afe1"
    },
    {
        "name": "八幡神社",
        "prefectureName": "福岡県",
        "cityName": "うきは市",
        "streetName": "吉井町若宮３６６番地の１",
        "latitude": 33.34408316,
        "longitude": 130.76673231,
        "id": "6b78c98f-1145-40d9-a97f-c11e8ed02744"
    },
    {
        "name": "八幡神社",
        "prefectureName": "福岡県",
        "cityName": "北九州市八幡西区",
        "streetName": "御開１丁目２番３１号",
        "latitude": 33.88634759,
        "longitude": 130.7368023,
        "id": "7b83ee67-41ea-489e-a1a8-12e91e6328c3"
    },
    {
        "name": "八幡神社",
        "prefectureName": "福岡県",
        "cityName": "行橋市",
        "streetName": "大字下崎字宮草田７０２番地",
        "latitude": 33.7287751,
        "longitude": 130.982967,
        "id": "e7b13bcd-a7c7-45b5-b183-f7bc89d87987"
    },
    {
        "name": "八幡神社",
        "prefectureName": "福岡県",
        "cityName": "福津市",
        "streetName": "本木１２１４番地・１２１３番地",
        "latitude": 33.7668235,
        "longitude": 130.4910901,
        "id": "73ba2c0b-1507-4655-aaed-cb2102984c1d"
    },
    {
        "name": "八幡神社",
        "prefectureName": "福岡県",
        "cityName": "久留米市",
        "streetName": "北野町赤司字城小路１７６５番地",
        "latitude": 33.3597972,
        "longitude": 130.5863601,
        "id": "3f2845da-56cc-45c1-a226-d2bef6de572d"
    },
    {
        "name": "八幡神社",
        "prefectureName": "福岡県",
        "cityName": "柳川市",
        "streetName": "大和町栄字江越１１５９番地",
        "latitude": 33.12274135,
        "longitude": 130.43865657,
        "id": "6e666a9b-dc01-4ed9-8616-1bea2f4626d4"
    },
    {
        "name": "八幡神社",
        "prefectureName": "福岡県",
        "cityName": "大川市",
        "streetName": "大字小保字上町市場３３番地３４番地",
        "latitude": 33.2065942,
        "longitude": 130.3839573,
        "id": "ce64d018-a179-48a6-9f82-9a58e32b7bbf"
    },
    {
        "name": "八幡神社",
        "prefectureName": "福岡県",
        "cityName": "みやま市",
        "streetName": "山川町清水字蛙原１９９番地",
        "latitude": 33.13014463,
        "longitude": 130.51189031,
        "id": "ec2aeef0-a46a-4344-9e8f-3f3b18714658"
    },
    {
        "name": "八幡神社",
        "prefectureName": "福岡県",
        "cityName": "大牟田市",
        "streetName": "大字櫟野字鳥越２４３０番地",
        "latitude": 33.0302867,
        "longitude": 130.4459763,
        "id": "933255af-655f-4de6-bc80-a2ab49b0f469"
    },
    {
        "name": "八幡神社",
        "prefectureName": "福岡県",
        "cityName": "うきは市",
        "streetName": "吉井町千年６３７番地",
        "latitude": 33.34291081,
        "longitude": 130.75598864,
        "id": "fd190205-7ff7-46d5-9cab-564943801d56"
    },
    {
        "name": "八幡神社",
        "prefectureName": "福岡県",
        "cityName": "築上郡築上町",
        "streetName": "大字赤幡３２５番地の１",
        "latitude": 33.65613395,
        "longitude": 131.01636863,
        "id": "b124205d-85ca-49f5-a05c-108ec1c47b00"
    },
    {
        "name": "八幡神社",
        "prefectureName": "福岡県",
        "cityName": "福岡市城南区",
        "streetName": "長尾５丁目１番３２号",
        "latitude": 33.55621628,
        "longitude": 130.3813147,
        "id": "c4533bc2-91ae-4c48-9e5d-bc3a9b45f2e5"
    },
    {
        "name": "八幡神社",
        "prefectureName": "福岡県",
        "cityName": "宗像市",
        "streetName": "吉田字山ノ上１１０９番地",
        "latitude": 33.83955735,
        "longitude": 130.51836376,
        "id": "2c4cd1b1-0613-4b53-ac55-5b36dab59f93"
    },
    {
        "name": "八幡神社",
        "prefectureName": "福岡県",
        "cityName": "八女市",
        "streetName": "黒木町北大渕１９１４番地",
        "latitude": 33.19277807,
        "longitude": 130.77206532,
        "id": "574e1ba7-946c-4983-8570-ea2186f8bff2"
    },
    {
        "name": "八幡神社",
        "prefectureName": "福岡県",
        "cityName": "柳川市",
        "streetName": "大和町皿垣開字由布３４番地",
        "latitude": 33.12274135,
        "longitude": 130.43865657,
        "id": "2eb6b508-78ad-4c69-bbb3-7678d3b642da"
    },
    {
        "name": "八幡神社",
        "prefectureName": "福岡県",
        "cityName": "柳川市",
        "streetName": "三橋町白鳥字西大野３９９番地４００番地",
        "latitude": 33.1630693,
        "longitude": 130.405761,
        "id": "97954888-2c9c-4279-8702-323d0490e4a9"
    },
    {
        "name": "八幡神社",
        "prefectureName": "福岡県",
        "cityName": "大川市",
        "streetName": "大字坂井１番地",
        "latitude": 33.18869101,
        "longitude": 130.39519492,
        "id": "3aaa6a1f-4dc8-4fda-b48b-bfb2f293052d"
    },
    {
        "name": "八幡神社",
        "prefectureName": "福岡県",
        "cityName": "みやま市",
        "streetName": "瀬高町文廣字吉岡１５１１番地",
        "latitude": 33.14194285,
        "longitude": 130.47908094,
        "id": "53464157-8b3d-459d-bdf1-84a8b278aa6b"
    },
    {
        "name": "八幡神社",
        "prefectureName": "福岡県",
        "cityName": "みやま市",
        "streetName": "高田町海津２４０番地",
        "latitude": 33.13350498,
        "longitude": 130.48377239,
        "id": "2a2a2315-d3fd-4888-aa8b-8bbb6c8a60fc"
    },
    {
        "name": "八幡神社",
        "prefectureName": "福岡県",
        "cityName": "大牟田市",
        "streetName": "大字上内３４７９番地の１",
        "latitude": 33.08098501,
        "longitude": 130.49176558,
        "id": "84614181-63ba-47b3-b862-b520a66d7978"
    },
    {
        "name": "八幡神社",
        "prefectureName": "福岡県",
        "cityName": "うきは市",
        "streetName": "吉井町江南字津々羅町４７８番地の２",
        "latitude": 33.34291081,
        "longitude": 130.75598864,
        "id": "40cac7e4-27ff-4667-9082-18e857fc8ef2"
    },
    {
        "name": "八幡神社",
        "prefectureName": "福岡県",
        "cityName": "築上郡上毛町",
        "streetName": "大字百留３３１１番地の２",
        "latitude": 33.5783935,
        "longitude": 131.1640931,
        "id": "cc11c8a0-efd5-4508-a44d-33b3be5394d9"
    },
    {
        "name": "八幡神社",
        "prefectureName": "福岡県",
        "cityName": "築上郡築上町",
        "streetName": "大字下深野１３番地",
        "latitude": 33.6561427,
        "longitude": 131.0560318,
        "id": "5549ccf8-b479-44c4-b5c3-d128f2bf04cc"
    },
    {
        "name": "八幡神社",
        "prefectureName": "福岡県",
        "cityName": "田川郡福智町",
        "streetName": "上野１９６２番地",
        "latitude": 33.6832182,
        "longitude": 130.7801273,
        "id": "2d2820e2-1f57-4706-a9da-da57c7adb1e7"
    },
    {
        "name": "八幡神社",
        "prefectureName": "福岡県",
        "cityName": "田川郡大任町",
        "streetName": "大字今任原２９６番地",
        "latitude": 33.6124997,
        "longitude": 130.8536026,
        "id": "5a43b90e-4007-4429-b75c-55d8950718a2"
    },
    {
        "name": "八所神社",
        "prefectureName": "福岡県",
        "cityName": "北九州市八幡西区",
        "streetName": "野面１丁目１８番５３号",
        "latitude": 33.78159841,
        "longitude": 130.74210235,
        "id": "6d29c5af-356f-4a0c-8a47-d07993672476"
    },
    {
        "name": "八所神社",
        "prefectureName": "福岡県",
        "cityName": "遠賀郡水巻町",
        "streetName": "大字二５８６番地",
        "latitude": 33.8547475,
        "longitude": 130.6948455,
        "id": "83af7815-9046-4018-952f-53d7962073a7"
    },
    {
        "name": "八所神社",
        "prefectureName": "福岡県",
        "cityName": "大川市",
        "streetName": "大字一木字宮ノ前ノ二１１３１番地",
        "latitude": 33.2065942,
        "longitude": 130.3839573,
        "id": "3332e3ba-2ff6-40a6-99d9-9ee73bf139a7"
    },
    {
        "name": "八所神社",
        "prefectureName": "福岡県",
        "cityName": "宗像市",
        "streetName": "吉留字宮ノ尾３１８６番地",
        "latitude": 33.8055313,
        "longitude": 130.5407483,
        "id": "e2c6c9ea-b13e-404b-aa26-a8b472dd6dcd"
    },
    {
        "name": "八所神社",
        "prefectureName": "福岡県",
        "cityName": "宮若市",
        "streetName": "長井鶴３９０番地",
        "latitude": 33.73211056,
        "longitude": 130.65199438,
        "id": "b4bc3059-b035-4793-93fe-4b6fa8dd5c5c"
    },
    {
        "name": "八旗八幡神社",
        "prefectureName": "福岡県",
        "cityName": "北九州市小倉南区",
        "streetName": "守恒本町１丁目２５番８号",
        "latitude": 33.83628644,
        "longitude": 130.86966475,
        "id": "7a4f2d6e-67dc-4802-9b9c-b9d60f97a31c"
    },
    {
        "name": "八旗八幡神社",
        "prefectureName": "福岡県",
        "cityName": "北九州市小倉南区",
        "streetName": "長尾４丁目２６番１号",
        "latitude": 33.82192672,
        "longitude": 130.85448302,
        "id": "bb9376ce-77fe-4188-83dd-9f9cf5069d79"
    },
    {
        "name": "八景山護國神社",
        "prefectureName": "福岡県",
        "cityName": "京都郡みやこ町",
        "streetName": "国作字八景山１３７９番地の２",
        "latitude": 33.6992218,
        "longitude": 130.9200926,
        "id": "7c26b44c-e54d-4587-bd21-3c0c06a0589d"
    },
    {
        "name": "八木山神社",
        "prefectureName": "福岡県",
        "cityName": "飯塚市",
        "streetName": "八木山２２４２番地",
        "latitude": 33.646567,
        "longitude": 130.6911521,
        "id": "27669d3c-f41a-4903-8304-5b2bfab06e8e"
    },
    {
        "name": "八橋神社",
        "prefectureName": "福岡県",
        "cityName": "福岡市中央区",
        "streetName": "唐人町３丁目２番６号",
        "latitude": 33.59197323,
        "longitude": 130.37087313,
        "id": "6ef500be-839d-4dc2-9dd0-0b07e23653f2"
    },
    {
        "name": "八歳神社",
        "prefectureName": "福岡県",
        "cityName": "柳川市",
        "streetName": "大和町鷹ノ尾７６８番地",
        "latitude": 33.12274135,
        "longitude": 130.43865657,
        "id": "9b769bcf-55fd-4eef-9bc7-bda2015e45fd"
    },
    {
        "name": "八知山神社",
        "prefectureName": "福岡県",
        "cityName": "八女市",
        "streetName": "矢部村北矢部８８００番地",
        "latitude": 33.12808079,
        "longitude": 130.85932197,
        "id": "2f717968-84f3-45ad-8b2d-3d0b535e9018"
    },
    {
        "name": "八社神社",
        "prefectureName": "福岡県",
        "cityName": "京都郡みやこ町",
        "streetName": "勝山上矢山字岩倉１１９４番地の２",
        "latitude": 33.6992218,
        "longitude": 130.9200926,
        "id": "12191b99-bf66-4ad6-94f4-d4a2bbdcfd57"
    },
    {
        "name": "八社神社",
        "prefectureName": "福岡県",
        "cityName": "大牟田市",
        "streetName": "上屋敷町１丁目５９番地",
        "latitude": 33.0302867,
        "longitude": 130.4459763,
        "id": "17fd389c-6371-4abe-ba5e-f2d59b4b994a"
    },
    {
        "name": "八社神社",
        "prefectureName": "福岡県",
        "cityName": "行橋市",
        "streetName": "大字矢山字別所１６４０番地",
        "latitude": 33.7287751,
        "longitude": 130.982967,
        "id": "f700acd9-6c5c-4811-8200-5d10c59223d2"
    },
    {
        "name": "八社神社",
        "prefectureName": "福岡県",
        "cityName": "築上郡上毛町",
        "streetName": "大字西友枝２３１９番地",
        "latitude": 33.5783935,
        "longitude": 131.1640931,
        "id": "d047eea9-80bd-4aa5-9201-3cc936d51c32"
    },
    {
        "name": "八社神社",
        "prefectureName": "福岡県",
        "cityName": "行橋市",
        "streetName": "大字中川字川原畑２６９２番地",
        "latitude": 33.7287751,
        "longitude": 130.982967,
        "id": "ad9ac0cc-163f-407b-b60c-1a71b558cb81"
    },
    {
        "name": "八社神社",
        "prefectureName": "福岡県",
        "cityName": "築上郡上毛町",
        "streetName": "大字東上３３２７番地",
        "latitude": 33.5783935,
        "longitude": 131.1640931,
        "id": "ef593637-fb9d-44fb-8cea-1962f0aaceaa"
    },
    {
        "name": "八社神社",
        "prefectureName": "福岡県",
        "cityName": "行橋市",
        "streetName": "大字吉国字向園３１番地",
        "latitude": 33.7287751,
        "longitude": 130.982967,
        "id": "e3cf3f15-4f57-4ec0-abaa-fd77d5938029"
    },
    {
        "name": "八阪神社",
        "prefectureName": "福岡県",
        "cityName": "北九州市小倉南区",
        "streetName": "長尾１丁目８番５号",
        "latitude": 33.82515697,
        "longitude": 130.85811598,
        "id": "443d7956-20ca-4901-8578-a15ec6269202"
    },
    {
        "name": "八雲神社",
        "prefectureName": "福岡県",
        "cityName": "福岡市西区",
        "streetName": "今宿町上ノ原久保上４１６番地",
        "latitude": 33.582691,
        "longitude": 130.3231103,
        "id": "73a89d04-f79c-423e-8f41-478e2201c697"
    },
    {
        "name": "八雷神社",
        "prefectureName": "福岡県",
        "cityName": "行橋市",
        "streetName": "大字二塚字門明２９８番地",
        "latitude": 33.7287751,
        "longitude": 130.982967,
        "id": "6da16a08-5b3d-4493-8e86-0ad3f55bef86"
    },
    {
        "name": "八雷神社",
        "prefectureName": "福岡県",
        "cityName": "京都郡みやこ町",
        "streetName": "犀川犬丸字経塚３７２番地",
        "latitude": 33.6992218,
        "longitude": 130.9200926,
        "id": "03cc2f21-a7a1-4f23-a4f9-593f6235e963"
    },
    {
        "name": "八雷神社",
        "prefectureName": "福岡県",
        "cityName": "那珂川市",
        "streetName": "下梶原１丁目９番５号",
        "latitude": 33.49715587,
        "longitude": 130.43527525,
        "id": "37e80c9c-17a5-49c2-93a7-7988dcc19d79"
    },
    {
        "name": "八雷神社",
        "prefectureName": "福岡県",
        "cityName": "那珂川市",
        "streetName": "大字上梶原字楠木７３６番地",
        "latitude": 33.4995999,
        "longitude": 130.4221769,
        "id": "562cbca4-b665-4a5d-a7b9-2181c2a2f38f"
    },
    {
        "name": "八雷神社",
        "prefectureName": "福岡県",
        "cityName": "行橋市",
        "streetName": "西泉２丁目１０番２９号",
        "latitude": 33.71383195,
        "longitude": 130.97316534,
        "id": "235222f6-14fb-4221-ab99-9899fd47332f"
    },
    {
        "name": "八雷神社",
        "prefectureName": "福岡県",
        "cityName": "京都郡みやこ町",
        "streetName": "勝山矢山字大久保６８１番地",
        "latitude": 33.6992218,
        "longitude": 130.9200926,
        "id": "dfa769bf-9148-4271-b374-9f9f9187cf23"
    },
    {
        "name": "八雷神社",
        "prefectureName": "福岡県",
        "cityName": "行橋市",
        "streetName": "大字長木字宮ノヱン７５８番地",
        "latitude": 33.7287751,
        "longitude": 130.982967,
        "id": "360152a0-eb83-4a2e-9dbb-d20a5b018b32"
    },
    {
        "name": "八龍神社",
        "prefectureName": "福岡県",
        "cityName": "鞍手郡小竹町",
        "streetName": "大字新多字上日３０９番地",
        "latitude": 33.6925021,
        "longitude": 130.7127737,
        "id": "68bd92d5-be93-476b-a470-a37a13458beb"
    },
    {
        "name": "八龍神社",
        "prefectureName": "福岡県",
        "cityName": "八女市",
        "streetName": "黒木町田代１２７３番地",
        "latitude": 33.15686377,
        "longitude": 130.65129946,
        "id": "ea2b5886-6b91-4f44-807f-2a635d66aee1"
    },
    {
        "name": "八龍神社",
        "prefectureName": "福岡県",
        "cityName": "久留米市",
        "streetName": "合川町１３２４番地",
        "latitude": 33.31269535,
        "longitude": 130.53793456,
        "id": "d65a7a49-bc55-4bf4-a6e6-af2b7e682a48"
    },
    {
        "name": "八龍神社",
        "prefectureName": "福岡県",
        "cityName": "小郡市",
        "streetName": "津古１３７２番地",
        "latitude": 33.44682408,
        "longitude": 130.56548252,
        "id": "aa42644c-92ae-4234-888a-2d10e7632104"
    },
    {
        "name": "六之神社",
        "prefectureName": "福岡県",
        "cityName": "宗像市",
        "streetName": "久原字古ノ崎２７８番地",
        "latitude": 33.8055313,
        "longitude": 130.5407483,
        "id": "8462e5a4-c49a-4b92-81f6-0328f4f13870"
    },
    {
        "name": "六嶽神社",
        "prefectureName": "福岡県",
        "cityName": "鞍手郡鞍手町",
        "streetName": "大字室木１２０７番地",
        "latitude": 33.7918292,
        "longitude": 130.6740523,
        "id": "65ac7e12-4b85-4cbd-bd5a-7960b8ff0f28"
    },
    {
        "name": "六所神社",
        "prefectureName": "福岡県",
        "cityName": "糟屋郡新宮町",
        "streetName": "大字立花口１１２５番地の１",
        "latitude": 33.7152781,
        "longitude": 130.4465381,
        "id": "f9eb03f6-953e-4a01-a20f-f9dbc1014c14"
    },
    {
        "name": "六所神社",
        "prefectureName": "福岡県",
        "cityName": "飯塚市",
        "streetName": "舎利蔵字梅ケ谷６２０番地",
        "latitude": 33.646567,
        "longitude": 130.6911521,
        "id": "2c77510d-088a-4705-8591-eecd6d0ecf80"
    },
    {
        "name": "六所神社",
        "prefectureName": "福岡県",
        "cityName": "糸島市",
        "streetName": "志摩馬場３４４番地",
        "latitude": 33.58772223,
        "longitude": 130.20461162,
        "id": "ae3802fc-8419-4744-bf97-059fee906685"
    },
    {
        "name": "六所神社",
        "prefectureName": "福岡県",
        "cityName": "筑後市",
        "streetName": "大字羽犬塚６５２番地の１",
        "latitude": 33.21457969,
        "longitude": 130.50174282,
        "id": "f37b38a1-3ce3-4d2d-a2d5-1257c2320e11"
    },
    {
        "name": "六本松神社",
        "prefectureName": "福岡県",
        "cityName": "八女市",
        "streetName": "矢部村北矢部６３３１番地",
        "latitude": 33.14418083,
        "longitude": 130.82902244,
        "id": "2cae072d-49e8-4275-a0af-c0ac73f1b2de"
    },
    {
        "name": "六社大神社",
        "prefectureName": "福岡県",
        "cityName": "北九州市小倉南区",
        "streetName": "下石田１丁目６番１４号",
        "latitude": 33.83765325,
        "longitude": 130.88928525,
        "id": "4bfe5978-8bb9-4c47-9127-7500259a5958"
    },
    {
        "name": "六社神社",
        "prefectureName": "福岡県",
        "cityName": "大牟田市",
        "streetName": "大字橘字元屋敷６８５番地",
        "latitude": 33.0302867,
        "longitude": 130.4459763,
        "id": "b3c2b36f-7c84-4d3b-987d-ba7fa5dd2fd8"
    },
    {
        "name": "六社神社",
        "prefectureName": "福岡県",
        "cityName": "築上郡上毛町",
        "streetName": "大字上唐原２０５０番地１",
        "latitude": 33.5783935,
        "longitude": 131.1640931,
        "id": "71d814a1-6b61-4910-b01c-9c53d4798135"
    },
    {
        "name": "六社神社",
        "prefectureName": "福岡県",
        "cityName": "築上郡築上町",
        "streetName": "大字上ノ河内４８５番地",
        "latitude": 33.61613835,
        "longitude": 131.0638094,
        "id": "8cd35e62-7771-435d-b932-736f065ecab8"
    },
    {
        "name": "六谷水分神社",
        "prefectureName": "福岡県",
        "cityName": "うきは市",
        "streetName": "浮羽町浮羽９３１番地の１",
        "latitude": 33.33314059,
        "longitude": 130.79393114,
        "id": "c8612be1-5d62-42eb-bb30-1c65fb650ba4"
    },
    {
        "name": "兵庫神社",
        "prefectureName": "福岡県",
        "cityName": "行橋市",
        "streetName": "大字沓尾字兵庫山２９２番地",
        "latitude": 33.7287751,
        "longitude": 130.982967,
        "id": "e453ec17-779a-4113-9448-5f204aa528b2"
    },
    {
        "name": "内畑稲荷神社",
        "prefectureName": "福岡県",
        "cityName": "福岡市博多区",
        "streetName": "祇園町１番８号",
        "latitude": 33.59331271,
        "longitude": 130.41413936,
        "id": "c0c66b9b-edff-467b-9540-d93ae1267b22"
    },
    {
        "name": "冨松神社",
        "prefectureName": "福岡県",
        "cityName": "久留米市",
        "streetName": "高良内町９７９番地",
        "latitude": 33.29213106,
        "longitude": 130.56548284,
        "id": "4a375f0b-e378-442d-bc8d-d170319a8201"
    },
    {
        "name": "初子神社",
        "prefectureName": "福岡県",
        "cityName": "宮若市",
        "streetName": "磯光１０８１番地",
        "latitude": 33.71925428,
        "longitude": 130.68385054,
        "id": "239ba673-7829-4d66-8504-a12e66267524"
    },
    {
        "name": "別所神社",
        "prefectureName": "福岡県",
        "cityName": "朝倉市",
        "streetName": "須川３１９７番地",
        "latitude": 33.39350028,
        "longitude": 130.73216777,
        "id": "24492a80-ca39-4ecf-ae5c-fadf119670f2"
    },
    {
        "name": "到津八幡神社",
        "prefectureName": "福岡県",
        "cityName": "北九州市小倉北区",
        "streetName": "上到津１丁目８番内",
        "latitude": 33.87814249,
        "longitude": 130.85269265,
        "id": "0828f1bb-5c74-486b-90b3-ca8af711b353"
    },
    {
        "name": "前岳神社",
        "prefectureName": "福岡県",
        "cityName": "北九州市八幡西区",
        "streetName": "金剛１丁目１１番１号",
        "latitude": 33.78743115,
        "longitude": 130.74955999,
        "id": "95064aad-cce3-4cf2-b073-16880477c68f"
    },
    {
        "name": "剣神社",
        "prefectureName": "福岡県",
        "cityName": "鞍手郡鞍手町",
        "streetName": "大字木月１３４９番地",
        "latitude": 33.80885785,
        "longitude": 130.67837955,
        "id": "38f64517-a812-4c7f-b2c1-29e0875b651a"
    },
    {
        "name": "剣神社",
        "prefectureName": "福岡県",
        "cityName": "鞍手郡鞍手町",
        "streetName": "大字新延１９９８番地",
        "latitude": 33.78931263,
        "longitude": 130.66426411,
        "id": "46a828ca-7ce6-4dde-88b1-1f1562c0e9b2"
    },
    {
        "name": "剱神社",
        "prefectureName": "福岡県",
        "cityName": "宮若市",
        "streetName": "龍徳１６３９番地",
        "latitude": 33.73775524,
        "longitude": 130.68920481,
        "id": "c9a628ec-873f-43f0-a45c-6fbaecca7062"
    },
    {
        "name": "劔神社",
        "prefectureName": "福岡県",
        "cityName": "直方市",
        "streetName": "大字下新入２５６５番地",
        "latitude": 33.75673954,
        "longitude": 130.70285603,
        "id": "0c3005f0-d360-4255-8b71-5d94321ba857"
    },