[{"name":"一ノ宮神社","prefectureName":"佐賀県","cityName":"嬉野市","streetName":"嬉野町大字岩屋川内丙６２２番地","latitude":33.03515603,"longitude":130.00032863,"id":"a7bf10c9-3424-4108-bf84-70e8e08e8562"},{"name":"一ノ宮神社","prefectureName":"佐賀県","cityName":"西松浦郡有田町","streetName":"桑木原乙１３１９番地","latitude":33.21857334,"longitude":129.84768923,"id":"df1573b5-6424-46cf-9fc6-7ff3ce4477c2"},{"name":"七良神社","prefectureName":"佐賀県","cityName":"鹿島市","streetName":"浜町甲７９３番地","latitude":33.0923775,"longitude":130.11817029,"id":"02caac4a-d402-4e72-8e10-d4ec5af1688d"},{"name":"七郎神社","prefectureName":"佐賀県","cityName":"佐賀市","streetName":"富士町大字内野６１番地２","latitude":33.35860302,"longitude":130.25174744,"id":"9237174e-3434-4b23-9559-22ddfa4705a6"},{"name":"七郎神社","prefectureName":"佐賀県","cityName":"佐賀市","streetName":"富士町大字下熊川１２２番地","latitude":33.37176713,"longitude":130.20645892,"id":"c9cc68f8-27b8-41fa-a284-963844c0b38e"},{"name":"七郎神社","prefectureName":"佐賀県","cityName":"多久市","streetName":"西多久町大字板屋７２２３番地","latitude":33.26392505,"longitude":130.06004567,"id":"9e49f707-2a38-4e99-9db5-d12a2be0d0fe"},{"name":"七郎神社","prefectureName":"佐賀県","cityName":"佐賀市","streetName":"三瀬村藤原２４８２番地","latitude":33.41953678,"longitude":130.30468784,"id":"ce80a106-2edd-4723-b4e2-1fa30f443b59"},{"name":"三光神社","prefectureName":"佐賀県","cityName":"唐津市","streetName":"相知町伊岐佐甲２３６９番地","latitude":33.34967765,"longitude":130.01305059,"id":"cbb9a575-f637-4214-9e61-fc337e38f8d6"},{"name":"三島神社","prefectureName":"佐賀県","cityName":"東松浦郡玄海町","streetName":"大字石田１３６９番地","latitude":33.47212689,"longitude":129.84923272,"id":"7f02234e-0ed2-448a-b0ee-f10e269418e1"},{"name":"三島神社","prefectureName":"佐賀県","cityName":"唐津市","streetName":"重河内７１２番地","latitude":33.4501626,"longitude":129.9679895,"id":"bea86df7-5247-4e5b-8f60-7d53ce41f682"},{"name":"三島神社","prefectureName":"佐賀県","cityName":"伊万里市","streetName":"南波多町古里２１４０番地３","latitude":33.2645853,"longitude":129.8802692,"id":"4a07580a-3633-4735-9725-7ac2781b56dc"},{"name":"三嶽神社","prefectureName":"佐賀県","cityName":"鹿島市","streetName":"大字三河内丙１番地","latitude":33.1037232,"longitude":130.0987689,"id":"2e5ef25d-96f2-49a5-b7d4-2ca3aa9df76d"},{"name":"上野山神社","prefectureName":"佐賀県","cityName":"唐津市","streetName":"相知町牟田部１７７８番地","latitude":33.34967765,"longitude":130.01305059,"id":"80e0266a-95bd-4b43-8c69-83f91fd2bbeb"},{"name":"下の宮神社","prefectureName":"佐賀県","cityName":"佐賀市","streetName":"三瀬村杠２５７６番地","latitude":33.2634815,"longitude":130.3008572,"id":"49fe7944-1fe9-4da9-894c-cacc4cf3d9bf"},{"name":"下宮八幡神社","prefectureName":"佐賀県","cityName":"小城市","streetName":"牛津町上砥川６８２番地","latitude":33.24127025,"longitude":130.18642245,"id":"164939c8-187d-43b7-9968-e8e22fd908b7"},{"name":"両子神社","prefectureName":"佐賀県","cityName":"多久市","streetName":"東多久町大字納所２７４６番地","latitude":33.25589051,"longitude":130.16644542,"id":"93c3b8b5-429a-4388-b94c-72f0282841c2"},{"name":"中善神社","prefectureName":"佐賀県","cityName":"小城市","streetName":"小城町畑田５０６０番地","latitude":33.29321993,"longitude":130.19898271,"id":"7feb5c04-5b81-4956-a91d-6629c4b36674"},{"name":"中尾神社","prefectureName":"佐賀県","cityName":"多久市","streetName":"北多久町大字多久原２１７６番地","latitude":33.29033741,"longitude":130.11694267,"id":"00f8abe5-f5a8-4f78-92bb-733edb69332f"},{"name":"中山神社","prefectureName":"佐賀県","cityName":"藤津郡太良町","streetName":"大字多良８４８２番地","latitude":32.99399415,"longitude":130.10704323,"id":"3e16c41b-31c1-4a55-9a85-e96deb816936"},{"name":"中山神社","prefectureName":"佐賀県","cityName":"唐津市","streetName":"七山荒川６８９番地、６９０番地","latitude":33.4501626,"longitude":129.9679895,"id":"7074f959-0e38-4f2e-a75c-d8b96ff1efd0"},{"name":"中山神社","prefectureName":"佐賀県","cityName":"佐賀市","streetName":"富士町大字古場１８６８番地","latitude":33.37176713,"longitude":130.20645892,"id":"7fb2990e-ba72-4d58-8431-7eb7fb4fa09a"},{"name":"中島神社","prefectureName":"佐賀県","cityName":"佐賀市","streetName":"本庄町大字末次９４０番地","latitude":33.22460188,"longitude":130.3027552,"id":"71e6f3fb-60e9-4a50-9776-bfbea6681046"},{"name":"丸熊神社","prefectureName":"佐賀県","cityName":"唐津市","streetName":"相知町大野１２５０番地","latitude":33.38085119,"longitude":129.99564279,"id":"abf8c289-b9d7-4982-b806-7a8c2803a5d3"},{"name":"丹生神社","prefectureName":"佐賀県","cityName":"嬉野市","streetName":"嬉野町大字下宿丙２８８番地","latitude":33.09716322,"longitude":129.98503417,"id":"54e90c30-e4ba-4bad-85aa-83a21c1b369b"},{"name":"丹生神社","prefectureName":"佐賀県","cityName":"鹿島市","streetName":"大字森１３８５番地","latitude":33.12422343,"longitude":130.08579193,"id":"acbdbb0f-82cf-4557-b436-6e4450a04591"},{"name":"丹生神社","prefectureName":"佐賀県","cityName":"嬉野市","streetName":"塩田町大字大草野甲４５６番地","latitude":33.13197044,"longitude":130.01149375,"id":"5a23d36f-8841-42ee-8158-8b1626d2110e"},{"name":"丹生神社","prefectureName":"佐賀県","cityName":"嬉野市","streetName":"塩田町大字馬場下甲３６５７番地","latitude":33.12733313,"longitude":130.04211026,"id":"14226bcf-7d6f-466a-86fe-d8bd5fbbe711"},{"name":"丹生神社","prefectureName":"佐賀県","cityName":"嬉野市","streetName":"嬉野町大字下野甲３２００番地甲３２４４番地","latitude":33.09716322,"longitude":129.98503417,"id":"11a75c49-9a8b-489a-a331-bad0d3e17a2d"},{"name":"丹生神社","prefectureName":"佐賀県","cityName":"嬉野市","streetName":"嬉野町大字不動山甲３２８番地","latitude":33.08206154,"longitude":129.96887451,"id":"85ad72fa-4292-496b-956a-86f8d08659df"},{"name":"乙姫神社","prefectureName":"佐賀県","cityName":"伊万里市","streetName":"松浦町山形６２２番地","latitude":33.2645853,"longitude":129.8802692,"id":"34e4b7e8-378d-491e-af57-29dc80e98b0e"},{"name":"乙宮神社","prefectureName":"佐賀県","cityName":"小城市","streetName":"芦刈町芦溝４４３番地","latitude":33.21484856,"longitude":130.20798236,"id":"a1916a21-4d06-469f-be70-54f4f92108bc"},{"name":"乙宮神社","prefectureName":"佐賀県","cityName":"佐賀市","streetName":"鍋島町大字森田１２６２番地","latitude":33.27549318,"longitude":130.25815737,"id":"a0f69dfe-2c1e-4195-8553-2b53c0f43ea8"},{"name":"乙護神社","prefectureName":"佐賀県","cityName":"神埼郡吉野ヶ里町","streetName":"大曲３９７番地イ","latitude":33.3211889,"longitude":130.3988022,"id":"2ca87363-32b9-4c07-a713-b8dfe49c4943"},{"name":"乙護神社","prefectureName":"佐賀県","cityName":"佐賀市","streetName":"嘉瀬町大字荻野２５０２番地","latitude":33.25516404,"longitude":130.25284455,"id":"2d427a2d-cb5c-4816-9011-f56447918267"},{"name":"乙龍天子神社","prefectureName":"佐賀県","cityName":"神埼市","streetName":"神埼町横武１２００番地","latitude":33.30950408,"longitude":130.37388748,"id":"ec358789-b5be-4a6c-9705-921d85ec71f2"},{"name":"九郎神社","prefectureName":"佐賀県","cityName":"小城市","streetName":"小城町晴気２１３２番地","latitude":33.29321993,"longitude":130.19898271,"id":"3bdd3e0b-8e20-4115-ae49-daefadc2fd8d"},{"name":"乳母神社","prefectureName":"佐賀県","cityName":"佐賀市","streetName":"富士町大字下無津呂４００番地","latitude":33.44083236,"longitude":130.20550861,"id":"098e8e75-66e2-45c5-bcfb-88c637b61344"},{"name":"事比羅神社","prefectureName":"佐賀県","cityName":"鹿島市","streetName":"浜町甲４２６０番地","latitude":33.0923775,"longitude":130.11817029,"id":"c63b257b-dc2c-4063-891a-b0d3af25c2c3"},{"name":"事比羅神社","prefectureName":"佐賀県","cityName":"神埼郡吉野ヶ里町","streetName":"吉田１５３９番地","latitude":33.3211889,"longitude":130.3988022,"id":"d053fa4f-71e8-4e18-9f45-31a21eb7f3b1"},{"name":"二夕子神社","prefectureName":"佐賀県","cityName":"唐津市","streetName":"二タ子５４８２番地","latitude":33.4501626,"longitude":129.9679895,"id":"48705b45-e771-4b68-a455-0c2dc434086a"},{"name":"五ノ宮神社","prefectureName":"佐賀県","cityName":"鹿島市","streetName":"大字森１３８５番地","latitude":33.12422343,"longitude":130.08579193,"id":"4adf255f-a04d-45f4-a9a2-1795075fc94c"},{"name":"五社大明神社","prefectureName":"佐賀県","cityName":"伊万里市","streetName":"脇田町１４８１番地","latitude":33.28506629,"longitude":129.88493221,"id":"0499ed40-8b6f-4fa0-b744-0798fdd96689"},{"name":"五社神社","prefectureName":"佐賀県","cityName":"唐津市","streetName":"相知町平山下６１５番地イ","latitude":33.32599137,"longitude":130.00757627,"id":"d7c837a9-5232-4484-90b7-58d2c102245a"},{"name":"五龍神社","prefectureName":"佐賀県","cityName":"佐賀市","streetName":"鍋島町大字八戸１０５３番地","latitude":33.2634815,"longitude":130.3008572,"id":"898e5819-f683-49a1-aae1-a90d0e66a43d"},{"name":"仁比山神社","prefectureName":"佐賀県","cityName":"神埼市","streetName":"神埼町的１６９２番地","latitude":33.35801612,"longitude":130.36435076,"id":"13656b30-7472-4461-b06d-2f32f9d1f1aa"},{"name":"今坂神社","prefectureName":"佐賀県","cityName":"唐津市","streetName":"浜玉町平原甲３８４９番地","latitude":33.44956235,"longitude":130.04105634,"id":"dfaf7385-9a66-4447-85ec-8d02dccd4c21"},{"name":"今宮神社","prefectureName":"佐賀県","cityName":"鳥栖市","streetName":"酒井西町４７１番地","latitude":33.36405841,"longitude":130.53332051,"id":"87065685-964b-418d-b88b-933e15791059"},{"name":"今山神社","prefectureName":"佐賀県","cityName":"唐津市","streetName":"相知町牟田部１７５４番地","latitude":33.34967765,"longitude":130.01305059,"id":"62ca9933-061b-404c-9170-0a483fa5bc27"},{"name":"今岳神社","prefectureName":"佐賀県","cityName":"伊万里市","streetName":"大坪町乙２５４４番地","latitude":33.2688699,"longitude":129.91937636,"id":"db897a6e-f16e-4822-8e6d-33cb2b249428"},{"name":"伊勢神社","prefectureName":"佐賀県","cityName":"鳥栖市","streetName":"田代上町２１５番地","latitude":33.39095927,"longitude":130.52196511,"id":"b67fc651-b702-4546-aa3b-56abe3f1d0cd"},{"name":"伊勢神社","prefectureName":"佐賀県","cityName":"佐賀市","streetName":"伊勢町９番８号","latitude":33.25253207,"longitude":130.28975846,"id":"3cc001cd-7bf3-43cb-85fe-f1381fa3931d"},{"name":"伊萬里神社","prefectureName":"佐賀県","cityName":"伊万里市","streetName":"立花町又８３番地","latitude":33.26279942,"longitude":129.88189695,"id":"2ac4593d-47b4-4ad9-9d26-e83f3c1bbc25"},{"name":"伏尸神社","prefectureName":"佐賀県","cityName":"武雄市","streetName":"若木町大字川古７９９８番地","latitude":33.25299466,"longitude":129.99413211,"id":"6ad3be5d-784d-47a9-bee2-afdfdd452fc4"},{"name":"住吉神社","prefectureName":"佐賀県","cityName":"佐賀市","streetName":"金立町大字千布１５５番地","latitude":33.2634815,"longitude":130.3008572,"id":"dfb5b836-708f-4d3e-aa63-bd4dc5e9063a"},{"name":"住吉神社","prefectureName":"佐賀県","cityName":"嬉野市","streetName":"嬉野町大字下野丙６３０番地","latitude":33.11835279,"longitude":130.00800035,"id":"4f52f5ff-a9ea-4f88-bc91-d039ceca9892"},{"name":"住吉神社","prefectureName":"佐賀県","cityName":"唐津市","streetName":"相賀１番地","latitude":33.50582246,"longitude":129.96438151,"id":"ee0e9a6e-dc6b-489d-9f87-36a8a84a59af"},{"name":"住吉神社","prefectureName":"佐賀県","cityName":"嬉野市","streetName":"塩田町大字大草野丙２１７８番地","latitude":33.13432833,"longitude":130.00666359,"id":"e617e4b1-cecb-4311-8261-9bfb112196e7"},{"name":"住吉神社","prefectureName":"佐賀県","cityName":"伊万里市","streetName":"東山代町里３４８番地","latitude":33.28811761,"longitude":129.83506161,"id":"0c649d7c-553b-4c39-ae9c-c797210a646f"},{"name":"住吉神社","prefectureName":"佐賀県","cityName":"佐賀市","streetName":"東与賀町大字田中１６６６の４・１６６６の５番地","latitude":33.19937357,"longitude":130.28029697,"id":"a665b0dc-e5af-4309-937b-9b0c700b2cb1"},{"name":"住吉神社","prefectureName":"佐賀県","cityName":"唐津市","streetName":"双水２０００番地","latitude":33.38859173,"longitude":129.98845159,"id":"68be0117-2681-461b-92c3-417f7ae27d83"},{"name":"住吉神社","prefectureName":"佐賀県","cityName":"唐津市","streetName":"肥前町田野乙１４３番地","latitude":33.42362088,"longitude":129.82563411,"id":"52e77fb6-4479-4e77-a20b-323f2c655285"},{"name":"住吉神社","prefectureName":"佐賀県","cityName":"唐津市","streetName":"肥前町納所丙１５８７番地","latitude":33.46258255,"longitude":129.81505492,"id":"79073b6e-35d7-4898-83c3-702f350a0cf5"},{"name":"住吉神社","prefectureName":"佐賀県","cityName":"唐津市","streetName":"厳木町本山１５番地","latitude":33.32099592,"longitude":130.06489445,"id":"32ca0ceb-8851-45b5-83d8-0baa1580514a"},{"name":"住吉神社","prefectureName":"佐賀県","cityName":"佐賀市","streetName":"富士町大字上熊川５６番地","latitude":33.37176713,"longitude":130.20645892,"id":"5572a612-5bee-4195-8381-92a1637b5896"},{"name":"住吉神社","prefectureName":"佐賀県","cityName":"唐津市","streetName":"鎮西町馬渡島３５番地","latitude":33.53261012,"longitude":129.87758194,"id":"72b9a38a-b6b4-4238-94a1-d7a8f6184034"},{"name":"住吉神社","prefectureName":"佐賀県","cityName":"唐津市","streetName":"浜玉町平原乙５９番地","latitude":33.44956235,"longitude":130.04105634,"id":"4f6835c8-91ed-4b5b-a577-68d488285d92"},{"name":"住吉神社","prefectureName":"佐賀県","cityName":"伊万里市","streetName":"南波多町大曲４７８番地","latitude":33.33450517,"longitude":129.93169631,"id":"67c9d94c-23ea-46ec-963a-e0277bedfbcb"},{"name":"住吉神社","prefectureName":"佐賀県","cityName":"藤津郡太良町","streetName":"大字大浦丁２０２３番地","latitude":32.98443337,"longitude":130.19993673,"id":"73ea76f1-9da5-4b92-aa02-62e2cd7af61c"},{"name":"住吉神社","prefectureName":"佐賀県","cityName":"唐津市","streetName":"神集島２７８９番地","latitude":33.53991675,"longitude":129.96701873,"id":"87bd36c5-f8e3-4a9a-984d-40fba4c0396c"},{"name":"佐代姫神社","prefectureName":"佐賀県","cityName":"伊万里市","streetName":"東山代町里３４８番地","latitude":33.28811761,"longitude":129.83506161,"id":"537d7b92-1a4d-4608-b475-af05bab1a072"},{"name":"佐喜神社","prefectureName":"佐賀県","cityName":"神埼市","streetName":"神埼町本告牟田７０８番地","latitude":33.30950408,"longitude":130.37388748,"id":"c8215871-4889-492d-866f-4f1e510fa58a"},{"name":"佐嘉神社","prefectureName":"佐賀県","cityName":"佐賀市","streetName":"松原２丁目１０番４３号","latitude":33.25191316,"longitude":130.30256015,"id":"0606709f-e995-4e28-b3ac-e3445c91b4f1"},{"name":"佐渡神社","prefectureName":"佐賀県","cityName":"三養基郡上峰町","streetName":"大字坊所８５８番地１","latitude":33.31749232,"longitude":130.42142346,"id":"a0c05abf-3f2b-4f6d-9992-d060ef8944f1"},{"name":"佐織神社","prefectureName":"佐賀県","cityName":"小城市","streetName":"三日月町長神田１５番地","latitude":33.2736671,"longitude":130.2169329,"id":"ebc3615a-8980-4983-8e9e-f9fe3303bff7"},{"name":"佐賀県護國神社","prefectureName":"佐賀県","cityName":"佐賀市","streetName":"川原町８番１５号","latitude":33.25307658,"longitude":130.29279431,"id":"f50b195e-e431-4a7c-9451-751f3aec74dd"},{"name":"作礼山神社","prefectureName":"佐賀県","cityName":"唐津市","streetName":"相知町田頭５４６番地","latitude":33.33729978,"longitude":130.04324702,"id":"2243fdbe-b7c3-4c6c-bc5f-7ef2d5d1b10b"},{"name":"作礼神社","prefectureName":"佐賀県","cityName":"唐津市","streetName":"厳木町平之２２４０番地","latitude":33.32099592,"longitude":130.06489445,"id":"0948f273-0bb0-4e0f-920b-826829fcd75b"},{"name":"修理田神社","prefectureName":"佐賀県","cityName":"佐賀市","streetName":"巨勢町大字修理田１５３番地","latitude":33.2634815,"longitude":130.3008572,"id":"e2d8a439-f7d1-47f4-8366-6e002d5edf4d"},{"name":"倉坂神社","prefectureName":"佐賀県","cityName":"唐津市","streetName":"浜玉町平原乙１５００番地","latitude":33.44956235,"longitude":130.04105634,"id":"39a35359-ea2b-4b02-b982-1e8c6fb0a6e8"},{"name":"倉岡神社","prefectureName":"佐賀県","cityName":"神埼市","streetName":"脊振町広滝３４３５番地","latitude":33.37446153,"longitude":130.35343471,"id":"ee75cef6-d911-4812-9ed6-fbe0e96f18e2"},{"name":"値賀神社","prefectureName":"佐賀県","cityName":"東松浦郡玄海町","streetName":"大字普恩寺３７５番地","latitude":33.50492098,"longitude":129.84453228,"id":"89e515fd-ff5c-4e7f-b47f-266fc635147f"},{"name":"入野神社","prefectureName":"佐賀県","cityName":"唐津市","streetName":"肥前町入野乙４０２番地","latitude":33.44579315,"longitude":129.81916643,"id":"582cd232-8801-4e0c-993c-478706ca52e9"},{"name":"八坂神社","prefectureName":"佐賀県","cityName":"鳥栖市","streetName":"田代新町１３０番地","latitude":33.39065648,"longitude":130.52358718,"id":"92af174f-ef4d-42f1-a08b-be329c1fef4f"},{"name":"八坂神社","prefectureName":"佐賀県","cityName":"唐津市","streetName":"石志４２７６番地","latitude":33.39185733,"longitude":129.9592536,"id":"365cf8e2-a6e5-4829-80c0-f32d86424442"},{"name":"八坂神社","prefectureName":"佐賀県","cityName":"神埼市","streetName":"千代田町直鳥２４７番地","latitude":33.27524354,"longitude":130.37158069,"id":"463979c7-9642-4f1e-9f6b-ced650396163"},{"name":"八坂神社","prefectureName":"佐賀県","cityName":"佐賀市","streetName":"大和町大字松瀬２９２８番地","latitude":33.31071333,"longitude":130.28135746,"id":"1b7e03bd-5a61-48f4-9c87-7785d0e68eb3"},{"name":"八坂神社","prefectureName":"佐賀県","cityName":"杵島郡白石町","streetName":"大字福田２０３２番地","latitude":33.18451772,"longitude":130.13740225,"id":"bb02200c-e367-4ae5-a323-d4852da11296"},{"name":"八坂神社","prefectureName":"佐賀県","cityName":"神埼郡吉野ヶ里町","streetName":"吉田２０３２番地","latitude":33.3317133,"longitude":130.40974283,"id":"3a5fa349-c963-492e-b888-d6b48c2903a8"},{"name":"八坂神社","prefectureName":"佐賀県","cityName":"佐賀市","streetName":"蓮池町大字蓮池２１７番地","latitude":33.24953982,"longitude":130.35297464,"id":"df8bf710-1230-47f5-a46e-4485e3de6174"},{"name":"八坂神社","prefectureName":"佐賀県","cityName":"神埼市","streetName":"神埼町尾崎２５３１番地","latitude":33.32107477,"longitude":130.34595385,"id":"9be0c90a-8c80-4edc-a6c2-32b28c3e296b"},{"name":"八坂神社","prefectureName":"佐賀県","cityName":"神埼郡吉野ヶ里町","streetName":"石動２９７９番地","latitude":33.3211889,"longitude":130.3988022,"id":"73028f00-696b-40b5-8be8-098de65a0fa7"},{"name":"八坂神社","prefectureName":"佐賀県","cityName":"佐賀市","streetName":"富士町大字杉山８２７番地","latitude":33.39044787,"longitude":130.16963529,"id":"29976af2-d1b4-45e0-85d5-bdaed81142ab"},{"name":"八坂神社","prefectureName":"佐賀県","cityName":"藤津郡太良町","streetName":"大字大浦丙１７２３番地","latitude":33.01941,"longitude":130.1789733,"id":"dcdbd703-4d76-4daa-969e-d938b0fb5f68"},{"name":"八坂神社","prefectureName":"佐賀県","cityName":"唐津市","streetName":"鎮西町加唐島２６番地","latitude":33.58755686,"longitude":129.86214348,"id":"7977b339-7d9d-48bc-965f-035140c3798f"},{"name":"八坂神社","prefectureName":"佐賀県","cityName":"佐賀市","streetName":"柳町１番１６号","latitude":33.25368538,"longitude":130.30684306,"id":"1be81a06-30fe-4b3b-aecc-5796b7634667"},{"name":"八坂神社","prefectureName":"佐賀県","cityName":"唐津市","streetName":"湊町１２３２番地","latitude":33.5236846,"longitude":129.94864579,"id":"88035925-eac6-4427-98c2-bc025dd58990"},{"name":"八坂神社","prefectureName":"佐賀県","cityName":"唐津市","streetName":"肥前町向島１２９・１３０合併番地","latitude":33.49130337,"longitude":129.77861314,"id":"e4d12ca7-6c1c-443c-8379-1d2d86804c7d"},{"name":"八坂神社","prefectureName":"佐賀県","cityName":"伊万里市","streetName":"黒川町畑川内２２３９番地","latitude":33.33696759,"longitude":129.89763316,"id":"5bb04ae2-44fd-4660-9af0-a25a9bc95287"},{"name":"八坂神社","prefectureName":"佐賀県","cityName":"唐津市","streetName":"大島８７９０番地","latitude":33.4501626,"longitude":129.9679895,"id":"d482eba1-7aef-40ab-b3bd-bbab3f1fba45"},{"name":"八坂神社","prefectureName":"佐賀県","cityName":"唐津市","streetName":"肥前町田野乙４７０番地","latitude":33.42555955,"longitude":129.82485623,"id":"ec2a47ff-a3be-4f3f-9333-8574fdabe542"},{"name":"八坂神社","prefectureName":"佐賀県","cityName":"佐賀市","streetName":"北川副町大字新郷７８８番地","latitude":33.2634815,"longitude":130.3008572,"id":"d5068837-1e60-4e09-a92e-e688b289f84e"},{"name":"八坂神社","prefectureName":"佐賀県","cityName":"佐賀市","streetName":"久保田町大字久保田７８番地","latitude":33.24922239,"longitude":130.226225,"id":"dff443e9-f74c-4648-a43d-8538cdba837d"},{"name":"八坂神社","prefectureName":"佐賀県","cityName":"武雄市","streetName":"西川登町大字小田志１９６１６番地","latitude":33.1947258,"longitude":130.021511,"id":"3033e8c4-b9c6-4ace-a739-13cb63bfbddb"},{"name":"八坂神社","prefectureName":"佐賀県","cityName":"三養基郡みやき町","streetName":"大字簑原６４２番地","latitude":33.3246734,"longitude":130.4543848,"id":"c65f56cb-5988-4675-ac55-b242d94f61aa"},{"name":"八坂神社","prefectureName":"佐賀県","cityName":"伊万里市","streetName":"大坪町乙１７４３番地","latitude":33.27259046,"longitude":129.89333152,"id":"cf5675d6-e829-4b51-961c-220ab4b50f5f"},{"name":"八坂神社","prefectureName":"佐賀県","cityName":"鳥栖市","streetName":"本町１丁目８６７番地","latitude":33.3781545,"longitude":130.5135021,"id":"ba869305-a6c4-4725-9b47-4961dfd85ac7"},{"name":"八坂神社","prefectureName":"佐賀県","cityName":"三養基郡みやき町","streetName":"大字原古賀７２４３番地","latitude":33.3246734,"longitude":130.4543848,"id":"67b496a4-1343-42a3-b876-af2664bfa5c8"},{"name":"八天神社","prefectureName":"佐賀県","cityName":"鹿島市","streetName":"大字森１３８５番地","latitude":33.12422343,"longitude":130.08579193,"id":"e95f0607-94ca-4321-91d8-8d68371bdab4"},{"name":"八天神社","prefectureName":"佐賀県","cityName":"嬉野市","streetName":"塩田町大字谷所乙７６６番地","latitude":33.10083944,"longitude":130.05664548,"id":"e954686b-f1d4-44b1-a46a-3e7a84e1e467"},{"name":"八天神社","prefectureName":"佐賀県","cityName":"小城市","streetName":"小城町松尾２７１３番地","latitude":33.32175548,"longitude":130.20442346,"id":"0b4d9a79-054e-474f-939c-246c7ec960c2"},{"name":"八天神社","prefectureName":"佐賀県","cityName":"嬉野市","streetName":"嬉野町大字下宿甲１４３６番地","latitude":33.09716322,"longitude":129.98503417,"id":"f138f9f2-8d6c-46d4-bb35-6e0687c20a8c"},{"name":"八幡神社","prefectureName":"佐賀県","cityName":"佐賀市","streetName":"蓮池町大字見島４０４番地２","latitude":33.25165633,"longitude":130.35168024,"id":"3d2ce8cf-f902-4d09-b6fb-2ae6fd600b79"},{"name":"八幡神社","prefectureName":"佐賀県","cityName":"小城市","streetName":"牛津町乙柳６８７番地","latitude":33.26298461,"longitude":130.21154015,"id":"64032642-e5cf-467d-a34c-80db98cc2217"},{"name":"八幡神社","prefectureName":"佐賀県","cityName":"武雄市","streetName":"東川登町大字永野５３８番地","latitude":33.1947258,"longitude":130.021511,"id":"ece6aff5-cf63-47ba-969a-b7b8fabd38af"},{"name":"八幡神社","prefectureName":"佐賀県","cityName":"武雄市","streetName":"北方町大字大崎１７５３番地","latitude":33.22223761,"longitude":130.05387185,"id":"b286bb02-bde4-420d-ae72-7e323aeb5e34"},{"name":"八幡神社","prefectureName":"佐賀県","cityName":"鳥栖市","streetName":"村田町７４９番地","latitude":33.35833007,"longitude":130.48311803,"id":"2717bd5a-7616-47a4-9a87-a258866be60e"},{"name":"八幡神社","prefectureName":"佐賀県","cityName":"三養基郡みやき町","streetName":"大字天建寺１１７０番地","latitude":33.29518416,"longitude":130.44760018,"id":"a37cfec3-0fa2-4ada-803b-eba2f428b068"},{"name":"八幡神社","prefectureName":"佐賀県","cityName":"佐賀市","streetName":"久保泉町大字下和泉２７６６番地","latitude":33.30822277,"longitude":130.32629269,"id":"284f9360-33f5-4ad1-9bba-f9b292d02270"},{"name":"八幡神社","prefectureName":"佐賀県","cityName":"佐賀市","streetName":"川副町大字南里１８０６番地","latitude":33.18761746,"longitude":130.31889075,"id":"f3ba242d-68e2-433c-9059-54d337169422"},{"name":"八幡神社","prefectureName":"佐賀県","cityName":"神埼市","streetName":"神埼町横武４６２番地","latitude":33.30950408,"longitude":130.37388748,"id":"37aab5d1-353d-434e-8785-6e0f6202690f"},{"name":"八幡神社","prefectureName":"佐賀県","cityName":"小城市","streetName":"牛津町下砥川６９５番地","latitude":33.24274234,"longitude":130.20897665,"id":"e3922685-a144-4744-af8d-ccc1427d6839"},{"name":"八幡神社","prefectureName":"佐賀県","cityName":"杵島郡大町町","streetName":"大字大町５６９２番地","latitude":33.2139393,"longitude":130.1160222,"id":"81069bda-b60e-47dc-aa33-7906a37d501d"},{"name":"八幡神社","prefectureName":"佐賀県","cityName":"鳥栖市","streetName":"立石町１９４０番地","latitude":33.36720657,"longitude":130.4632295,"id":"76c1b35d-48b4-49ed-880f-81090bae3e51"},{"name":"八幡神社","prefectureName":"佐賀県","cityName":"三養基郡上峰町","streetName":"大字坊所１０１２番地の２","latitude":33.3194895,"longitude":130.4261092,"id":"48593a3e-4ba4-4d9b-bd3d-39e81208591f"},{"name":"八幡神社","prefectureName":"佐賀県","cityName":"神埼市","streetName":"神埼町横武２９４７番地","latitude":33.30950408,"longitude":130.37388748,"id":"b4b5c583-41f2-410b-a54d-f4c8941998e1"},{"name":"八幡神社","prefectureName":"佐賀県","cityName":"小城市","streetName":"三日月町樋口９７０番地","latitude":33.2736671,"longitude":130.2169329,"id":"1dccdf06-90ea-433f-a559-d93272446d4e"},{"name":"八幡神社","prefectureName":"佐賀県","cityName":"小城市","streetName":"牛津町上砥川１８３２番地","latitude":33.24274234,"longitude":130.20897665,"id":"a9f8f5d2-9a1a-4f76-8324-537dc5a2c871"},{"name":"八幡神社","prefectureName":"佐賀県","cityName":"三養基郡みやき町","streetName":"大字東津１５５５番地","latitude":33.3246734,"longitude":130.4543848,"id":"b95d644c-f21b-4f2f-9ad8-346cbc5a04d3"},{"name":"八幡神社","prefectureName":"佐賀県","cityName":"三養基郡みやき町","streetName":"大字東尾２１６６番地","latitude":33.3246734,"longitude":130.4543848,"id":"17fcec61-318a-480e-8f7d-f6313162498d"},{"name":"八幡神社","prefectureName":"佐賀県","cityName":"唐津市","streetName":"相知町平山下１４７番地","latitude":33.34967765,"longitude":130.01305059,"id":"75575582-13d6-4327-b1b7-20ee7410883b"},{"name":"八幡神社","prefectureName":"佐賀県","cityName":"伊万里市","streetName":"東山代町里３４８番地","latitude":33.28811761,"longitude":129.83506161,"id":"27af1a7a-97a0-4543-966c-2125fac07cd9"},{"name":"八幡神社","prefectureName":"佐賀県","cityName":"唐津市","streetName":"呼子町加部島３０９１番地","latitude":33.5470781,"longitude":129.88000112,"id":"b5b90a2e-7e9d-4670-8816-f64b8a7c8329"},{"name":"八幡神社","prefectureName":"佐賀県","cityName":"佐賀市","streetName":"嘉瀬町大字中原９３番地","latitude":33.24053545,"longitude":130.27255731,"id":"b3a67dc8-53ba-4a7d-b8f9-752d94cc1acb"},{"name":"八幡神社","prefectureName":"佐賀県","cityName":"佐賀市","streetName":"東与賀町大字飯盛１００９番地","latitude":33.20769515,"longitude":130.29087346,"id":"cb17b8fd-a3ad-46e9-84d3-78cddb8bfbb9"},{"name":"八幡神社","prefectureName":"佐賀県","cityName":"佐賀市","streetName":"富士町大字畑瀬６８番地８３","latitude":33.39367083,"longitude":130.2144434,"id":"c85e96e3-99ee-4967-aada-70b85f3e3ec9"},{"name":"八幡神社","prefectureName":"佐賀県","cityName":"三養基郡基山町","streetName":"大字長野５４２番地","latitude":33.40797933,"longitude":130.53597381,"id":"c7a07df4-d7fa-49ca-8f57-b6800d844d85"},{"name":"八幡神社","prefectureName":"佐賀県","cityName":"三養基郡みやき町","streetName":"大字西島１１９８番地","latitude":33.29886653,"longitude":130.43383175,"id":"9475cdc6-e30c-480d-9b96-f4d692db7981"},{"name":"八幡神社","prefectureName":"佐賀県","cityName":"唐津市","streetName":"浜玉町東山田３１８４番地","latitude":33.41782191,"longitude":130.04634739,"id":"0b1175b3-22ed-485f-815e-d73627922a67"},{"name":"八幡神社","prefectureName":"佐賀県","cityName":"唐津市","streetName":"鎮西町丸田７３９６番地、７３９７番地","latitude":33.5412457,"longitude":129.90325462,"id":"53e57e0e-a999-4efb-88c0-e18f9de4b337"},{"name":"八幡神社","prefectureName":"佐賀県","cityName":"唐津市","streetName":"呼子町呼子２０６８番地","latitude":33.54554232,"longitude":129.89326937,"id":"e8b3b4c1-3be6-44b5-8070-a840a936fe10"},{"name":"八幡神社","prefectureName":"佐賀県","cityName":"鳥栖市","streetName":"養父町４５９番地１","latitude":33.38240384,"longitude":130.49649424,"id":"d5a1ca3e-fc4a-4684-bd22-99eb132decc5"},{"name":"八幡神社","prefectureName":"佐賀県","cityName":"東松浦郡玄海町","streetName":"大字牟形字牟形１３００番地","latitude":33.4721971,"longitude":129.8750862,"id":"74f7c4d3-c0c9-454b-92af-612dcb33338a"},{"name":"八幡神社","prefectureName":"佐賀県","cityName":"多久市","streetName":"東多久町大字別府５３１６番地","latitude":33.284471,"longitude":130.14327953,"id":"2346d2cb-f84b-4268-a4af-611bdeafeb81"},{"name":"八幡神社","prefectureName":"佐賀県","cityName":"鳥栖市","streetName":"山浦町２１０４番地１","latitude":33.37965081,"longitude":130.48195326,"id":"2773c96d-09cd-43e5-84be-0e1b0e98963e"},{"name":"八幡神社","prefectureName":"佐賀県","cityName":"多久市","streetName":"多久町１８０２番地","latitude":33.25813442,"longitude":130.09093543,"id":"9d54855f-eab0-4d0c-87f5-0a7c79908760"},{"name":"八幡神社","prefectureName":"佐賀県","cityName":"佐賀市","streetName":"大和町大字久池井３２９６番地","latitude":33.31071333,"longitude":130.28135746,"id":"1cb38fbc-2842-4acf-9981-c52daa6579ff"},{"name":"八幡神社","prefectureName":"佐賀県","cityName":"鳥栖市","streetName":"三島町１７２８番地","latitude":33.33180122,"longitude":130.48052942,"id":"51752043-6846-4808-a5d6-0ca62ba93b7f"},{"name":"八幡神社","prefectureName":"佐賀県","cityName":"唐津市","streetName":"肥前町星賀乙１４３３番地","latitude":33.44165751,"longitude":129.81626964,"id":"4783eb7c-a04a-464c-97a4-6605f4dadb88"},{"name":"八幡神社","prefectureName":"佐賀県","cityName":"東松浦郡玄海町","streetName":"大字諸浦字西ノ谷１番地","latitude":33.4721971,"longitude":129.8750862,"id":"f5ecc937-072c-42f1-965e-a096c1d13945"},{"name":"八野尾神社","prefectureName":"佐賀県","cityName":"唐津市","streetName":"相知町牟田部１７０３番地","latitude":33.34967765,"longitude":130.01305059,"id":"5229b4b4-5a3a-4f0f-bdf4-650c49603988"},{"name":"八阪神社","prefectureName":"佐賀県","cityName":"西松浦郡有田町","streetName":"中の原１丁目５番１号","latitude":33.2105603,"longitude":129.8491143,"id":"9e50765b-cbf5-4c36-814b-168aa0e925e1"},{"name":"八龍神社","prefectureName":"佐賀県","cityName":"神埼郡吉野ヶ里町","streetName":"箱川８１０番地","latitude":33.2965022,"longitude":130.40086155,"id":"d4a07556-046d-436e-b1f1-45ac4a04406c"},{"name":"八龍神社","prefectureName":"佐賀県","cityName":"唐津市","streetName":"畑島５５２５番地","latitude":33.39288761,"longitude":129.95212071,"id":"78d0f4fe-c02b-45d6-880b-384309749c5f"},{"name":"八龍神社","prefectureName":"佐賀県","cityName":"神埼郡吉野ヶ里町","streetName":"箱川２３９３番地","latitude":33.30607351,"longitude":130.39798622,"id":"e7c0c01e-f8f0-4f61-a101-c1c1aa15f300"},{"name":"八龍神社","prefectureName":"佐賀県","cityName":"佐賀市","streetName":"三瀬村三瀬２１８３番地","latitude":33.43765133,"longitude":130.2912717,"id":"bb1f04c0-9b6e-43a9-a4ac-637a39d06c09"},{"name":"六角神社","prefectureName":"佐賀県","cityName":"杵島郡白石町","streetName":"大字東郷２１８５番地","latitude":33.19187808,"longitude":130.13599643,"id":"b8513ab1-81e5-4b11-84e5-0f33e4d1af6f"},{"name":"冠者神社","prefectureName":"佐賀県","cityName":"神埼市","streetName":"千代田町崎村１２３番地１","latitude":33.25991987,"longitude":130.38767417,"id":"1d3ba9c2-15ee-4744-ba16-12c7621916ff"},{"name":"冲神社","prefectureName":"佐賀県","cityName":"佐賀市","streetName":"東与賀町大字飯盛２３１７番地","latitude":33.20188414,"longitude":130.27298929,"id":"08f4e051-642d-4623-9204-40686579b80f"},{"name":"出雲神社","prefectureName":"佐賀県","cityName":"佐賀市","streetName":"蓮池町大字小松３２１番地１","latitude":33.2634815,"longitude":130.3008572,"id":"cec60984-dcfd-4a23-be2b-4059f009fc9b"},{"name":"加志川神社","prefectureName":"佐賀県","cityName":"唐津市","streetName":"相知町湯屋８５４番地","latitude":33.34967765,"longitude":130.01305059,"id":"bbcbeedd-78e9-4232-8fa0-13f3a6270efc"},{"name":"加茂神社","prefectureName":"佐賀県","cityName":"唐津市","streetName":"七山滝川１５５８番地","latitude":33.43970602,"longitude":130.11600561,"id":"e6b715d8-20d8-47e9-846a-5faa5c83fac1"},{"name":"勝宿神社","prefectureName":"佐賀県","cityName":"佐賀市","streetName":"久保泉町大字川久保４１９９番地","latitude":33.33627562,"longitude":130.3271241,"id":"cbfe7162-a5c9-4565-8689-b39170a90764"},{"name":"北村神社","prefectureName":"佐賀県","cityName":"佐賀市","streetName":"大和町大字尼寺３８１７番地","latitude":33.31071333,"longitude":130.28135746,"id":"03e32308-1c89-4f91-893b-272d2e3311cb"},{"name":"北面天満神社","prefectureName":"佐賀県","cityName":"佐賀市","streetName":"六座町１番地","latitude":33.25084049,"longitude":130.28740592,"id":"1a1cf9e5-25fc-4144-b9db-42200c0fb9d8"},{"name":"十二社神社","prefectureName":"佐賀県","cityName":"唐津市","streetName":"肥前町犬頭１６４９番地","latitude":33.44165751,"longitude":129.81626964,"id":"26663dcb-4b74-48be-8142-c3c95ececdf7"},{"name":"十二社神社","prefectureName":"佐賀県","cityName":"唐津市","streetName":"枝去木２５３１番地","latitude":33.49145135,"longitude":129.90446151,"id":"f387e217-5ab1-486c-8447-e89288a2eea5"},{"name":"十二社神社","prefectureName":"佐賀県","cityName":"唐津市","streetName":"枝去木１９７０番地","latitude":33.48545493,"longitude":129.91218075,"id":"0ff039d4-e530-4dec-9dd6-d5247dda0061"},{"name":"十二社神社","prefectureName":"佐賀県","cityName":"唐津市","streetName":"枝去木１１５２番地","latitude":33.47837523,"longitude":129.91144775,"id":"3da6dda2-5ab8-41c5-8fb6-a4ffb0f644af"},{"name":"十二神社","prefectureName":"佐賀県","cityName":"唐津市","streetName":"鎮西町菖蒲２８７５番地","latitude":33.50794414,"longitude":129.92055418,"id":"62922187-5c1d-485b-a36a-1f7097736731"},{"name":"千室神社","prefectureName":"佐賀県","cityName":"嬉野市","streetName":"嬉野町大字不動山乙１６１６番地","latitude":33.09889507,"longitude":129.94562297,"id":"bd2062fc-f7b3-4193-984b-947f401e231c"},{"name":"千束神社","prefectureName":"佐賀県","cityName":"唐津市","streetName":"相知町千束２１８５番地","latitude":33.35073926,"longitude":130.03181101,"id":"7da60b9f-5278-4979-aa44-ecf5830f68f9"},{"name":"印役神社","prefectureName":"佐賀県","cityName":"杵島郡白石町","streetName":"大字戸ケ里１２１４番地","latitude":33.1810349,"longitude":130.1434991,"id":"3d351a97-9634-4776-8be3-2e0a8c1e8263"},{"name":"印鑰神社","prefectureName":"佐賀県","cityName":"佐賀市","streetName":"大和町大字尼寺３０８１番地","latitude":33.30013625,"longitude":130.27805252,"id":"c087fd47-81c6-4106-8f94-57275785708b"},{"name":"印鑰神社","prefectureName":"佐賀県","cityName":"佐賀市","streetName":"大和町大字尼寺１５２８番地","latitude":33.31253263,"longitude":130.28069355,"id":"f199cb82-19d1-4b54-acb0-e75256fc9e07"},{"name":"厄神社","prefectureName":"佐賀県","cityName":"伊万里市","streetName":"東山代町里３４８番地","latitude":33.28811761,"longitude":129.83506161,"id":"bb5419c9-6d12-48d9-b787-f59c600c6082"},{"name":"厳島神社","prefectureName":"佐賀県","cityName":"神埼郡吉野ヶ里町","streetName":"吉田２３５番地","latitude":33.32613017,"longitude":130.39695208,"id":"49cdb298-0dec-422a-8d98-02161a689a7c"},{"name":"厳島神社","prefectureName":"佐賀県","cityName":"神埼郡吉野ヶ里町","streetName":"吉田２３０５番地","latitude":33.33780736,"longitude":130.41166464,"id":"fd9a1cff-4bfd-43bc-9468-af91f3742ee9"},{"name":"厳島神社","prefectureName":"佐賀県","cityName":"東松浦郡玄海町","streetName":"大字仮屋７５２番地","latitude":33.4721971,"longitude":129.8750862,"id":"7a2f0325-99bc-4734-a7a7-d84b1ea2dd56"},{"name":"厳島神社","prefectureName":"佐賀県","cityName":"唐津市","streetName":"柏崎１２７４番地","latitude":33.4111628,"longitude":130.00788902,"id":"193548ba-711f-475f-9770-ba9de3b83008"},{"name":"厳島神社","prefectureName":"佐賀県","cityName":"唐津市","streetName":"肥前町中浦１６８８番地","latitude":33.44165751,"longitude":129.81626964,"id":"5d2fc2b4-d15e-41c1-8657-9d022a307fdc"},{"name":"古里神社","prefectureName":"佐賀県","cityName":"唐津市","streetName":"鎮西町名護屋８３番地","latitude":33.53522095,"longitude":129.87730974,"id":"f0a2e02c-cfb8-42d0-a9d4-1cd058e694c5"},{"name":"吉浦神社","prefectureName":"佐賀県","cityName":"嬉野市","streetName":"塩田町大字五町田甲４００６番地","latitude":33.14720373,"longitude":130.06531034,"id":"752c4d07-1b7d-4aba-9f39-3be1d3cb3d52"},{"name":"味島神社","prefectureName":"佐賀県","cityName":"嬉野市","streetName":"塩田町大字谷所甲１７０６番地","latitude":33.10285884,"longitude":130.07050784,"id":"8e5e573c-4248-4f7e-9d32-d1497e697c58"},{"name":"呼子三神社","prefectureName":"佐賀県","cityName":"唐津市","streetName":"呼子町呼子３１４３番地","latitude":33.54150944,"longitude":129.89497481,"id":"f34ed5ee-6fac-429b-beec-d117dccdadca"},{"name":"和田津美神社","prefectureName":"佐賀県","cityName":"唐津市","streetName":"肥前町田野甲２６５５番地","latitude":33.44165751,"longitude":129.81626964,"id":"1d8e4011-6317-4cb3-a9bf-af48fe42af1f"},{"name":"唐川神社","prefectureName":"佐賀県","cityName":"佐賀市","streetName":"三瀬村藤原２８４１番地","latitude":33.2634815,"longitude":130.3008572,"id":"5867395a-2eaf-40ef-8d5c-0411b1398402"},{"name":"唐津神社","prefectureName":"佐賀県","cityName":"唐津市","streetName":"南城内３番１３号","latitude":33.45124589,"longitude":129.96955597,"id":"13142422-c30d-4db6-8f91-e0b207f90dc2"},{"name":"嚴島神社","prefectureName":"佐賀県","cityName":"佐賀市","streetName":"諸富町大字徳富５５３番地","latitude":33.21435378,"longitude":130.35452871,"id":"6ca0f4c6-33ad-4681-9153-7c7bbe0f7787"},{"name":"嚴島神社","prefectureName":"佐賀県","cityName":"杵島郡白石町","streetName":"大字湯崎２４６２番地","latitude":33.17131864,"longitude":130.10120934,"id":"573ead8f-ccb6-40c0-8357-c098112870c5"},{"name":"嚴島神社","prefectureName":"佐賀県","cityName":"杵島郡白石町","streetName":"大字田野上１５１８番地","latitude":33.1810349,"longitude":130.1434991,"id":"ef4b3959-b805-4da5-b00c-f185a595dee0"},{"name":"嚴島神社","prefectureName":"佐賀県","cityName":"佐賀市","streetName":"川副町大字早津江２０１７番地","latitude":33.18761746,"longitude":130.31889075,"id":"8b08eb1b-916c-425d-98bf-c0f5d79a78fa"},{"name":"嚴島神社","prefectureName":"佐賀県","cityName":"伊万里市","streetName":"東山代町里３４８番地","latitude":33.28811761,"longitude":129.83506161,"id":"0450a854-d104-4bf0-8056-821187cd7af2"},{"name":"嚴島神社","prefectureName":"佐賀県","cityName":"伊万里市","streetName":"脇田町３７３番地イ","latitude":33.2645853,"longitude":129.8802692,"id":"25ae1451-b076-4b13-9372-136e93134614"},{"name":"嚴島神社","prefectureName":"佐賀県","cityName":"唐津市","streetName":"呼子町殿ノ浦２０４０番地","latitude":33.53731546,"longitude":129.89469988,"id":"11368804-8e9a-479a-9f6a-e7b8c4d458dc"},{"name":"嚴島神社","prefectureName":"佐賀県","cityName":"杵島郡白石町","streetName":"大字辺田２５７７番地","latitude":33.1810349,"longitude":130.1434991,"id":"00052ae2-37a8-4c3d-96a2-53e3918d03c5"},{"name":"嚴島神社","prefectureName":"佐賀県","cityName":"杵島郡白石町","streetName":"大字戸ケ里３９４番地","latitude":33.1810349,"longitude":130.1434991,"id":"bec5178a-24c5-467a-89a9-0f2e83dd7e6e"},{"name":"嚴島神社","prefectureName":"佐賀県","cityName":"三養基郡みやき町","streetName":"大字原古賀４７１３番地","latitude":33.3246734,"longitude":130.4543848,"id":"f2909c57-b103-4ddb-b507-9c52bbc15780"},{"name":"嚴島神社","prefectureName":"佐賀県","cityName":"杵島郡白石町","streetName":"大字戸ケ里２２１４番地","latitude":33.1810349,"longitude":130.1434991,"id":"711556ab-1693-4f51-ae94-dcaea4b6c386"},{"name":"嚴島神社","prefectureName":"佐賀県","cityName":"杵島郡白石町","streetName":"大字田野上３８８番地","latitude":33.1810349,"longitude":130.1434991,"id":"9b74ca74-bd74-46db-99c5-7bdab40d2669"},{"name":"嚴島神社","prefectureName":"佐賀県","cityName":"杵島郡大町町","streetName":"大字大町５７２６番地","latitude":33.2139393,"longitude":130.1160222,"id":"ee31e120-b09a-434d-99fd-4512cc51ad6b"},{"name":"嚴島神社","prefectureName":"佐賀県","cityName":"神埼郡吉野ヶ里町","streetName":"大曲２６９７番地","latitude":33.3211889,"longitude":130.3988022,"id":"6b38505a-dc99-4dd8-8717-97827a26e5be"},{"name":"四阿屋神社","prefectureName":"佐賀県","cityName":"鳥栖市","streetName":"牛原町１３８５番地","latitude":33.39191355,"longitude":130.47934162,"id":"0786ab06-42a4-4001-8724-462e0d5fa63f"},{"name":"四面神社","prefectureName":"佐賀県","cityName":"佐賀市","streetName":"嘉瀬町大字中原２０４４番地","latitude":33.24716479,"longitude":130.2572889,"id":"7c8c67b0-e271-4f62-b960-f5742efb397e"},{"name":"四面神社","prefectureName":"佐賀県","cityName":"神埼市","streetName":"神埼町竹２０４５番地","latitude":33.32336368,"longitude":130.36125495,"id":"0277b78f-f2ee-4e6d-9b53-17b1db31ad46"},{"name":"国分神社","prefectureName":"佐賀県","cityName":"佐賀市","streetName":"大和町大字尼寺９１３番地","latitude":33.31071333,"longitude":130.28135746,"id":"869c1c83-2054-4d6c-8bcf-c6cdf29f8103"},{"name":"土器崎神社","prefectureName":"佐賀県","cityName":"唐津市","streetName":"屋形石３６２８番地","latitude":33.4501626,"longitude":129.9679895,"id":"ce41b68f-a62a-46b2-ba0d-9913234773bc"},{"name":"圡器山八天神社","prefectureName":"佐賀県","cityName":"神埼市","streetName":"神埼町城原４２９７番地","latitude":33.30950408,"longitude":130.37388748,"id":"c371e80a-4513-4694-975a-af61db5c39de"},{"name":"地頭大明神社","prefectureName":"佐賀県","cityName":"唐津市","streetName":"呼子町小友１０２６番地","latitude":33.54437596,"longitude":129.90704589,"id":"13ac6455-4089-42f0-8024-09dfe5be772a"},{"name":"坂田神社","prefectureName":"佐賀県","cityName":"杵島郡白石町","streetName":"大字坂田３４２９番地","latitude":33.14553245,"longitude":130.10300116,"id":"30d0fb86-9c90-42a8-990a-a3139b64c37d"},{"name":"城崎神社","prefectureName":"佐賀県","cityName":"佐賀市","streetName":"大和町大字尼寺４５６番地","latitude":33.30952745,"longitude":130.2890569,"id":"96e79864-8e02-45f9-903b-701b18e16c81"},{"name":"堀江神社","prefectureName":"佐賀県","cityName":"小城市","streetName":"三日月町堀江２３０番地","latitude":33.26527402,"longitude":130.23192085,"id":"07c636e0-4869-49cb-9d15-5dbf86f555aa"},{"name":"堤雄神社","prefectureName":"佐賀県","cityName":"杵島郡江北町","streetName":"大字佐留志２６３０番地","latitude":33.22299743,"longitude":130.16694337,"id":"14ab4aca-2a07-40b6-9187-905542c9652c"},{"name":"塩屋神社","prefectureName":"佐賀県","cityName":"唐津市","streetName":"高島８８１番地２","latitude":33.47594315,"longitude":129.98788097,"id":"2b179dc7-bf40-43c5-9834-775607f9ee65"},{"name":"塩𥧄神社","prefectureName":"佐賀県","cityName":"伊万里市","streetName":"瀬戸町２９１１番地１","latitude":33.30637134,"longitude":129.8497187,"id":"cf53cb22-d38d-44b6-a872-6e90b1267e9c"},{"name":"多久神社","prefectureName":"佐賀県","cityName":"多久市","streetName":"多久町１９７０番地","latitude":33.25753725,"longitude":130.08990219,"id":"6eceb6a6-12f2-4970-8d27-a47c221ebade"},{"name":"大和多津美神社","prefectureName":"佐賀県","cityName":"唐津市","streetName":"相知町牟田部８６４番地","latitude":33.34967765,"longitude":130.01305059,"id":"857f9cc4-f036-49e6-93e5-cd25d96e0c43"},{"name":"大堂神社","prefectureName":"佐賀県","cityName":"佐賀市","streetName":"諸富町大字大堂６９５番地","latitude":33.23668516,"longitude":130.36565443,"id":"50ea16a9-1fe2-4a00-9ca2-52075e02a5ef"},{"name":"大山祇神社","prefectureName":"佐賀県","cityName":"鳥栖市","streetName":"河内町２１８０番地","latitude":33.41878197,"longitude":130.47187633,"id":"91189720-06cd-40c6-80ec-eccb36453aa8"},{"name":"大山祇神社","prefectureName":"佐賀県","cityName":"唐津市","streetName":"梨川内字坂４０３番地","latitude":33.4501626,"longitude":129.9679895,"id":"7355d121-cc7c-441f-868b-926aa4899af4"},{"name":"大山祇神社","prefectureName":"佐賀県","cityName":"東松浦郡玄海町","streetName":"大字藤平字袖切川１０３６番地","latitude":33.4721971,"longitude":129.8750862,"id":"8d9d006e-3811-4f9e-9862-42f3649375cd"},{"name":"大山祇神社","prefectureName":"佐賀県","cityName":"東松浦郡玄海町","streetName":"大字長倉１３７１番地","latitude":33.46818918,"longitude":129.88011651,"id":"39a456a9-e2f0-4ee0-8b8a-da9f98b20596"},{"name":"大山祇神社","prefectureName":"佐賀県","cityName":"唐津市","streetName":"枝去木２３０番地","latitude":33.46830969,"longitude":129.91199236,"id":"fd07c25c-05f9-46e4-9639-33eb00e4c86c"},{"name":"大山祇神社","prefectureName":"佐賀県","cityName":"唐津市","streetName":"菅牟田２８８番地、２８９番地","latitude":33.4501626,"longitude":129.9679895,"id":"b680590c-da89-46c1-8390-8339f5ba5958"},{"name":"大山祇神社","prefectureName":"佐賀県","cityName":"唐津市","streetName":"北波多成淵２２１２番地","latitude":33.3745815,"longitude":129.94170822,"id":"f148f530-34f3-44a5-b299-d788a2d9ebc3"},{"name":"大山祇神社","prefectureName":"佐賀県","cityName":"東松浦郡玄海町","streetName":"大字轟木字上ノ坂６２１番地","latitude":33.4721971,"longitude":129.8750862,"id":"c3581908-2a81-4b5e-815a-ce9672c65764"},{"name":"大山祇神社","prefectureName":"佐賀県","cityName":"唐津市","streetName":"梨川内字下モ山５７８番地","latitude":33.4501626,"longitude":129.9679895,"id":"1529f751-6633-4a5a-b922-afafee48e0ef"},{"name":"大山祇神社","prefectureName":"佐賀県","cityName":"唐津市","streetName":"大良字西平山５００番地","latitude":33.4501626,"longitude":129.9679895,"id":"e6edb7e3-171c-486c-9713-183c8b2503ce"},{"name":"大山祇神社","prefectureName":"佐賀県","cityName":"鳥栖市","streetName":"河内町貝方２６７７番地","latitude":33.41858194,"longitude":130.47107359,"id":"fecc69e8-e651-4639-90be-fa03c3b65fc2"},{"name":"大山祗神社","prefectureName":"佐賀県","cityName":"伊万里市","streetName":"南波多町重橋１０９８番地","latitude":33.2645853,"longitude":129.8802692,"id":"8713fbb1-2641-4980-9b20-98025b37351c"},{"name":"大山祗神社","prefectureName":"佐賀県","cityName":"唐津市","streetName":"大良字山下１０８７番地の７","latitude":33.4501626,"longitude":129.9679895,"id":"989319bd-7fe7-4084-90ac-e573f41c16cf"},{"name":"大山祗神社","prefectureName":"佐賀県","cityName":"唐津市","streetName":"大良字山下１１７８番地","latitude":33.4501626,"longitude":129.9679895,"id":"bb9482d5-fbe1-4dd8-98ab-3297acb6952e"},{"name":"大山祗神社","prefectureName":"佐賀県","cityName":"唐津市","streetName":"後川内字後田２２４７番地","latitude":33.4501626,"longitude":129.9679895,"id":"17a7eec1-47f3-47ef-bc04-8b68a8558053"},{"name":"大山祗神社","prefectureName":"佐賀県","cityName":"東松浦郡玄海町","streetName":"大字湯野尾字高尾山５８１番地","latitude":33.4721971,"longitude":129.8750862,"id":"53e07043-90db-4014-9d5b-c124e1710c0f"},{"name":"大山祗神社","prefectureName":"佐賀県","cityName":"伊万里市","streetName":"南波多町府招１０９０番地","latitude":33.2645853,"longitude":129.8802692,"id":"324e5e6e-9654-4358-8c48-2ec429dacdd1"},{"name":"大山祗神社","prefectureName":"佐賀県","cityName":"唐津市","streetName":"相知町平山上甲１１６８番地","latitude":33.34967765,"longitude":130.01305059,"id":"4fb67f14-e536-4b9b-9eea-4797170501f8"},{"name":"大山祗神社","prefectureName":"佐賀県","cityName":"伊万里市","streetName":"南波多町高瀬１３２７番地","latitude":33.32472549,"longitude":129.92779417,"id":"aabf3dfb-5979-49f4-931a-069351899b4f"},{"name":"大山祗神社","prefectureName":"佐賀県","cityName":"唐津市","streetName":"大良字西平山４６６番地","latitude":33.4501626,"longitude":129.9679895,"id":"13a9621a-bba8-4a5f-b90a-7e6ef4556368"},{"name":"大山祗神社","prefectureName":"佐賀県","cityName":"唐津市","streetName":"肥前町仁田野尾字糯田１２０２番地","latitude":33.44165751,"longitude":129.81626964,"id":"adbdf1f6-fb03-481f-ac2b-d7aacb341cf3"},{"name":"大山祗神社","prefectureName":"佐賀県","cityName":"唐津市","streetName":"相知町牟田部１５９８番地","latitude":33.34967765,"longitude":130.01305059,"id":"efbcfdf6-8d2e-48bb-8d64-c315dc7aa40f"},{"name":"大木神社","prefectureName":"佐賀県","cityName":"西松浦郡有田町","streetName":"桑木原乙１３１９番地","latitude":33.21857334,"longitude":129.84768923,"id":"f86b6f83-a145-4450-8d8b-718ef8c6dcd2"},{"name":"大村神社","prefectureName":"佐賀県","cityName":"唐津市","streetName":"浜玉町五反田１２０番地","latitude":33.44956235,"longitude":130.04105634,"id":"2d9a943e-c2ab-4ad1-ae6b-667b40235abc"},{"name":"大歳神社","prefectureName":"佐賀県","cityName":"東松浦郡玄海町","streetName":"大字浜野浦２７９番地","latitude":33.49101673,"longitude":129.84617975,"id":"1963a030-418d-4ef8-8595-a1934252c3c6"},{"name":"大浦神社","prefectureName":"佐賀県","cityName":"藤津郡太良町","streetName":"大字大浦丁４２８番地","latitude":32.97575615,"longitude":130.20544492,"id":"86961c50-70ed-4260-a90f-f5e6688028e2"},{"name":"大石大神社","prefectureName":"佐賀県","cityName":"唐津市","streetName":"元石町３２４番地イ、３２４番地ロ","latitude":33.44279993,"longitude":129.97742209,"id":"62d7ff51-62b8-4e6f-b848-205e004b769b"},{"name":"大野神社","prefectureName":"佐賀県","cityName":"伊万里市","streetName":"南波多町原屋敷１１１６番地","latitude":33.3232528,"longitude":129.91375656,"id":"1db7c7ec-4652-46dc-af16-4f03fed18a27"},{"name":"大鳥神社","prefectureName":"佐賀県","cityName":"東松浦郡玄海町","streetName":"大字牟形２５０８番地２","latitude":33.44299418,"longitude":129.88092223,"id":"1129f871-3d38-4566-85aa-c944352f4658"},{"name":"天子神社","prefectureName":"佐賀県","cityName":"鹿島市","streetName":"大字音成甲２０３６番地","latitude":33.1037232,"longitude":130.0987689,"id":"c2cd2034-ecb9-405f-880d-df39f8bf1fcb"},{"name":"天子神社","prefectureName":"佐賀県","cityName":"小城市","streetName":"牛津町乙柳１０８９番地","latitude":33.24274234,"longitude":130.20897665,"id":"3efdc91c-d953-4cd5-9bae-62481c7a5faf"},{"name":"天山神社","prefectureName":"佐賀県","cityName":"小城市","streetName":"小城町畑田５８２３番地９","latitude":33.29321993,"longitude":130.19898271,"id":"27b2da05-9615-4116-b25c-8d95a3238197"},{"name":"天山神社","prefectureName":"佐賀県","cityName":"小城市","streetName":"小城町岩蔵２３４８番地","latitude":33.31068042,"longitude":130.19184146,"id":"52d57b46-064c-42ec-bbed-c4abcc13fe0b"},{"name":"天山神社","prefectureName":"佐賀県","cityName":"唐津市","streetName":"厳木町広瀬４０番地","latitude":33.32099592,"longitude":130.06489445,"id":"4f0cd233-1b7a-48b5-81d9-4aeafa33552b"},{"name":"天氏神社","prefectureName":"佐賀県","cityName":"鹿島市","streetName":"大字音成丙１６３１番地","latitude":33.1037232,"longitude":130.0987689,"id":"085f5431-9b67-4f41-be5e-f57243ee4094"},{"name":"天満神社","prefectureName":"佐賀県","cityName":"佐賀市","streetName":"兵庫町大字若宮１１２８番地","latitude":33.28961116,"longitude":130.33451178,"id":"eaa68590-5cdb-472c-8acc-808cfd7b3a06"},{"name":"天満神社","prefectureName":"佐賀県","cityName":"佐賀市","streetName":"金立町大字薬師丸２８番地","latitude":33.29534925,"longitude":130.33063719,"id":"c9cd0afe-c944-4f8a-96d3-a194698f641e"},{"name":"天満神社","prefectureName":"佐賀県","cityName":"佐賀市","streetName":"川副町大字南里２１６番地","latitude":33.18761746,"longitude":130.31889075,"id":"1f6ed21a-1e43-4ac8-9256-550e14e4a4ef"},{"name":"天満神社","prefectureName":"佐賀県","cityName":"神埼市","streetName":"千代田町姉１５８３番地","latitude":33.3107511,"longitude":130.3730542,"id":"c5a05d93-fd4c-4087-8724-e00f1fc9680c"},{"name":"天満神社","prefectureName":"佐賀県","cityName":"小城市","streetName":"小城町畑田３２３４番地","latitude":33.29321993,"longitude":130.19898271,"id":"130e962a-1e3b-4e3e-aa00-b0971d93067a"},{"name":"天満神社","prefectureName":"佐賀県","cityName":"小城市","streetName":"小城町船田６７６番地","latitude":33.29321993,"longitude":130.19898271,"id":"2177b377-ff5c-4fe0-8697-b4cc605a977d"},{"name":"天満神社","prefectureName":"佐賀県","cityName":"小城市","streetName":"三日月町樋口９６２番地","latitude":33.2736671,"longitude":130.2169329,"id":"1da427d4-8021-43fb-beca-74903b39b934"},{"name":"天満神社","prefectureName":"佐賀県","cityName":"小城市","streetName":"牛津町上砥川２０７２番地","latitude":33.24274234,"longitude":130.20897665,"id":"2877d158-cf9f-4e16-9644-03868ce290c0"},{"name":"天満神社","prefectureName":"佐賀県","cityName":"小城市","streetName":"牛津町牛津２６０番地４","latitude":33.24360056,"longitude":130.2059685,"id":"86e4473a-fe25-4d90-aabf-f72e22a939bd"},{"name":"天満神社","prefectureName":"佐賀県","cityName":"小城市","streetName":"芦刈町道免２５４番地","latitude":33.21484856,"longitude":130.20798236,"id":"6581ab33-b32f-4c17-bcb6-c0522df94c60"},{"name":"天満神社","prefectureName":"佐賀県","cityName":"藤津郡太良町","streetName":"大字多良１５４３番地","latitude":33.0273125,"longitude":130.17815915,"id":"c70dfae5-abdf-4f5c-b5f3-f9482cc20cba"},{"name":"天満神社","prefectureName":"佐賀県","cityName":"鳥栖市","streetName":"真木町２１１９番地","latitude":33.36425817,"longitude":130.50992793,"id":"48adb5a9-d00f-4c51-b099-b501d1782b07"},{"name":"天満神社","prefectureName":"佐賀県","cityName":"鳥栖市","streetName":"原町８８７番地","latitude":33.38423727,"longitude":130.53046146,"id":"f9fa2d0e-6d3e-405c-bcdc-71e7dee79aca"},{"name":"天満神社","prefectureName":"佐賀県","cityName":"唐津市","streetName":"浦６９４８番地","latitude":33.48899927,"longitude":129.94042042,"id":"217db759-a66c-4bdf-967f-52c9c61d6bcb"},{"name":"天満神社","prefectureName":"佐賀県","cityName":"唐津市","streetName":"相知町久保２５７番地","latitude":33.35555987,"longitude":130.00041781,"id":"415dd45e-3d44-4b53-9a1e-c395490d8466"},{"name":"天満神社","prefectureName":"佐賀県","cityName":"唐津市","streetName":"北波多徳須恵３８２番地","latitude":33.37678418,"longitude":129.95243779,"id":"09f3a636-f402-43f7-a628-2f5102348746"},{"name":"天満神社","prefectureName":"佐賀県","cityName":"佐賀市","streetName":"金立町大字薬師丸９１８番地","latitude":33.30129276,"longitude":130.32269622,"id":"2a48c9e1-4964-4580-99a1-ab8ec4159bad"},{"name":"天満神社","prefectureName":"佐賀県","cityName":"佐賀市","streetName":"諸富町大字諸富津３７４番地","latitude":33.2241723,"longitude":130.36405549,"id":"f473b226-e1ee-4bd9-852b-19d8b14b772e"},{"name":"天満神社","prefectureName":"佐賀県","cityName":"佐賀市","streetName":"川副町大字南里１３１５番地","latitude":33.18761746,"longitude":130.31889075,"id":"3b2b385c-7259-4d4d-a2bf-c2c9511fa0b9"},{"name":"天満神社","prefectureName":"佐賀県","cityName":"神埼市","streetName":"神埼町横武１５３７番地","latitude":33.30950408,"longitude":130.37388748,"id":"76a20c7e-b8fc-4245-92dc-a8b974b6f23c"},{"name":"天満神社","prefectureName":"佐賀県","cityName":"神埼市","streetName":"千代田町姉１１０１番地","latitude":33.3107511,"longitude":130.3730542,"id":"fe7f9831-be91-42e4-a025-cce2a91556c2"},{"name":"天満神社","prefectureName":"佐賀県","cityName":"小城市","streetName":"小城町畑田８６９番地","latitude":33.28344251,"longitude":130.19448923,"id":"afaeaa92-3224-4069-8920-83fc486fbe07"},{"name":"天満神社","prefectureName":"佐賀県","cityName":"小城市","streetName":"小城町晴気２８４８番地","latitude":33.31179085,"longitude":130.16771866,"id":"ec61ece5-ad2e-4fd4-836a-6e6d2ca82b0c"},{"name":"天満神社","prefectureName":"佐賀県","cityName":"小城市","streetName":"三日月町織島６２０番地","latitude":33.30697687,"longitude":130.22700266,"id":"e76fed5b-bd8e-46c2-872e-ac9bbcac7059"},{"name":"天満神社","prefectureName":"佐賀県","cityName":"小城市","streetName":"三日月町樋口６５２番地","latitude":33.2736671,"longitude":130.2169329,"id":"038a5759-dd63-44a1-a3f0-0ac7be2489b6"},{"name":"天満神社","prefectureName":"佐賀県","cityName":"小城市","streetName":"牛津町柿樋瀬６００番地","latitude":33.25703239,"longitude":130.20816278,"id":"fe44f457-9892-4f00-a6bc-04cad90b62c8"},{"name":"天満神社","prefectureName":"佐賀県","cityName":"小城市","streetName":"芦刈町芦溝５７１番地","latitude":33.24108422,"longitude":130.21589554,"id":"d8222ef2-8bc7-4ec6-8d95-d814a46ab703"},{"name":"天満神社","prefectureName":"佐賀県","cityName":"武雄市","streetName":"武雄町大字武雄７８１６番地７","latitude":33.1947258,"longitude":130.021511,"id":"02696380-3ee5-4d70-8d03-04d584c96847"},{"name":"天満神社","prefectureName":"佐賀県","cityName":"武雄市","streetName":"朝日町大字甘久２２９４番地","latitude":33.21064399,"longitude":130.04344783,"id":"e1534193-1f7d-4202-ba45-b921aa34c7d5"},{"name":"天満神社","prefectureName":"佐賀県","cityName":"藤津郡太良町","streetName":"大字多良４３１７番地","latitude":33.03881981,"longitude":130.16720395,"id":"7618de66-2598-4b48-900b-52325275f511"},{"name":"天満神社","prefectureName":"佐賀県","cityName":"杵島郡白石町","streetName":"大字深浦５５４３番地","latitude":33.13657813,"longitude":130.1149532,"id":"86fe3bac-275a-4d64-bba5-03c5d0055154"},{"name":"天満神社","prefectureName":"佐賀県","cityName":"伊万里市","streetName":"東山代町里３４８番地","latitude":33.28811761,"longitude":129.83506161,"id":"4a6ea9e5-a26e-496a-a756-c35675070a80"},{"name":"天満神社","prefectureName":"佐賀県","cityName":"伊万里市","streetName":"南波多町府招１２３５番地","latitude":33.2645853,"longitude":129.8802692,"id":"d3c44f5f-6395-45f1-9613-cdc57545eb94"},{"name":"天満神社","prefectureName":"佐賀県","cityName":"鳥栖市","streetName":"柚比町３７０番地ロ","latitude":33.40218356,"longitude":130.51144061,"id":"0c59beca-846c-4210-a4bd-347663e6c9e3"},{"name":"天満神社","prefectureName":"佐賀県","cityName":"三養基郡みやき町","streetName":"大字原古賀１６１３番地","latitude":33.3246734,"longitude":130.4543848,"id":"e4caabfd-f383-4540-8ea2-d0045e2675f2"},{"name":"天満神社","prefectureName":"佐賀県","cityName":"唐津市","streetName":"山田４２３１番地","latitude":33.40991309,"longitude":129.94744277,"id":"d7568f08-bba2-4800-838e-21bbdb8c17ec"},{"name":"天満神社","prefectureName":"佐賀県","cityName":"佐賀市","streetName":"高木瀬町大字長瀬２５１０番地","latitude":33.29293448,"longitude":130.29715411,"id":"888fa244-4ef4-43f7-b007-de205293e598"},{"name":"天満神社","prefectureName":"佐賀県","cityName":"佐賀市","streetName":"金立町大字薬師丸３２８番地","latitude":33.2917353,"longitude":130.32141889,"id":"82bc50b6-ab58-4068-ace2-79fa5beb490e"},{"name":"天満神社","prefectureName":"佐賀県","cityName":"神埼市","streetName":"神埼町尾崎４２８０番地","latitude":33.30950408,"longitude":130.37388748,"id":"0f69963a-8aa4-40ad-a3da-2ea4c178f3ca"},{"name":"天満神社","prefectureName":"佐賀県","cityName":"神埼市","streetName":"千代田町用作４５３番地","latitude":33.3107511,"longitude":130.3730542,"id":"8574f1dc-2672-463f-998a-702665bb6661"},{"name":"天満神社","prefectureName":"佐賀県","cityName":"小城市","streetName":"小城町晴気１０２０番地","latitude":33.29321993,"longitude":130.19898271,"id":"9678796d-dea7-44de-a5c9-bd85dcc8b224"},{"name":"天満神社","prefectureName":"佐賀県","cityName":"小城市","streetName":"三日月町織島３１０番地","latitude":33.2736671,"longitude":130.2169329,"id":"df73219b-6335-4a4e-8561-811a62b6f7b5"},{"name":"天満神社","prefectureName":"佐賀県","cityName":"小城市","streetName":"三日月町樋口３２９番地","latitude":33.26134887,"longitude":130.2176006,"id":"2fd30f58-0553-4e22-9e51-c4c29cd6de8a"},{"name":"天満神社","prefectureName":"佐賀県","cityName":"小城市","streetName":"牛津町柿樋瀬１４９番地","latitude":33.24274234,"longitude":130.20897665,"id":"ec894355-f2f8-4887-a722-636ec6cb6940"},{"name":"天満神社","prefectureName":"佐賀県","cityName":"武雄市","streetName":"武雄町大字富岡８４３０番地２","latitude":33.19844759,"longitude":130.02070542,"id":"7b391402-7989-463b-940c-1ea788e6d55b"},{"name":"天満神社","prefectureName":"佐賀県","cityName":"武雄市","streetName":"東川登町大字永野６７８８番地","latitude":33.1947258,"longitude":130.021511,"id":"2763c0f4-cecb-4592-9905-4cc9cc50b776"},{"name":"天満神社","prefectureName":"佐賀県","cityName":"鹿島市","streetName":"古枝乙１５３番地","latitude":33.1037232,"longitude":130.0987689,"id":"d12c69f2-8f60-4cf1-8b25-50b0b3c072aa"},{"name":"天満神社","prefectureName":"佐賀県","cityName":"西松浦郡有田町","streetName":"桑木原乙１３１９番地","latitude":33.21857334,"longitude":129.84768923,"id":"47756553-46d2-4fd9-b8dd-09e590ad3fcb"},{"name":"天満神社","prefectureName":"佐賀県","cityName":"鳥栖市","streetName":"田代本町１０３７番地","latitude":33.39490624,"longitude":130.52084569,"id":"cf5b76e7-8e07-45a5-98c8-890e02cef85e"},{"name":"天満神社","prefectureName":"佐賀県","cityName":"三養基郡みやき町","streetName":"大字原古賀６５８８番地の１","latitude":33.33454153,"longitude":130.43915475,"id":"c2a8e3d2-2af7-45f2-91a6-6e270a91ce13"},{"name":"天満神社","prefectureName":"佐賀県","cityName":"唐津市","streetName":"肥前町満越７７３番地","latitude":33.4084953,"longitude":129.85682347,"id":"ffe73245-304f-4ef9-9d73-a69259094a36"},{"name":"天満神社","prefectureName":"佐賀県","cityName":"東松浦郡玄海町","streetName":"大字大薗４２９２番地","latitude":33.4721971,"longitude":129.8750862,"id":"bc91fe5b-b048-42e4-b67c-da86f394f563"},{"name":"天満神社","prefectureName":"佐賀県","cityName":"唐津市","streetName":"北波多上平野３６０４番地","latitude":33.3745815,"longitude":129.94170822,"id":"2538bd0e-598f-4ce6-a93e-f37c5ab6d9c0"},{"name":"天満神社","prefectureName":"佐賀県","cityName":"佐賀市","streetName":"嘉瀬町大字扇町２３５３番地１","latitude":33.24465423,"longitude":130.26645492,"id":"3c0ed9a1-023d-47a0-9320-a1b9948fcca9"},{"name":"天満神社","prefectureName":"佐賀県","cityName":"佐賀市","streetName":"久保泉町大字下和泉１３０４番地１","latitude":33.30872037,"longitude":130.34077445,"id":"95fa1cc8-c4e0-4edb-9faf-41c66fab0600"},{"name":"天満神社","prefectureName":"佐賀県","cityName":"神埼市","streetName":"神埼町永歌１２２５番地","latitude":33.29513055,"longitude":130.37729338,"id":"f76084f2-5d5c-4988-8eac-e4e7230ccb94"},{"name":"天満神社","prefectureName":"佐賀県","cityName":"小城市","streetName":"小城町畑田４７５番地","latitude":33.2876227,"longitude":130.19260301,"id":"e9fb5f83-572c-4993-b9bf-d7497fb7d389"},{"name":"天満神社","prefectureName":"佐賀県","cityName":"小城市","streetName":"小城町晴気４５２番地","latitude":33.29720304,"longitude":130.1800013,"id":"64200d74-845c-45aa-8afb-1d4ca27e8148"},{"name":"天満神社","prefectureName":"佐賀県","cityName":"小城市","streetName":"三日月町織島３００番地","latitude":33.2736671,"longitude":130.2169329,"id":"6caffed9-0411-4b3e-9315-0d68d01b1392"},{"name":"天満神社","prefectureName":"佐賀県","cityName":"小城市","streetName":"三日月町長神田３０９番地","latitude":33.2736671,"longitude":130.2169329,"id":"422dc5e5-52c8-4d0a-9761-7849148cef73"},{"name":"天満神社","prefectureName":"佐賀県","cityName":"小城市","streetName":"牛津町勝８３８番地","latitude":33.24274234,"longitude":130.20897665,"id":"ce83ae0b-590d-4948-bc37-c913dda1610a"},{"name":"天満神社","prefectureName":"佐賀県","cityName":"武雄市","streetName":"朝日町大字甘久１７３番地イ","latitude":33.21064399,"longitude":130.04344783,"id":"173e9e86-53d7-4ebc-825d-ee803ffcd368"},{"name":"天満神社","prefectureName":"佐賀県","cityName":"鹿島市","streetName":"古枝乙３０２１番地","latitude":33.1037232,"longitude":130.0987689,"id":"f0ffef2f-7260-49a4-860d-c96114e130a2"},{"name":"天満神社","prefectureName":"佐賀県","cityName":"杵島郡白石町","streetName":"大字深浦５４０４番地","latitude":33.1810349,"longitude":130.1434991,"id":"1f0a5d18-67e0-422a-9ac3-86e653001f63"},{"name":"天満神社","prefectureName":"佐賀県","cityName":"伊万里市","streetName":"伊万里町甲１８７番地","latitude":33.2645853,"longitude":129.8802692,"id":"e3f4872e-b593-496c-9fef-cbac7367486b"},{"name":"天満神社","prefectureName":"佐賀県","cityName":"鳥栖市","streetName":"田代上町２６９番地","latitude":33.38995926,"longitude":130.52462317,"id":"eb1dfa57-9b16-469a-b3df-f26fdfabf435"},{"name":"天満神社","prefectureName":"佐賀県","cityName":"鳥栖市","streetName":"儀徳町２８４１番地、２８４２番地","latitude":33.35529161,"longitude":130.49160385,"id":"3d68fd57-fd4f-4d4e-bb46-34c635103ab1"},{"name":"天満神社","prefectureName":"佐賀県","cityName":"三養基郡みやき町","streetName":"大字江口１３１９番地","latitude":33.3246734,"longitude":130.4543848,"id":"af5958dd-fca8-4860-8c12-1d3ebcd9bd2e"},{"name":"天満神社","prefectureName":"佐賀県","cityName":"三養基郡みやき町","streetName":"大字原古賀７７４３番地","latitude":33.3246734,"longitude":130.4543848,"id":"21316f43-527b-4175-b42c-fb83750384fe"},{"name":"天満神社","prefectureName":"佐賀県","cityName":"三養基郡上峰町","streetName":"大字堤３０１７番地","latitude":33.3194895,"longitude":130.4261092,"id":"31e730af-f672-48a5-b990-7c4a050df105"},{"name":"天満神社","prefectureName":"佐賀県","cityName":"唐津市","streetName":"水主町２３５９番地の第１、２３６０番地、２３６１番地","latitude":33.44435261,"longitude":129.97818314,"id":"739da359-f3da-40ca-86d9-d80e57495d0f"},{"name":"天満神社","prefectureName":"佐賀県","cityName":"唐津市","streetName":"北波多志気２１５９番地","latitude":33.3745815,"longitude":129.94170822,"id":"fbef0289-cf44-46a3-ba77-d8a9ebb70f38"},{"name":"天満神社","prefectureName":"佐賀県","cityName":"佐賀市","streetName":"兵庫町大字渕２３８３番地","latitude":33.2634815,"longitude":130.3008572,"id":"d64029f7-7848-46b7-be36-05e49c1d4061"},{"name":"天満神社","prefectureName":"佐賀県","cityName":"神埼市","streetName":"神埼町永歌２０３４番地","latitude":33.30950408,"longitude":130.37388748,"id":"9bf9098a-9656-423d-a5a4-41ab98f4a384"},{"name":"天満神社","prefectureName":"佐賀県","cityName":"小城市","streetName":"小城町１８０番地","latitude":33.28890032,"longitude":130.19658582,"id":"9263dfc8-b711-4933-a8a9-d40a0a97e35e"},{"name":"天満神社","prefectureName":"佐賀県","cityName":"小城市","streetName":"小城町晴気４２４番地","latitude":33.29321993,"longitude":130.19898271,"id":"a774f57c-52dd-4011-80ef-7f0dcedfd1eb"},{"name":"天満神社","prefectureName":"佐賀県","cityName":"小城市","streetName":"三日月町織島６５番地","latitude":33.2736671,"longitude":130.2169329,"id":"c5900a36-43a4-4332-99d6-ae2923aeca84"},{"name":"天満神社","prefectureName":"佐賀県","cityName":"小城市","streetName":"三日月町長神田２０７番地","latitude":33.2736671,"longitude":130.2169329,"id":"a5c9d334-c08e-4cd0-bed0-8a6e2ec79ac9"},{"name":"天満神社","prefectureName":"佐賀県","cityName":"小城市","streetName":"牛津町勝６３６番地","latitude":33.24274234,"longitude":130.20897665,"id":"8a509ca9-c51b-49b0-ac65-ff99410e5646"},{"name":"天満神社","prefectureName":"佐賀県","cityName":"杵島郡白石町","streetName":"大字坂田８５７番地","latitude":33.1810349,"longitude":130.1434991,"id":"f7e5b583-50b8-4dcd-a67e-1ac84f5160ef"},{"name":"天満神社","prefectureName":"佐賀県","cityName":"伊万里市","streetName":"二里町八谷搦６３番地","latitude":33.2760781,"longitude":129.87301415,"id":"cb2e4529-1e0c-44d7-ac25-e1026ec9b21b"},{"name":"天満神社","prefectureName":"佐賀県","cityName":"鳥栖市","streetName":"水屋町１６９５番地","latitude":33.34630411,"longitude":130.52835986,"id":"1e4f9c6a-a75b-4f1c-a1d0-f22824af331f"},{"name":"天満神社","prefectureName":"佐賀県","cityName":"鳥栖市","streetName":"飯田町１６９番地","latitude":33.38089547,"longitude":130.54147938,"id":"99affa57-0f8f-44f2-8148-253157ebc1ff"},{"name":"天満神社","prefectureName":"佐賀県","cityName":"鳥栖市","streetName":"幸津町１２４５番地","latitude":33.35731933,"longitude":130.49407038,"id":"ecd0e8b0-3adf-4041-bef4-6935e69e5830"},{"name":"天満神社","prefectureName":"佐賀県","cityName":"三養基郡みやき町","streetName":"大字白壁３３９６番地","latitude":33.3246734,"longitude":130.4543848,"id":"9957478e-e79c-480d-9c97-4da7e3595f5c"},{"name":"天満神社","prefectureName":"佐賀県","cityName":"三養基郡みやき町","streetName":"大字原古賀３６１３番地","latitude":33.3246734,"longitude":130.4543848,"id":"22dbfac2-89d0-4aab-ad96-38159c2c4040"},{"name":"天満神社","prefectureName":"佐賀県","cityName":"三養基郡上峰町","streetName":"大字堤２１７６番地１","latitude":33.3194895,"longitude":130.4261092,"id":"67744412-c755-4be2-a050-78849ce4d918"},{"name":"天満神社","prefectureName":"佐賀県","cityName":"神埼郡吉野ヶ里町","streetName":"吉田１６１７番地","latitude":33.3211889,"longitude":130.3988022,"id":"9c7f0ee0-9bdc-43a2-b060-f152eceb984e"},{"name":"天満神社","prefectureName":"佐賀県","cityName":"唐津市","streetName":"浜玉町鳥巣２６８番地","latitude":33.44956235,"longitude":130.04105634,"id":"419e1c08-4987-4d0b-aef7-91873f5b4f1a"},{"name":"天満神社","prefectureName":"佐賀県","cityName":"佐賀市","streetName":"嘉瀬町大字荻野１５７２番地","latitude":33.2634815,"longitude":130.3008572,"id":"2bbb953a-b0db-42ff-9543-69f4f5cf0e6a"},{"name":"天満神社","prefectureName":"佐賀県","cityName":"佐賀市","streetName":"兵庫町大字渕１６３３番地","latitude":33.2634815,"longitude":130.3008572,"id":"aa01ef6d-0b91-4aa7-a299-03472eec158b"},{"name":"天満神社","prefectureName":"佐賀県","cityName":"佐賀市","streetName":"兵庫町大字渕２５５３番地","latitude":33.28905201,"longitude":130.31487502,"id":"b4b88764-ce8f-4e7f-85ba-68cd87ed4fa7"},{"name":"天満神社","prefectureName":"佐賀県","cityName":"神埼市","streetName":"神埼町田道ヶ里１３０１番地","latitude":33.30950408,"longitude":130.37388748,"id":"1e144c20-f167-41a3-9d57-794dccf03067"},{"name":"天満神社","prefectureName":"佐賀県","cityName":"神埼市","streetName":"神埼町姉川１２０１番地","latitude":33.30950408,"longitude":130.37388748,"id":"96697db3-0e9f-48fb-99dd-a15c3d6eea7c"},{"name":"天満神社","prefectureName":"佐賀県","cityName":"小城市","streetName":"小城町８２番地","latitude":33.29321993,"longitude":130.19898271,"id":"7abf7f8a-eaf3-4528-9e05-60e636bc99a9"},{"name":"天満神社","prefectureName":"佐賀県","cityName":"小城市","streetName":"小城町栗原１１３１番地","latitude":33.2770409,"longitude":130.18175491,"id":"340a3f8f-d1c1-45dd-8947-d6acceed8bf2"},{"name":"天満神社","prefectureName":"佐賀県","cityName":"小城市","streetName":"三日月町織島字東弐本五割６０１番地","latitude":33.2736671,"longitude":130.2169329,"id":"2721f07b-9827-440c-98d6-0ca1d21e0de1"},{"name":"天満神社","prefectureName":"佐賀県","cityName":"小城市","streetName":"三日月町長神田１５６番地","latitude":33.2736671,"longitude":130.2169329,"id":"85a6c9d5-1924-415e-bc1c-03ef01629f48"},{"name":"天満神社","prefectureName":"佐賀県","cityName":"小城市","streetName":"三日月町道辺６５１番地","latitude":33.2736671,"longitude":130.2169329,"id":"9e2648fb-a93a-4cd1-8050-f8a0d3828cc5"},{"name":"天満神社","prefectureName":"佐賀県","cityName":"小城市","streetName":"牛津町勝５０９番地","latitude":33.24274234,"longitude":130.20897665,"id":"7416d74b-199e-4f4c-abb7-c11e38264a61"},{"name":"天満神社","prefectureName":"佐賀県","cityName":"佐賀市","streetName":"富士町大字小副川１２６７番地２","latitude":33.36651564,"longitude":130.23551247,"id":"765a8040-a082-433c-a423-06eaef123153"},{"name":"天満神社","prefectureName":"佐賀県","cityName":"伊万里市","streetName":"東山代町里３４８番地","latitude":33.28811761,"longitude":129.83506161,"id":"ccd1d8f4-1e54-4638-9b95-06194b614d72"},{"name":"天満神社","prefectureName":"佐賀県","cityName":"鳥栖市","streetName":"酒井西町３５０番地２","latitude":33.36625821,"longitude":130.53264821,"id":"0abe1b09-90c6-4039-9ffc-db4290085f2b"},{"name":"天満神社","prefectureName":"佐賀県","cityName":"三養基郡みやき町","streetName":"大字白壁９４５番地","latitude":33.3246734,"longitude":130.4543848,"id":"7a90921d-f5d4-49de-abdb-07e262a1021f"},{"name":"天満神社","prefectureName":"佐賀県","cityName":"三養基郡上峰町","streetName":"大字堤９７４番地","latitude":33.3194895,"longitude":130.4261092,"id":"ba499be4-ad14-4503-bd3c-bc9887fd4654"},{"name":"天満神社","prefectureName":"佐賀県","cityName":"神埼郡吉野ヶ里町","streetName":"吉田２３９２番地","latitude":33.33676292,"longitude":130.40852878,"id":"f9b46eef-9c25-4c52-abc5-5daa1efe79a7"},{"name":"天満神社","prefectureName":"佐賀県","cityName":"唐津市","streetName":"鎮西町八床４３２５番地","latitude":33.53261012,"longitude":129.87758194,"id":"456a593a-59f1-481e-bb46-dbe8209faea8"},{"name":"天満神社","prefectureName":"佐賀県","cityName":"佐賀市","streetName":"嘉瀬町大字十五５２３番地","latitude":33.23794333,"longitude":130.25608929,"id":"6a8798c4-ef4e-4f6c-bda0-1ff725e088ab"},{"name":"天満神社","prefectureName":"佐賀県","cityName":"佐賀市","streetName":"久保泉町大字上和泉３１７番地","latitude":33.3184443,"longitude":130.33903528,"id":"0b4bcd23-f3c0-4a5b-bf0a-03978d74efe2"},{"name":"天満神社","prefectureName":"佐賀県","cityName":"神埼市","streetName":"神埼町竹３５２２番地","latitude":33.30950408,"longitude":130.37388748,"id":"7382fd12-bf7f-4ee8-a777-b5491e6d470d"},{"name":"天満神社","prefectureName":"佐賀県","cityName":"神埼市","streetName":"神埼町姉川１９７０番地","latitude":33.30950408,"longitude":130.37388748,"id":"5fcbbbf0-bce7-43b7-94a8-a1027e491d7a"},{"name":"天満神社","prefectureName":"佐賀県","cityName":"小城市","streetName":"小城町栗原１００１番地","latitude":33.28009903,"longitude":130.17831345,"id":"8dbcb489-425f-4f4f-8619-05666b1898a6"},{"name":"天満神社","prefectureName":"佐賀県","cityName":"小城市","streetName":"三日月町長神田２３１７番地２","latitude":33.2736671,"longitude":130.2169329,"id":"56a1c875-5605-4843-ac5e-d51b4d6206f9"},{"name":"天満神社","prefectureName":"佐賀県","cityName":"小城市","streetName":"三日月町道辺９０番地","latitude":33.2736671,"longitude":130.2169329,"id":"d804b0e4-3a7d-4086-9c73-a2f492182055"},{"name":"天満神社","prefectureName":"佐賀県","cityName":"小城市","streetName":"牛津町下砥川１４４６番地の１","latitude":33.24274234,"longitude":130.20897665,"id":"606c1400-53b3-4820-94c1-66f9cb7bb6e5"},{"name":"天満神社","prefectureName":"佐賀県","cityName":"小城市","streetName":"芦刈町下古賀５３番地","latitude":33.21484856,"longitude":130.20798236,"id":"204724c3-b8c1-4244-a761-d8df9471cede"},{"name":"天満神社","prefectureName":"佐賀県","cityName":"佐賀市","streetName":"大和町大字松瀬２０７３番地","latitude":33.31071333,"longitude":130.28135746,"id":"84258b78-22a8-4f7a-8522-193650e5b97d"},{"name":"天満神社","prefectureName":"佐賀県","cityName":"杵島郡白石町","streetName":"大字福吉３８６番地","latitude":33.19026827,"longitude":130.17610494,"id":"6179bd8b-1e09-4aa1-8f4c-98a6307c362f"},{"name":"天満神社","prefectureName":"佐賀県","cityName":"伊万里市","streetName":"瀬戸町１５９９番地","latitude":33.31588666,"longitude":129.83936665,"id":"9b82f390-10d7-4da6-9f96-f3b8e9165ff4"},{"name":"天満神社","prefectureName":"佐賀県","cityName":"伊万里市","streetName":"東山代町里３４８番地","latitude":33.28811761,"longitude":129.83506161,"id":"305b2a2e-81fc-4ea1-abcb-58dfebe8dffc"},{"name":"天満神社","prefectureName":"佐賀県","cityName":"鳥栖市","streetName":"平田町３１０２番地","latitude":33.36762083,"longitude":130.47420968,"id":"e7ec946d-198a-4a33-9fd2-2dc67af55a74"},{"name":"天満神社","prefectureName":"佐賀県","cityName":"三養基郡基山町","streetName":"大字長野８０７番地１","latitude":33.40876055,"longitude":130.52768653,"id":"4534dc5d-dc8a-400b-afff-a2fb6960ccd1"},{"name":"天満神社","prefectureName":"佐賀県","cityName":"三養基郡上峰町","streetName":"大字堤１５２２番地","latitude":33.3194895,"longitude":130.4261092,"id":"f08abbc8-e590-496c-b9b8-fe19958666d7"},{"name":"天満神社","prefectureName":"佐賀県","cityName":"神埼郡吉野ヶ里町","streetName":"豆田１６００番１","latitude":33.3140728,"longitude":130.39690257,"id":"f11d1950-2419-4719-bdc6-2c976bf0a7d8"},{"name":"天満神社","prefectureName":"佐賀県","cityName":"唐津市","streetName":"相知町湯屋６１３番地","latitude":33.34967765,"longitude":130.01305059,"id":"8a6b743e-1548-4d7d-b920-477a4475c62f"},{"name":"天満神社","prefectureName":"佐賀県","cityName":"佐賀市","streetName":"嘉瀬町大字十五１７５８番地","latitude":33.2634815,"longitude":130.3008572,"id":"4f94860f-1497-4375-9864-cf6963b40d0d"},{"name":"天満神社","prefectureName":"佐賀県","cityName":"佐賀市","streetName":"兵庫北５丁目１番４０号","latitude":33.27256148,"longitude":130.30593721,"id":"9cf4171d-25c1-4b62-8a2e-fb240bd9512b"},{"name":"天満神社","prefectureName":"佐賀県","cityName":"佐賀市","streetName":"金立町大字金立１６５７番地","latitude":33.32510148,"longitude":130.306363,"id":"f2465b4a-d0b5-4bb2-bfbe-0ac3ab7bf348"},{"name":"天満神社","prefectureName":"佐賀県","cityName":"神埼市","streetName":"神埼町竹４６８８番地","latitude":33.30950408,"longitude":130.37388748,"id":"328fadb1-389b-4d69-8376-92e6e3afd18a"},{"name":"天満神社","prefectureName":"佐賀県","cityName":"神埼市","streetName":"神埼町姉川２２８４番地","latitude":33.30950408,"longitude":130.37388748,"id":"10bb81b7-013e-4ebd-b3db-fd844b02db49"},{"name":"天満神社","prefectureName":"佐賀県","cityName":"神埼市","streetName":"千代田町姉５１１番地","latitude":33.3107511,"longitude":130.3730542,"id":"37fe5060-e245-4b0c-b095-7e2ade564f4c"},{"name":"天満神社","prefectureName":"佐賀県","cityName":"小城市","streetName":"小城町栗原６２４番地","latitude":33.28872329,"longitude":130.17214691,"id":"5a4e2c08-27a3-47bf-ab65-ce2ec0527374"},{"name":"天満神社","prefectureName":"佐賀県","cityName":"小城市","streetName":"小城町松尾５０番地","latitude":33.29321993,"longitude":130.19898271,"id":"16f0b9ed-a1f3-425c-a05e-a0bffdb966a3"},{"name":"天満神社","prefectureName":"佐賀県","cityName":"小城市","streetName":"三日月町長神田７３番地","latitude":33.28977444,"longitude":130.21841766,"id":"1ff21722-4aec-4aad-ae30-47717a925c89"},{"name":"天満神社","prefectureName":"佐賀県","cityName":"小城市","streetName":"芦刈町道免７００番地","latitude":33.21484856,"longitude":130.20798236,"id":"2a7b48ad-8bc3-460e-9de7-4579f2f576fd"},{"name":"天満神社","prefectureName":"佐賀県","cityName":"杵島郡白石町","streetName":"大字廿治３０４０番地","latitude":33.17162432,"longitude":130.12236982,"id":"08122635-929f-45ae-9d24-ea8da481c51f"},{"name":"天満神社","prefectureName":"佐賀県","cityName":"嬉野市","streetName":"塩田町大字久間丁３８１２番地","latitude":33.13974629,"longitude":130.07035432,"id":"b77f4f61-2d6a-4a51-9f25-671e83aa69bf"},{"name":"天満神社","prefectureName":"佐賀県","cityName":"伊万里市","streetName":"新天町５０２番地","latitude":33.2645853,"longitude":129.8802692,"id":"57eee053-a659-49c7-a111-aa776844e97a"},{"name":"天満神社","prefectureName":"佐賀県","cityName":"伊万里市","streetName":"東山代町里３４８番地","latitude":33.28811761,"longitude":129.83506161,"id":"1870346c-a763-4eed-8160-9401b9f18fca"},{"name":"天満神社","prefectureName":"佐賀県","cityName":"鳥栖市","streetName":"酒井東町１３２番地","latitude":33.3777544,"longitude":130.506258,"id":"1673f14a-ca70-4287-9098-ce4f594bb3a3"},{"name":"天満神社","prefectureName":"佐賀県","cityName":"鳥栖市","streetName":"安楽寺町７７５番地","latitude":33.34582618,"longitude":130.52011889,"id":"cd4a292f-d0ea-458a-9c23-8adcf090d77a"},{"name":"天満神社","prefectureName":"佐賀県","cityName":"三養基郡基山町","streetName":"大字長野８４２番地１","latitude":33.40720503,"longitude":130.52877799,"id":"9888ce26-a63a-4cd9-b0b1-0c89df472c4b"},{"name":"天満神社","prefectureName":"佐賀県","cityName":"三養基郡みやき町","streetName":"大字白壁２３４５番地","latitude":33.3246734,"longitude":130.4543848,"id":"d4c568f6-bcee-4e0b-910c-71b32648f78e"},{"name":"天満神社","prefectureName":"佐賀県","cityName":"唐津市","streetName":"和多田４３１０番地","latitude":33.4501626,"longitude":129.9679895,"id":"6f2b3a32-f87a-48b7-9034-0f5c18d026a6"},{"name":"天満神社","prefectureName":"佐賀県","cityName":"唐津市","streetName":"相知町山崎３４０６番地","latitude":33.35527951,"longitude":130.00575917,"id":"92a2901d-9303-4331-9ca1-e4e1412f5a50"},{"name":"天満神社","prefectureName":"佐賀県","cityName":"佐賀市","streetName":"兵庫北７丁目８番２１号","latitude":33.26955368,"longitude":130.31275886,"id":"7f0b7171-db72-4572-be20-66128ccf7c2f"},{"name":"天満神社","prefectureName":"佐賀県","cityName":"佐賀市","streetName":"東佐賀町１５番３０号","latitude":33.25622975,"longitude":130.31069543,"id":"d46cc5fe-a7d3-46d8-b48d-e93775bcbe0d"},{"name":"天満神社","prefectureName":"佐賀県","cityName":"佐賀市","streetName":"本庄町大字袋１８４番地","latitude":33.23787567,"longitude":130.30566018,"id":"90878326-61ee-4161-81e9-86c27900b22d"},{"name":"天満神社","prefectureName":"佐賀県","cityName":"神埼市","streetName":"神埼町横武１０４２番地","latitude":33.30950408,"longitude":130.37388748,"id":"4895a2cf-9832-472c-9729-3958e1d99c0f"},{"name":"天満神社","prefectureName":"佐賀県","cityName":"神埼市","streetName":"千代田町直鳥１２３２番地","latitude":33.26665533,"longitude":130.37127532,"id":"0bd6786b-7a37-450c-9c08-9c14ae3d8806"},{"name":"天満神社","prefectureName":"佐賀県","cityName":"小城市","streetName":"小城町栗原４０４番地","latitude":33.28535679,"longitude":130.17797982,"id":"013688f5-1043-406c-b47c-f3ec4ead8a77"},{"name":"天満神社","prefectureName":"佐賀県","cityName":"小城市","streetName":"小城町船田１２１１番地","latitude":33.29321993,"longitude":130.19898271,"id":"48a3999d-cf96-48d1-b66a-b7dd47301960"},{"name":"天満神社","prefectureName":"佐賀県","cityName":"小城市","streetName":"三日月町久米４０７番地","latitude":33.2736671,"longitude":130.2169329,"id":"2ae22471-f650-4192-acf3-dc2d73ca930c"},{"name":"天満神社","prefectureName":"佐賀県","cityName":"小城市","streetName":"三日月町樋口１６７６番地","latitude":33.26642088,"longitude":130.22399386,"id":"abf242b6-f06f-41ad-b8c1-6b0e73877c2a"},{"name":"天満神社","prefectureName":"佐賀県","cityName":"小城市","streetName":"牛津町下砥川１３５１番地","latitude":33.24274234,"longitude":130.20897665,"id":"07bceb2e-b720-471c-b12f-cd23c2e609e5"},{"name":"天満神社","prefectureName":"佐賀県","cityName":"多久市","streetName":"多久町２１４５番地","latitude":33.26113691,"longitude":130.08859117,"id":"39353fd4-d307-47cf-86ab-fdfebfac65c2"},{"name":"天満神社","prefectureName":"佐賀県","cityName":"多久市","streetName":"多久町２１４５番地","latitude":33.26113691,"longitude":130.08859117,"id":"93e5c4e5-6934-4bcb-aeb7-773d114728a3"},{"name":"天満神社","prefectureName":"佐賀県","cityName":"佐賀市","streetName":"大和町大字久留間１３３９番地１","latitude":33.31071333,"longitude":130.28135746,"id":"f1d8c9a1-bd14-4c9d-ae1c-5cdde23e9b30"},{"name":"天満神社","prefectureName":"佐賀県","cityName":"藤津郡太良町","streetName":"大字糸岐６７７４番地","latitude":33.01486574,"longitude":130.16422736,"id":"72b63fdd-fe85-4b33-9c1d-4d95562dd116"},{"name":"天満神社","prefectureName":"佐賀県","cityName":"伊万里市","streetName":"大川内町丙２３６０番地１","latitude":33.2645853,"longitude":129.8802692,"id":"ee8bb474-f1f5-4a16-aff7-4153fdd20851"},{"name":"天満神社","prefectureName":"佐賀県","cityName":"伊万里市","streetName":"東山代町里３４８番地","latitude":33.28811761,"longitude":129.83506161,"id":"243e2a44-27f6-44fb-bce0-3f309d818de9"},{"name":"天満神社","prefectureName":"佐賀県","cityName":"鳥栖市","streetName":"今泉町２５５６番地","latitude":33.36463325,"longitude":130.5161942,"id":"b89703b4-be04-4f6f-a1c4-35c6c0716375"},{"name":"天満神社","prefectureName":"佐賀県","cityName":"東松浦郡玄海町","streetName":"大字平尾４６６番地","latitude":33.4721971,"longitude":129.8750862,"id":"ffa39aa1-84c5-4090-aa57-c6cf177848ab"},{"name":"天満神社","prefectureName":"佐賀県","cityName":"唐津市","streetName":"相知町横枕８８６番地","latitude":33.34605094,"longitude":130.0284169,"id":"3c7346be-f03d-4454-a5f1-fa48adda722d"},{"name":"天滿神社","prefectureName":"佐賀県","cityName":"神埼郡吉野ヶ里町","streetName":"大曲２２９２番地","latitude":33.3211889,"longitude":130.3988022,"id":"4b90891f-9edf-4e55-b44b-957ec267b396"},{"name":"天滿神社","prefectureName":"佐賀県","cityName":"神埼郡吉野ヶ里町","streetName":"石動２３５１番地、２３５２番地、２３５３番地、２３５４番地","latitude":33.3211889,"longitude":130.3988022,"id":"e34686c5-1e1f-47d0-976e-0d3c7e2862d8"},{"name":"天滿神社","prefectureName":"佐賀県","cityName":"鹿島市","streetName":"大字森１３８５番地","latitude":33.12422343,"longitude":130.08579193,"id":"985d4c2c-dc42-44a5-84ca-f2b1ed2fe266"},{"name":"天滿神社","prefectureName":"佐賀県","cityName":"神埼郡吉野ヶ里町","streetName":"三津９９４番地イ","latitude":33.3211889,"longitude":130.3988022,"id":"091d16b7-2690-4179-9eaf-fcaeeca18ef8"},{"name":"天滿神社","prefectureName":"佐賀県","cityName":"神埼郡吉野ヶ里町","streetName":"石動９１６番地","latitude":33.36268044,"longitude":130.40681944,"id":"efafa4c7-6403-422f-bcc5-ec2bd7ded9fb"},{"name":"天滿神社","prefectureName":"佐賀県","cityName":"神埼郡吉野ヶ里町","streetName":"大曲４９０２番地","latitude":33.3211889,"longitude":130.3988022,"id":"ad9734d5-e212-4e91-ab33-32788a3baacd"},{"name":"天神社","prefectureName":"佐賀県","cityName":"佐賀市","streetName":"西与賀町字今津下区５５番地","latitude":33.2634815,"longitude":130.3008572,"id":"eccf2de5-eee8-4be2-818e-059f89ab3b65"},{"name":"天神社","prefectureName":"佐賀県","cityName":"神埼市","streetName":"神埼町本堀１４４２番地","latitude":33.30950408,"longitude":130.37388748,"id":"f3e51677-2bfb-4a7c-b662-e472eb1e6fcb"},{"name":"天神社","prefectureName":"佐賀県","cityName":"鹿島市","streetName":"大字納富分４２２８番地","latitude":33.1037232,"longitude":130.0987689,"id":"c59baae2-bdf6-4dd1-ac84-582b5b4fbd86"},{"name":"天神社","prefectureName":"佐賀県","cityName":"嬉野市","streetName":"塩田町大字馬場下甲８２０番地","latitude":33.14720373,"longitude":130.06531034,"id":"6a28c780-3f55-4610-b5eb-4435bc2680b5"},{"name":"天神社","prefectureName":"佐賀県","cityName":"唐津市","streetName":"千々賀１１８８番地","latitude":33.3999869,"longitude":129.96108947,"id":"1caa5ad5-4f0e-41c5-a9ec-3d7e9cafd053"},{"name":"天神社","prefectureName":"佐賀県","cityName":"佐賀市","streetName":"本庄町大字末次８５９番地","latitude":33.22615723,"longitude":130.30063313,"id":"f58e7c73-f27e-4383-9813-edce76c3131c"},{"name":"天神社","prefectureName":"佐賀県","cityName":"鹿島市","streetName":"大字森１３８５番地","latitude":33.12422343,"longitude":130.08579193,"id":"dba4a964-6cee-476a-9383-a5d47d5cefe4"},{"name":"天神社","prefectureName":"佐賀県","cityName":"嬉野市","streetName":"塩田町大字馬場下甲１８６４番地","latitude":33.14720373,"longitude":130.06531034,"id":"6e0624e3-68e4-4216-b679-a31fe7c08a36"},{"name":"天神社","prefectureName":"佐賀県","cityName":"伊万里市","streetName":"南波多町水留１４２６番地","latitude":33.2645853,"longitude":129.8802692,"id":"51a041dd-ab23-4b87-9b95-e175e42f7f40"},{"name":"天神社","prefectureName":"佐賀県","cityName":"唐津市","streetName":"相知町平山上３３３番地","latitude":33.34967765,"longitude":130.01305059,"id":"2173ad03-bb33-4ed3-9a35-d8943bb37448"},{"name":"天神社","prefectureName":"佐賀県","cityName":"杵島郡白石町","streetName":"大字築切３６５番地","latitude":33.1810349,"longitude":130.1434991,"id":"b42b036a-d2d3-4a78-82c2-4984cc76be78"},{"name":"天神社","prefectureName":"佐賀県","cityName":"嬉野市","streetName":"塩田町大字大草野甲９４７番地","latitude":33.14720373,"longitude":130.06531034,"id":"735ff940-d796-4650-9a6c-d554f744cfe4"},{"name":"天神社","prefectureName":"佐賀県","cityName":"唐津市","streetName":"相知町牟田部１７４４番地","latitude":33.34967765,"longitude":130.01305059,"id":"956b792f-e13f-4dd1-bbe5-2dd722955fea"},{"name":"天神社","prefectureName":"佐賀県","cityName":"武雄市","streetName":"西川登町大字小田志１７３８７番地","latitude":33.1947258,"longitude":130.021511,"id":"75a48492-4fa5-488c-be54-c989436047d0"},{"name":"天神社","prefectureName":"佐賀県","cityName":"嬉野市","streetName":"嬉野町大字下宿甲２８００番地","latitude":33.09716322,"longitude":129.98503417,"id":"a0285766-dca1-448d-b5ba-27289f17b337"},{"name":"天神社","prefectureName":"佐賀県","cityName":"武雄市","streetName":"山内町大字犬走５３６４番地","latitude":33.19539386,"longitude":129.94657561,"id":"9e21a118-6a79-4395-b567-45bdb248b2d7"},{"name":"天神社","prefectureName":"佐賀県","cityName":"杵島郡白石町","streetName":"大字築切１３６０番地","latitude":33.1810349,"longitude":130.1434991,"id":"964ddc70-6fa4-4e0e-9e89-8449dd48f60c"},{"name":"天神社","prefectureName":"佐賀県","cityName":"唐津市","streetName":"相知町黒岩５８８番地","latitude":33.37292455,"longitude":130.0030313,"id":"b3fb1ec5-cef6-45cd-84ca-1c88e74de3a0"},{"name":"天神社","prefectureName":"佐賀県","cityName":"武雄市","streetName":"武雄町大字永島１５１９９番地","latitude":33.1947258,"longitude":130.021511,"id":"07bc5187-b2b2-4031-8de4-402c4a2e3eb0"},{"name":"天神社","prefectureName":"佐賀県","cityName":"武雄市","streetName":"西川登町大字小田志１５０８２番地","latitude":33.1947258,"longitude":130.021511,"id":"3989b131-e7d6-415d-a613-40521e522e2b"},{"name":"天神社","prefectureName":"佐賀県","cityName":"武雄市","streetName":"山内町大字大野６７２１番地","latitude":33.19539386,"longitude":129.94657561,"id":"6fc38c8d-12f5-4f2f-a651-01da0a4968b2"},{"name":"天神社","prefectureName":"佐賀県","cityName":"杵島郡白石町","streetName":"大字横手４３８番地","latitude":33.1810349,"longitude":130.1434991,"id":"e8858f61-cd0d-4ceb-8927-f8d08ed5b8e1"},{"name":"天神社","prefectureName":"佐賀県","cityName":"唐津市","streetName":"北波多大杉１５３４番地","latitude":33.38311392,"longitude":129.95279315,"id":"7e0e4a95-36be-4f7d-b572-b05bcaf9b68d"},{"name":"天神社","prefectureName":"佐賀県","cityName":"鹿島市","streetName":"大字納富分３６６１番地","latitude":33.1037232,"longitude":130.0987689,"id":"aa30bc12-e7a7-4b95-84cb-3a3e5d9dd106"},{"name":"天神社","prefectureName":"佐賀県","cityName":"杵島郡白石町","streetName":"大字坂田１７２２番地","latitude":33.1810349,"longitude":130.1434991,"id":"dbd44085-a789-433d-a64a-865988cbbd4d"},{"name":"天神社","prefectureName":"佐賀県","cityName":"唐津市","streetName":"半田３２４１番地","latitude":33.41345797,"longitude":130.0290042,"id":"ab627ac7-0564-44fb-b865-811e7d365c50"},{"name":"天神社","prefectureName":"佐賀県","cityName":"鹿島市","streetName":"大字納富分２０３７番地","latitude":33.1037232,"longitude":130.0987689,"id":"5073d346-c7a7-4bef-913b-b154d0f3814f"},{"name":"天神社","prefectureName":"佐賀県","cityName":"杵島郡白石町","streetName":"大字田野上３３５６番地","latitude":33.1810349,"longitude":130.1434991,"id":"0e637a53-b05c-4425-9d66-b757fd9cd046"},{"name":"天神社","prefectureName":"佐賀県","cityName":"小城市","streetName":"小城町池上５５４７番地","latitude":33.29321993,"longitude":130.19898271,"id":"24e5f340-656f-4841-8ebe-e6467e04e10b"},{"name":"天神社","prefectureName":"佐賀県","cityName":"多久市","streetName":"西多久町大字板屋７０３２番地","latitude":33.26340308,"longitude":130.06840353,"id":"affc161c-7521-44b7-83cd-9a0e8f843128"},{"name":"天神社","prefectureName":"佐賀県","cityName":"鹿島市","streetName":"大字山浦１０３１番地","latitude":33.1037232,"longitude":130.0987689,"id":"d0f652f0-f817-400a-8455-54da3242e559"},{"name":"天神社","prefectureName":"佐賀県","cityName":"杵島郡白石町","streetName":"大字牛屋３０２番地","latitude":33.1810349,"longitude":130.1434991,"id":"5ef43b8f-6000-4ce9-9fdc-17f63c8e1791"},{"name":"天神社","prefectureName":"佐賀県","cityName":"三養基郡上峰町","streetName":"大字堤８３９番地","latitude":33.3194895,"longitude":130.4261092,"id":"aa22bfbb-058c-465b-a018-b2870bb61457"},{"name":"天神社","prefectureName":"佐賀県","cityName":"唐津市","streetName":"養母田６７４番地","latitude":33.41262225,"longitude":129.98096338,"id":"e960f686-418d-41b6-b3dd-580d5cd5c6c0"},{"name":"天神社","prefectureName":"佐賀県","cityName":"神埼市","streetName":"神埼町尾崎１４５５番地","latitude":33.30950408,"longitude":130.37388748,"id":"730a4bdb-d2d9-491e-9b4e-8855db450eb4"},{"name":"天神社","prefectureName":"佐賀県","cityName":"小城市","streetName":"小城町池上５１１２番地","latitude":33.29321993,"longitude":130.19898271,"id":"ddc277e2-e118-4077-be17-eacf867f823c"},{"name":"天神社","prefectureName":"佐賀県","cityName":"鹿島市","streetName":"大字納富分２４６８番地","latitude":33.09982643,"longitude":130.0996717,"id":"03a6207d-4716-49cf-9025-ad4ca292405b"},{"name":"天神社","prefectureName":"佐賀県","cityName":"杵島郡白石町","streetName":"大字牛屋４７４５番地","latitude":33.1810349,"longitude":130.1434991,"id":"09f6042b-6835-44a3-a221-cedd6b45bbc2"},{"name":"天神社","prefectureName":"佐賀県","cityName":"神埼郡吉野ヶ里町","streetName":"豆田１５２４番地","latitude":33.3211889,"longitude":130.3988022,"id":"a360bb34-7618-4346-aedf-a3a8a1558370"},{"name":"天神神社","prefectureName":"佐賀県","cityName":"伊万里市","streetName":"東山代町里３４８番地","latitude":33.28811761,"longitude":129.83506161,"id":"40036edb-0757-4cfc-9690-090353446737"},{"name":"天神神社","prefectureName":"佐賀県","cityName":"藤津郡太良町","streetName":"大字大浦己２３９番地","latitude":33.01941,"longitude":130.1789733,"id":"a041f284-aaa3-4905-bed6-528fb6b7a3f0"},{"name":"天神神社","prefectureName":"佐賀県","cityName":"藤津郡太良町","streetName":"大字大浦丙１６１１番地","latitude":32.97607282,"longitude":130.2075059,"id":"572c7e5c-9a7b-40c7-809d-12ad6ac3fd72"},{"name":"天神神社","prefectureName":"佐賀県","cityName":"唐津市","streetName":"鎮西町名護屋３９６番地","latitude":33.53661786,"longitude":129.87027418,"id":"6e937089-a54b-461c-a7ee-8660e00bacff"},{"name":"天龍神社","prefectureName":"佐賀県","cityName":"西松浦郡有田町","streetName":"立部乙２５４５番地１","latitude":33.21136549,"longitude":129.84057335,"id":"3ce07d58-b2f6-4235-a7c1-81a022460e08"},{"name":"太田神社","prefectureName":"佐賀県","cityName":"佐賀市","streetName":"諸富町大字大堂１６３２番地","latitude":33.23548519,"longitude":130.35106751,"id":"18bf3666-2feb-4cc3-8b0c-ee6a3215e389"},{"name":"太良嶽神社","prefectureName":"佐賀県","cityName":"藤津郡太良町","streetName":"大字多良１４０８番地１５","latitude":33.02339037,"longitude":130.18025638,"id":"d7d4b707-335a-4bfa-80a4-aba81d9a7261"},{"name":"妙見神社","prefectureName":"佐賀県","cityName":"小城市","streetName":"三日月町樋口１６９８番地","latitude":33.2736671,"longitude":130.2169329,"id":"586ca5d3-3272-4edc-a8b5-ad748ef016ea"},{"name":"妙見神社","prefectureName":"佐賀県","cityName":"神埼郡吉野ヶ里町","streetName":"三津２３４８番地イ","latitude":33.3211889,"longitude":130.3988022,"id":"ac2d4010-9547-43b1-8ed7-ab0356dda1a8"},{"name":"妙見神社","prefectureName":"佐賀県","cityName":"佐賀市","streetName":"大和町大字久池井３００番地","latitude":33.31113572,"longitude":130.29230101,"id":"775da522-7833-4cda-9f05-4ede0c5d3b26"},{"name":"妙見神社","prefectureName":"佐賀県","cityName":"唐津市","streetName":"藤崎通７０２２番地","latitude":33.46857679,"longitude":129.95312344,"id":"b0f993f9-3772-4482-ac4e-2e25b037a050"},{"name":"妙見神社","prefectureName":"佐賀県","cityName":"小城市","streetName":"小城町晴気１９６８番地","latitude":33.29594485,"longitude":130.17028838,"id":"ae303c93-88a4-4575-8b4e-b8b7e9645cb4"},{"name":"妙見神社","prefectureName":"佐賀県","cityName":"小城市","streetName":"小城町畑田３４５０番地８","latitude":33.29321993,"longitude":130.19898271,"id":"9cab13e8-1428-4a6d-b352-08fa6f8708d3"},{"name":"妻山神社","prefectureName":"佐賀県","cityName":"杵島郡白石町","streetName":"大字馬洗２４０９番地","latitude":33.18890834,"longitude":130.09793473,"id":"24ea7a83-3449-4193-825c-56fe32036d65"},{"name":"姫古曽神社","prefectureName":"佐賀県","cityName":"鳥栖市","streetName":"姫方町１８９番地","latitude":33.3862537,"longitude":130.53340268,"id":"1d587043-6685-4ef6-9332-4dac132d2e62"},{"name":"子安神社","prefectureName":"佐賀県","cityName":"佐賀市","streetName":"富士町大字栗並５８６番地１","latitude":33.37176713,"longitude":130.20645892,"id":"1c8d0a8b-4f50-452c-9cb6-3fdab3d74c99"},{"name":"子安神社","prefectureName":"佐賀県","cityName":"唐津市","streetName":"七山池原乙５５５番地１","latitude":33.42381605,"longitude":130.1526442,"id":"892b38d5-bc0b-4c99-be4d-601f50c3c641"},{"name":"宇佐神社","prefectureName":"佐賀県","cityName":"小城市","streetName":"三日月町道辺１８７２番地","latitude":33.28130367,"longitude":130.23387236,"id":"b2eb41dc-8868-4c84-ae8d-dec29a783336"},{"name":"宗天神社","prefectureName":"佐賀県","cityName":"三養基郡基山町","streetName":"大字長野９１番地","latitude":33.4058487,"longitude":130.5413841,"id":"d055853d-a208-4882-96c9-0c0b82aec90b"},{"name":"宝満神社","prefectureName":"佐賀県","cityName":"鳥栖市","streetName":"酒井東町１１００番地","latitude":33.36439169,"longitude":130.53613123,"id":"b44fa9f8-8e09-4d1d-8562-3b59def48024"},{"name":"宝満神社","prefectureName":"佐賀県","cityName":"三養基郡みやき町","streetName":"大字中津隈３７９２番地の１","latitude":33.32576999,"longitude":130.43867475,"id":"61f75024-e3ad-4ae5-a809-41a8d3ba983b"},{"name":"宝満神社","prefectureName":"佐賀県","cityName":"鳥栖市","streetName":"藤木町１１６１番地","latitude":33.3685858,"longitude":130.52039931,"id":"c8095433-7c4f-43ce-9240-dbb1bfef4230"},{"name":"宝満神社","prefectureName":"佐賀県","cityName":"三養基郡基山町","streetName":"大字園部７４２番地","latitude":33.41497374,"longitude":130.50826793,"id":"0f515565-616d-4df1-8f70-54c532aba162"},{"name":"宝満神社","prefectureName":"佐賀県","cityName":"神埼郡吉野ヶ里町","streetName":"豆田２６８４番地","latitude":33.31425614,"longitude":130.40718266,"id":"af430464-9444-49c4-9399-0cd2cbc65ae8"},{"name":"実行教八天神社","prefectureName":"佐賀県","cityName":"嬉野市","streetName":"塩田町大字谷所乙２５２８番地","latitude":33.11120219,"longitude":130.0644916,"id":"4aa72913-37f3-4640-9455-d71eead45625"},{"name":"室園神社","prefectureName":"佐賀県","cityName":"唐津市","streetName":"厳木町厳木３３番地","latitude":33.32099592,"longitude":130.06489445,"id":"9ffbe6bb-2683-4200-856d-9504ac865be4"},{"name":"宮崎神社","prefectureName":"佐賀県","cityName":"神埼市","streetName":"千代田町姉９番地","latitude":33.27231047,"longitude":130.36283145,"id":"a78d4bac-ed8e-4514-9060-cd6bbea4bcd4"},{"name":"宮﨑神社","prefectureName":"佐賀県","cityName":"鹿島市","streetName":"大字音成甲５０６９番地","latitude":33.07790997,"longitude":130.14293653,"id":"d61b5a75-1c47-400c-a844-97bfe833ba99"},{"name":"富吉神社","prefectureName":"佐賀県","cityName":"武雄市","streetName":"北方町大字大渡２７９４番地","latitude":33.20357887,"longitude":130.09432962,"id":"5c720bf4-65cc-4b6b-af41-18f2886a0853"},{"name":"寶満神社","prefectureName":"佐賀県","cityName":"唐津市","streetName":"宇木１７１６番地","latitude":33.40004456,"longitude":130.01654417,"id":"0518fca3-eff6-4c47-9457-054100058c44"},{"name":"小加神社","prefectureName":"佐賀県","cityName":"東松浦郡玄海町","streetName":"大字小加倉６７５番地","latitude":33.4916814,"longitude":129.88093525,"id":"3da2c96b-33ae-4ab5-82d7-3491cf3c79de"},{"name":"少童神社","prefectureName":"佐賀県","cityName":"唐津市","streetName":"鎮西町波戸甲１番地","latitude":33.53261012,"longitude":129.87758194,"id":"4432ad8a-5db6-4ce2-9cd9-16e3bc0ec161"},{"name":"尾崎神社","prefectureName":"佐賀県","cityName":"東松浦郡玄海町","streetName":"大字田代字田代田原１８０２番地","latitude":33.4721971,"longitude":129.8750862,"id":"028c4c8f-a33e-485c-9c8c-da8ca28a872c"},{"name":"山王神社","prefectureName":"佐賀県","cityName":"小城市","streetName":"三日月町堀江１６９９番地","latitude":33.2736671,"longitude":130.2169329,"id":"54aefc93-88ee-49b6-9397-26cc52a02697"},{"name":"山王神社","prefectureName":"佐賀県","cityName":"伊万里市","streetName":"大坪町乙１７４９番地","latitude":33.27267664,"longitude":129.894798,"id":"d588aa42-507a-44bd-9e8f-b7630ce75ae7"},{"name":"山田神社","prefectureName":"佐賀県","cityName":"西松浦郡有田町","streetName":"山谷牧甲２３２２番地５","latitude":33.22626985,"longitude":129.85084986,"id":"5cd520be-e47a-41a6-a812-7f452fb39de1"},{"name":"山祇神社","prefectureName":"佐賀県","cityName":"鹿島市","streetName":"古枝乙１８５２番地","latitude":33.1037232,"longitude":130.0987689,"id":"036cd859-02b9-4c66-aec5-185302510083"},{"name":"山祇神社","prefectureName":"佐賀県","cityName":"神埼郡吉野ヶ里町","streetName":"松隈２１６５番地２６８","latitude":33.3211889,"longitude":130.3988022,"id":"0ec892e0-3eac-446b-af4d-cc18788e374b"},{"name":"山祇神社","prefectureName":"佐賀県","cityName":"三養基郡みやき町","streetName":"大字簑原４９５２番地","latitude":33.3246734,"longitude":130.4543848,"id":"727e2886-10ef-44ad-b6c6-cacf82b68908"},{"name":"山祗神社","prefectureName":"佐賀県","cityName":"伊万里市","streetName":"南波多町古川４９１番地","latitude":33.29812085,"longitude":129.95273756,"id":"f8f02865-bc51-4d8e-a33a-490b3a332ea1"},{"name":"山祗神社","prefectureName":"佐賀県","cityName":"伊万里市","streetName":"東山代町里３４８番地","latitude":33.28811761,"longitude":129.83506161,"id":"e159f302-ba53-4ea0-8b3c-f3b4a8bb872c"},{"name":"山神社","prefectureName":"佐賀県","cityName":"杵島郡白石町","streetName":"大字深浦又４２２６番地","latitude":33.1810349,"longitude":130.1434991,"id":"af87b6be-d623-47bc-8833-a666fbe6afeb"},{"name":"山神社","prefectureName":"佐賀県","cityName":"唐津市","streetName":"枝去木２４１７番地","latitude":33.4880656,"longitude":129.90076748,"id":"8fe26f51-1196-4ab5-9b63-018940145474"},{"name":"山神社","prefectureName":"佐賀県","cityName":"杵島郡白石町","streetName":"大字深浦２７７８番地","latitude":33.1810349,"longitude":130.1434991,"id":"1f8f2397-b777-45fc-8e9f-56e16d1ad156"},{"name":"山神社","prefectureName":"佐賀県","cityName":"唐津市","streetName":"厳木町浪瀬９３番地","latitude":33.32099592,"longitude":130.06489445,"id":"66de1749-1b5a-416f-abc0-a22fa162df55"},{"name":"山神社","prefectureName":"佐賀県","cityName":"小城市","streetName":"小城町畑田５０４５番地","latitude":33.29321993,"longitude":130.19898271,"id":"debe582c-1ca9-4be9-af2f-f4c1c350c82c"},{"name":"山神社","prefectureName":"佐賀県","cityName":"鹿島市","streetName":"大字山浦丙６９９番地１","latitude":33.1037232,"longitude":130.0987689,"id":"fc365e7c-3116-4093-8b4c-3428362cc4ff"},{"name":"山神社","prefectureName":"佐賀県","cityName":"杵島郡白石町","streetName":"大字深浦又４１３２番地","latitude":33.1810349,"longitude":130.1434991,"id":"b39e4a32-d96c-4224-a514-e7317a39c141"},{"name":"山神社","prefectureName":"佐賀県","cityName":"神埼郡吉野ヶ里町","streetName":"松隈１１３２番地","latitude":33.37749282,"longitude":130.39196481,"id":"6687e763-d628-4974-ad50-226a620fbd19"},{"name":"山神社","prefectureName":"佐賀県","cityName":"唐津市","streetName":"厳木町瀬戸木場５番地","latitude":33.32099592,"longitude":130.06489445,"id":"84e081f8-6a53-4b25-808c-d8f303b9eb3c"},{"name":"山神社","prefectureName":"佐賀県","cityName":"小城市","streetName":"小城町畑田３７２０番地","latitude":33.29321993,"longitude":130.19898271,"id":"82d1b2ee-4514-42ee-b881-f3ff00f86f07"},{"name":"山神社","prefectureName":"佐賀県","cityName":"杵島郡白石町","streetName":"大字深浦４４３３番地","latitude":33.1810349,"longitude":130.1434991,"id":"2e4f77b8-bd5f-4769-94ad-afc735eb2279"},{"name":"山神社","prefectureName":"佐賀県","cityName":"唐津市","streetName":"厳木町浦川内３８番地","latitude":33.3332836,"longitude":130.08117026,"id":"090e2ebf-663a-4f34-9f98-a3e9481c3097"},{"name":"山神社","prefectureName":"佐賀県","cityName":"多久市","streetName":"北多久町大字多久原２１７６番地","latitude":33.29033741,"longitude":130.11694267,"id":"4ff35d91-5ed8-4ae8-9d43-3355df47086c"},{"name":"山神社","prefectureName":"佐賀県","cityName":"杵島郡白石町","streetName":"大字深浦５１３５番地","latitude":33.1810349,"longitude":130.1434991,"id":"45f6c7d8-10c1-4ffb-b025-88b6fe79fcfd"},{"name":"山神社","prefectureName":"佐賀県","cityName":"嬉野市","streetName":"塩田町大字久間乙３５５１番地","latitude":33.14720373,"longitude":130.06531034,"id":"1330343e-b285-4d92-8cde-eee5a8db9770"},{"name":"山神社","prefectureName":"佐賀県","cityName":"藤津郡太良町","streetName":"大字多良９０２８番地","latitude":33.01941,"longitude":130.1789733,"id":"af8610cc-b353-438f-a182-af8471aab83b"},{"name":"山神社","prefectureName":"佐賀県","cityName":"伊万里市","streetName":"脇田町２６５４番地","latitude":33.2645853,"longitude":129.8802692,"id":"56a920fc-d32a-463c-804b-f0bff0765a9e"},{"name":"山神社","prefectureName":"佐賀県","cityName":"西松浦郡有田町","streetName":"桑木原乙１３１９番地","latitude":33.21857334,"longitude":129.84768923,"id":"02c9a2a1-4b4d-4884-9d45-9d26149ec0cd"},{"name":"山神社","prefectureName":"佐賀県","cityName":"東松浦郡玄海町","streetName":"大字座川内字和佐田８０８番地","latitude":33.4721971,"longitude":129.8750862,"id":"8409a4f8-a828-443b-a91d-3b3f80c56c2d"},{"name":"山神社","prefectureName":"佐賀県","cityName":"唐津市","streetName":"鎮西町丸田８１１９番地","latitude":33.53905435,"longitude":129.90867084,"id":"5f917122-7ffd-455b-95ae-17a0a6e57fd6"},{"name":"山神社","prefectureName":"佐賀県","cityName":"伊万里市","streetName":"脇田町６９９番地","latitude":33.2645853,"longitude":129.8802692,"id":"88917478-0269-43a9-80f5-a7f3e243e1af"},{"name":"山神社","prefectureName":"佐賀県","cityName":"唐津市","streetName":"枝去木２１５９番地","latitude":33.48292465,"longitude":129.90867552,"id":"9e7a96a3-4788-464a-a6a6-d219dc48e040"},{"name":"山神神社","prefectureName":"佐賀県","cityName":"三養基郡上峰町","streetName":"大字坊所４５３７番地","latitude":33.3194895,"longitude":130.4261092,"id":"62dafbbc-cd97-404f-95bd-a32533b584c5"},{"name":"山神野神社","prefectureName":"佐賀県","cityName":"嬉野市","streetName":"塩田町大字五町田乙４２９６番地","latitude":33.14720373,"longitude":130.06531034,"id":"80a23162-4489-4c21-8430-9410062371f8"},{"name":"岡山神社","prefectureName":"佐賀県","cityName":"小城市","streetName":"小城町１８０番地","latitude":33.28890032,"longitude":130.19658582,"id":"3d9186ca-bad3-4ff9-b551-85d2414e0d15"},{"name":"岡神社","prefectureName":"佐賀県","cityName":"唐津市","streetName":"浜玉町岡口２４８番地","latitude":33.44680535,"longitude":130.06734692,"id":"7acc70a4-cf71-4df1-8dbb-92b3888dfa86"},{"name":"岩清水八幡神社","prefectureName":"佐賀県","cityName":"三養基郡みやき町","streetName":"大字簑原３４６９番地","latitude":33.3246734,"longitude":130.4543848,"id":"fb03a475-8af5-4f58-8cbf-23a1482cd726"},{"name":"岬神社","prefectureName":"佐賀県","cityName":"唐津市","streetName":"鎮西町波戸１４８９番地の第１","latitude":33.55564904,"longitude":129.84635599,"id":"495d8021-a15f-4ed0-a486-25a1af5f76d2"},{"name":"岳神社","prefectureName":"佐賀県","cityName":"伊万里市","streetName":"大川内町乙１９３２番地","latitude":33.2645853,"longitude":129.8802692,"id":"d22e36bc-ad34-4a66-b1dc-f4f4c340e209"},{"name":"巖島神社","prefectureName":"佐賀県","cityName":"嬉野市","streetName":"塩田町大字五町田甲４１６２番地","latitude":33.14720373,"longitude":130.06531034,"id":"87b23cdd-fc59-48c9-b70f-8c4005fe2c4e"},{"name":"川上丹生神社","prefectureName":"佐賀県","cityName":"嬉野市","streetName":"嬉野町大字不動山丙１３１２番地","latitude":33.07790326,"longitude":129.95619512,"id":"1d348df0-4bbe-445f-8fb3-8bfa242faf6a"},{"name":"川上神社","prefectureName":"佐賀県","cityName":"唐津市","streetName":"浜玉町平原１０８５番地","latitude":33.42884908,"longitude":130.0720836,"id":"68444900-e8cf-45a2-b8e3-d864dcd74b34"},{"name":"巨勢神社","prefectureName":"佐賀県","cityName":"佐賀市","streetName":"巨勢町大字牛島４１番地","latitude":33.25418308,"longitude":130.32086116,"id":"88d7b405-20a4-4b24-844e-5bae3f637f0c"},{"name":"平之神社","prefectureName":"佐賀県","cityName":"唐津市","streetName":"厳木町平之２３４１番地","latitude":33.34920643,"longitude":130.08024264,"id":"c7efdd42-077d-4c3a-b152-e8fb8884d98a"},{"name":"平嶽神社","prefectureName":"佐賀県","cityName":"唐津市","streetName":"呼子町加部島３２８０番地","latitude":33.53731546,"longitude":129.89469988,"id":"616923ab-25b1-4680-8d4f-6287417e43ef"},{"name":"庭木神社","prefectureName":"佐賀県","cityName":"武雄市","streetName":"西川登町大字神六２０５９４番地","latitude":33.1947258,"longitude":130.021511,"id":"3adad1d6-b0ab-4cc3-906c-156349b17d3f"},{"name":"廣瀧神社","prefectureName":"佐賀県","cityName":"神埼市","streetName":"脊振町広滝５５９番地１","latitude":33.3761609,"longitude":130.32724268,"id":"20152119-3a32-4d59-ac8b-61e8239b2ccd"},{"name":"廣瀬神社","prefectureName":"佐賀県","cityName":"佐賀市","streetName":"三瀬村三瀬２５２５番地２","latitude":33.43313522,"longitude":130.285614,"id":"e043d1cf-762a-4261-951f-084e85101b05"},{"name":"弁天神社","prefectureName":"佐賀県","cityName":"佐賀市","streetName":"久保泉町大字上和泉２８３９番地","latitude":33.2634815,"longitude":130.3008572,"id":"35818f78-06d1-4dc6-8ffc-4cdccaac94a6"},{"name":"彦山神社","prefectureName":"佐賀県","cityName":"唐津市","streetName":"相知町中山４５３０番地","latitude":33.35350213,"longitude":130.01302547,"id":"5d8da195-18d4-41b5-9d16-7e3f91a66cdd"},{"name":"彦山神社","prefectureName":"佐賀県","cityName":"伊万里市","streetName":"南波多町笠椎１５１５番地","latitude":33.2645853,"longitude":129.8802692,"id":"231720df-1094-469d-a864-9c7d59fda6c4"},{"name":"彦嶋神社","prefectureName":"佐賀県","cityName":"杵島郡白石町","streetName":"大字深浦３０８番地","latitude":33.14005557,"longitude":130.11848354,"id":"1044c308-f880-4b77-950f-fb7dd40e6743"},{"name":"後鳥羽神社","prefectureName":"佐賀県","cityName":"神埼市","streetName":"脊振町鹿路３８０４番地","latitude":33.37709691,"longitude":130.32693714,"id":"ca9f7253-829c-4be0-ad6d-98c9d3886c27"},{"name":"御上神社","prefectureName":"佐賀県","cityName":"神埼市","streetName":"神埼町竹６０１４番地","latitude":33.30950408,"longitude":130.37388748,"id":"9361511d-55a9-4f64-9e9c-652a9e2e932a"},{"name":"御嶽神社","prefectureName":"佐賀県","cityName":"嬉野市","streetName":"嬉野町大字岩屋川内乙２２１６番地乙２２１７番地","latitude":33.09716322,"longitude":129.98503417,"id":"c4600ae7-7e44-45be-9e70-e2ef5cd3643b"},{"name":"御嶽神社","prefectureName":"佐賀県","cityName":"唐津市","streetName":"竹木場４９５６番地","latitude":33.4501626,"longitude":129.9679895,"id":"5596d4d2-64f4-4e86-b97b-32f265336814"},{"name":"御嶽神社","prefectureName":"佐賀県","cityName":"三養基郡みやき町","streetName":"大字白壁２６６０番地１","latitude":33.3246734,"longitude":130.4543848,"id":"d8c8f8e1-264c-467a-8ca4-1454de7b9aae"},{"name":"御手水神社","prefectureName":"佐賀県","cityName":"藤津郡太良町","streetName":"大字糸岐５８８２番地","latitude":32.98315003,"longitude":130.17137214,"id":"ced28acc-7830-4063-8a77-df3587d5c794"},{"name":"御髪神社","prefectureName":"佐賀県","cityName":"鹿島市","streetName":"大字森１３８５番地","latitude":33.12422343,"longitude":130.08579193,"id":"810e81a6-f951-4b01-b797-d251c33fad07"},{"name":"志田神社","prefectureName":"佐賀県","cityName":"嬉野市","streetName":"塩田町大字久間甲３５８１番地","latitude":33.15477238,"longitude":130.06735451,"id":"29274d74-5386-40b1-90ea-c78573e8e7a7"},{"name":"志賀神社","prefectureName":"佐賀県","cityName":"伊万里市","streetName":"瀬戸町４４４番地","latitude":33.30120258,"longitude":129.85595989,"id":"b5912c6b-80b5-4989-ab2c-c874b78c38c5"},{"name":"志賀神社","prefectureName":"佐賀県","cityName":"佐賀市","streetName":"川副町大字早津江津４００番地","latitude":33.20792373,"longitude":130.33751091,"id":"30cd3fe6-023c-4242-bf78-e4a5fd4bc992"},{"name":"志賀神社","prefectureName":"佐賀県","cityName":"伊万里市","streetName":"東山代町里３４８番地","latitude":33.28811761,"longitude":129.83506161,"id":"cf429e5e-9cd1-4633-a86b-a5a20e4fa0b0"},{"name":"恩瓊神社","prefectureName":"佐賀県","cityName":"鹿島市","streetName":"大字三河内己１９１番地","latitude":33.1037232,"longitude":130.0987689,"id":"9c24056d-a98f-4b98-91b4-0d64fbd99c69"},{"name":"恵比羅大明神社","prefectureName":"佐賀県","cityName":"唐津市","streetName":"呼子町小友７５６番地","latitude":33.54642019,"longitude":129.9073736,"id":"12b6801d-2da9-4114-b3c9-5583288625df"},{"name":"愛宕神社","prefectureName":"佐賀県","cityName":"佐賀市","streetName":"呉服元町７番２６号","latitude":33.25449633,"longitude":130.30449603,"id":"26c4cf6f-eccb-456e-94d3-9e020d34d2f0"},{"name":"愛宕神社","prefectureName":"佐賀県","cityName":"伊万里市","streetName":"南波多町府招１４７２番地","latitude":33.29210053,"longitude":129.91556246,"id":"1cdce3fc-334d-47b2-90bc-618994be8f80"},{"name":"愛宕神社","prefectureName":"佐賀県","cityName":"唐津市","streetName":"呼子町呼子４１７７番地","latitude":33.53660442,"longitude":129.89438325,"id":"fd5f9901-ab6a-46c1-8355-fa9271b11098"},{"name":"愛宕神社","prefectureName":"佐賀県","cityName":"伊万里市","streetName":"脇田町７０８番地","latitude":33.2645853,"longitude":129.8802692,"id":"cac018f0-cc06-4717-973d-6a7068874c53"},{"name":"戸口神社","prefectureName":"佐賀県","cityName":"藤津郡太良町","streetName":"大字伊福甲２０６６番地","latitude":33.04283047,"longitude":130.16545389,"id":"e1db776a-a227-4001-9f7e-157c7e8e7d90"},{"name":"戸口神社","prefectureName":"佐賀県","cityName":"鹿島市","streetName":"大字飯田乙３５５３番地","latitude":33.1037232,"longitude":130.0987689,"id":"c1d2de8b-e73b-472f-aedd-332b288cf4dd"},{"name":"掘江神社","prefectureName":"佐賀県","cityName":"佐賀市","streetName":"神野西２丁目２番１０号","latitude":33.26536436,"longitude":130.29285516,"id":"2748033d-9b0e-4fdc-97af-4e30311cf35b"},{"name":"救世神社","prefectureName":"佐賀県","cityName":"鹿島市","streetName":"大字三河内甲３０２２番地","latitude":33.1037232,"longitude":130.0987689,"id":"861c96de-bc1d-44b5-9acc-6b6de6efafda"},{"name":"散分神社","prefectureName":"佐賀県","cityName":"小城市","streetName":"小城町畑田３０８０番地","latitude":33.29321993,"longitude":130.19898271,"id":"2db58cc3-f23b-41fe-b9bc-4104bab0092b"},{"name":"新北神社","prefectureName":"佐賀県","cityName":"佐賀市","streetName":"諸富町大字為重１０７３番地","latitude":33.22181125,"longitude":130.34143272,"id":"44620206-e480-4ea6-8ebb-7e599ce837d8"},{"name":"新庄八幡神社","prefectureName":"佐賀県","cityName":"佐賀市","streetName":"鍋島町大字森田２０２８番地","latitude":33.27299611,"longitude":130.25442711,"id":"714809ae-29f2-45d9-b874-fdcef21cd92b"},{"name":"日吉神社","prefectureName":"佐賀県","cityName":"小城市","streetName":"三日月町道辺７００番地","latitude":33.2736671,"longitude":130.2169329,"id":"168f805c-41c3-4c61-a149-74da105fda05"},{"name":"日吉神社","prefectureName":"佐賀県","cityName":"鳥栖市","streetName":"幡崎町９５７番地","latitude":33.39252252,"longitude":130.53605215,"id":"3954ece4-e38e-471e-b9e5-8e645f546116"},{"name":"日吉神社","prefectureName":"佐賀県","cityName":"小城市","streetName":"三日月町長神田１６８番地１","latitude":33.2736671,"longitude":130.2169329,"id":"14dac921-901f-43ea-a6e4-6f56c43d4c91"},{"name":"日吉神社","prefectureName":"佐賀県","cityName":"小城市","streetName":"三日月町長神田５００番地","latitude":33.28572417,"longitude":130.21260442,"id":"36e9360c-af8e-4a8e-895b-52624b54b89a"},{"name":"日吉神社","prefectureName":"佐賀県","cityName":"佐賀市","streetName":"三瀬村藤原１１３０番地","latitude":33.2634815,"longitude":130.3008572,"id":"5242809c-5925-41e7-b4c7-958608c05c35"},{"name":"日吉神社","prefectureName":"佐賀県","cityName":"鳥栖市","streetName":"飯田町４９６番地","latitude":33.37734875,"longitude":130.53709139,"id":"8ef677da-5ee3-45b5-94b7-0647a1c4c530"},{"name":"日吉神社","prefectureName":"佐賀県","cityName":"武雄市","streetName":"武雄町大字武雄６０１６番地","latitude":33.1947258,"longitude":130.021511,"id":"f2e03f56-6403-4648-8f27-96133e355dd0"},{"name":"日吉神社","prefectureName":"佐賀県","cityName":"神埼郡吉野ヶ里町","streetName":"田手２５５３番地","latitude":33.3211889,"longitude":130.3988022,"id":"97c841e9-a321-408b-beda-c1098970a035"},{"name":"日天神社","prefectureName":"佐賀県","cityName":"佐賀市","streetName":"材木１丁目５番１４号","latitude":33.2529328,"longitude":130.31032887,"id":"b8312687-b246-4382-b917-53fa6f627edc"},{"name":"日子神社","prefectureName":"佐賀県","cityName":"小城市","streetName":"三日月町金田８０番地","latitude":33.2736671,"longitude":130.2169329,"id":"2715ec29-66cb-4224-b0b1-f5e7adafcdd1"},{"name":"日子神社","prefectureName":"佐賀県","cityName":"小城市","streetName":"三日月町織島６５０番地","latitude":33.2736671,"longitude":130.2169329,"id":"31e684f2-4912-4066-abb6-d92382d2e47a"},{"name":"日子神社","prefectureName":"佐賀県","cityName":"小城市","streetName":"小城町晴気１６８８番地","latitude":33.29321993,"longitude":130.19898271,"id":"6fb3fb46-f52a-43ca-ae05-409d55b48a0e"},{"name":"日子神社","prefectureName":"佐賀県","cityName":"小城市","streetName":"芦刈町三王崎３１４番地","latitude":33.21484856,"longitude":130.20798236,"id":"d92a4cc4-f108-42d0-ab15-63b31e95104d"},{"name":"日子神社","prefectureName":"佐賀県","cityName":"佐賀市","streetName":"嘉瀬町大字荻野２８０４番地","latitude":33.25398096,"longitude":130.25928854,"id":"0a8582fb-ced1-4fa6-8496-450fc2141cf3"},{"name":"日子神社","prefectureName":"佐賀県","cityName":"嬉野市","streetName":"嬉野町大字下宿乙２５２９番地","latitude":33.09716322,"longitude":129.98503417,"id":"041b48ef-7df5-46c6-a47b-5cb15d2e4213"},{"name":"日子神社","prefectureName":"佐賀県","cityName":"鳥栖市","streetName":"轟木町１４７８番地","latitude":33.36954944,"longitude":130.5074306,"id":"f6d4c97c-25a1-4425-b648-57bde2ffdad5"},{"name":"日子神社","prefectureName":"佐賀県","cityName":"神埼市","streetName":"千代田町嘉納１０２４番地","latitude":33.27834048,"longitude":130.37569424,"id":"4ce05c81-47d4-4121-9e5c-85babfb209c4"},{"name":"日子神社","prefectureName":"佐賀県","cityName":"佐賀市","streetName":"西与賀町大字相応津１番地","latitude":33.22249831,"longitude":130.26669459,"id":"c0ff561d-b325-4e4b-8b78-166bbbe1e352"},{"name":"日子神社","prefectureName":"佐賀県","cityName":"武雄市","streetName":"武雄町大字富岡１１２２４番地","latitude":33.1947258,"longitude":130.021511,"id":"ee560b73-a71c-4ea2-a35b-8fce0ea9cd73"},{"name":"日子神社","prefectureName":"佐賀県","cityName":"小城市","streetName":"三日月町金田７５５番地","latitude":33.2736671,"longitude":130.2169329,"id":"4bc758bb-7d1d-4ba3-97a0-16dc8fb856d5"},{"name":"日子神社","prefectureName":"佐賀県","cityName":"小城市","streetName":"牛津町乙柳１１８０番地","latitude":33.24274234,"longitude":130.20897665,"id":"60a106a9-340b-4c86-ba0c-b10193240400"},{"name":"日時灑岳神社","prefectureName":"佐賀県","cityName":"杵島郡大町町","streetName":"大字大町３１６１番地","latitude":33.2139393,"longitude":130.1160222,"id":"c9531bbf-6db4-44b2-b46b-3d44c20b2545"},{"name":"日枝神社","prefectureName":"佐賀県","cityName":"唐津市","streetName":"屋形石２６６７番地","latitude":33.4501626,"longitude":129.9679895,"id":"9c9cef1a-7447-4e49-bf4c-6e1f2e637a19"},{"name":"日枝神社","prefectureName":"佐賀県","cityName":"唐津市","streetName":"鎮西町赤木３３５６番地","latitude":33.52691413,"longitude":129.91401233,"id":"bba4c998-b7e3-48d4-a388-d42160153dd7"},{"name":"日枝神社","prefectureName":"佐賀県","cityName":"唐津市","streetName":"鎮西町岩野２３０番地","latitude":33.53261012,"longitude":129.87758194,"id":"4e594cd2-31ee-4b3d-9fa8-740e1ba17052"},{"name":"日枝神社","prefectureName":"佐賀県","cityName":"唐津市","streetName":"鎮西町中野５９３２番地","latitude":33.53010806,"longitude":129.90421305,"id":"880032b1-bfe2-4846-bb96-b507469116b6"},{"name":"日枝神社","prefectureName":"佐賀県","cityName":"唐津市","streetName":"北波多下平野４２０５番地","latitude":33.3745815,"longitude":129.94170822,"id":"78ea93ef-daa8-4434-9c70-6021fdb58298"},{"name":"日枝神社","prefectureName":"佐賀県","cityName":"佐賀市","streetName":"木原１丁目８番３４号","latitude":33.24443939,"longitude":130.31916436,"id":"f2c5dc68-739a-4c6b-ab15-db84d86d4b3a"},{"name":"日枝神社","prefectureName":"佐賀県","cityName":"唐津市","streetName":"鳩川７３３１番地","latitude":33.4501626,"longitude":129.9679895,"id":"de22998c-5e43-4629-8abd-0c4c966e8faf"},{"name":"明神社","prefectureName":"佐賀県","cityName":"鹿島市","streetName":"大字常広字御殿５２６番地","latitude":33.1037232,"longitude":130.0987689,"id":"33b72ce9-efa1-4df2-b78b-478f2df02561"},{"name":"春日神社","prefectureName":"佐賀県","cityName":"唐津市","streetName":"相知町町切７４０番地","latitude":33.32478976,"longitude":130.03981095,"id":"8e5d0625-b32c-4897-8c89-423abb56983d"},{"name":"春日神社","prefectureName":"佐賀県","cityName":"佐賀市","streetName":"富士町大字大野１１５１番地１","latitude":33.43016942,"longitude":130.20041503,"id":"3a5603bc-23c7-4cc9-aa22-daf9996ba775"},{"name":"春日神社","prefectureName":"佐賀県","cityName":"佐賀市","streetName":"富士町大字麻那古６８１番地","latitude":33.44125149,"longitude":130.1936817,"id":"ad17e1ed-6bd4-4d6f-b032-a2a4cce0fe8e"},{"name":"春日神社","prefectureName":"佐賀県","cityName":"唐津市","streetName":"養母田３３１番地","latitude":33.41000572,"longitude":129.97827743,"id":"e3345c20-e533-40d2-9c15-307b0f7a525d"},{"name":"曲川神社","prefectureName":"佐賀県","cityName":"西松浦郡有田町","streetName":"下本乙３０２２番地","latitude":33.2105603,"longitude":129.8491143,"id":"319fa279-2b0f-4295-9a5e-e7252ed983b8"},{"name":"木起神社","prefectureName":"佐賀県","cityName":"伊万里市","streetName":"木須町３４６９番地","latitude":33.2974531,"longitude":129.86351763,"id":"9a12f187-18ed-4a5c-95b1-9b25b72b69a4"},{"name":"本庄神社","prefectureName":"佐賀県","cityName":"佐賀市","streetName":"本庄町大字本庄１１５５番地１","latitude":33.2634815,"longitude":130.3008572,"id":"3ed4484e-f0b3-4362-a514-171b5ba3bd44"},{"name":"杉神社","prefectureName":"佐賀県","cityName":"佐賀市","streetName":"三瀬村三瀬４０９番地１","latitude":33.44459212,"longitude":130.26963712,"id":"659404a1-c2d1-4d76-98fe-4d4d242a1f66"},{"name":"杵島神社","prefectureName":"佐賀県","cityName":"杵島郡白石町","streetName":"大字堤２２８４番地","latitude":33.1810349,"longitude":130.1434991,"id":"93f9def1-66fb-469e-a5d9-9827df3c679b"},{"name":"松原神社","prefectureName":"佐賀県","cityName":"佐賀市","streetName":"松原２丁目１０番２１号","latitude":33.25231872,"longitude":130.30378503,"id":"ec842ca5-4d2b-4c4a-89a4-f73c768f190f"},{"name":"松尾神社","prefectureName":"佐賀県","cityName":"武雄市","streetName":"西川登町大字神六２３３０９番地","latitude":33.1947258,"longitude":130.021511,"id":"b2cc8c70-6409-4bd9-8e97-816b53c980a2"},{"name":"松尾神社","prefectureName":"佐賀県","cityName":"佐賀市","streetName":"富士町大字下熊川７１２番地","latitude":33.37176713,"longitude":130.20645892,"id":"4670cd9c-30c1-4ae5-b650-5e5265eeb709"},{"name":"松山神社","prefectureName":"佐賀県","cityName":"鹿島市","streetName":"大字三河内乙３１７番地ロ","latitude":33.1037232,"longitude":130.0987689,"id":"606ab753-cf72-49df-9bbc-403cf45446d6"},{"name":"松岡神社","prefectureName":"佐賀県","cityName":"鹿島市","streetName":"浜町甲３７４０番地","latitude":33.08684467,"longitude":130.11375132,"id":"2ba656ca-16cb-4eaa-a20b-8392d5769af8"},{"name":"松島神社","prefectureName":"佐賀県","cityName":"伊万里市","streetName":"松島町４０３番地","latitude":33.27945835,"longitude":129.87662486,"id":"c58bdc39-3e04-4ec6-9763-07166ee99509"},{"name":"松枝神社","prefectureName":"佐賀県","cityName":"佐賀市","streetName":"川副町大字大詫間２１１番地","latitude":33.18761746,"longitude":130.31889075,"id":"638b0abe-779a-4812-9bb5-94c0b33a48f9"},{"name":"松蔭神社","prefectureName":"佐賀県","cityName":"鹿島市","streetName":"大字高津原４６０番地","latitude":33.10288432,"longitude":130.09284727,"id":"a317f4e0-9b31-49f4-81c4-5012172ef094"},{"name":"柄崎神社","prefectureName":"佐賀県","cityName":"武雄市","streetName":"武雄町大字武雄７４３６番地２","latitude":33.19655604,"longitude":130.01287266,"id":"1ea61888-df5e-4001-9079-277b0034c587"},{"name":"柏原神社","prefectureName":"佐賀県","cityName":"神埼市","streetName":"神埼町竹２７０５番地","latitude":33.30950408,"longitude":130.37388748,"id":"e16f4fa5-05c2-4dbe-98a3-c73ecc20403d"},{"name":"栗山神社","prefectureName":"佐賀県","cityName":"多久市","streetName":"多久町３３５番地","latitude":33.26798363,"longitude":130.10504776,"id":"f0efdc18-d26e-421c-aa7b-d37d70f0d907"},{"name":"梅ノ宮神社","prefectureName":"佐賀県","cityName":"武雄市","streetName":"橘町大字片白９１５２番地９１５３番地","latitude":33.17938621,"longitude":130.0538142,"id":"52cff960-5056-4f2e-99ab-00e222a3a52b"},{"name":"梅野神社","prefectureName":"佐賀県","cityName":"佐賀市","streetName":"大和町大字梅野２５５２番地","latitude":33.36569141,"longitude":130.26294077,"id":"327c8b57-c744-461b-b13f-b9443727076d"},{"name":"椎谷神社","prefectureName":"佐賀県","cityName":"西松浦郡有田町","streetName":"外尾町丙１２８０番地","latitude":33.2105603,"longitude":129.8491143,"id":"d50b3c63-3919-4523-84cd-de42000c92d4"},{"name":"楠久神社","prefectureName":"佐賀県","cityName":"伊万里市","streetName":"東山代町里３４８番地","latitude":33.28811761,"longitude":129.83506161,"id":"45ec5b63-859b-4880-b24a-7ccca4f8bcde"},{"name":"槵田神社","prefectureName":"佐賀県","cityName":"唐津市","streetName":"肥前町切木字切木乙３８３番地","latitude":33.44165751,"longitude":129.81626964,"id":"48f0caa6-8f88-474b-bd65-04b36255bb97"},{"name":"樋口神社","prefectureName":"佐賀県","cityName":"武雄市","streetName":"北方町大字大崎４５１８番地","latitude":33.22474001,"longitude":130.04870553,"id":"7ae72572-0495-49b5-867e-409e6b1d7f04"},{"name":"櫛田神社","prefectureName":"佐賀県","cityName":"唐津市","streetName":"肥前町新木場甲２２９３番地","latitude":33.42777888,"longitude":129.83685785,"id":"999f9394-614a-4157-b33b-eff18826b773"},{"name":"正一位神社","prefectureName":"佐賀県","cityName":"武雄市","streetName":"東川登町大字袴野１３５１１番地","latitude":33.1447741,"longitude":129.98853699,"id":"5ebb67c2-4e54-4381-9d26-4dd5901af61d"},{"name":"正現嶽ノ森稲荷神社","prefectureName":"佐賀県","cityName":"佐賀市","streetName":"金立町大字金立１５４２番地","latitude":33.33396462,"longitude":130.30657648,"id":"24da3a42-04ec-4f79-b7f4-8287fd0b4a9a"},{"name":"武内神社","prefectureName":"佐賀県","cityName":"武雄市","streetName":"武内町大字梅野乙１５０３８番地","latitude":33.1947258,"longitude":130.021511,"id":"7551cab4-89a5-4167-ac24-c39e0a9eb738"},{"name":"武雄神社","prefectureName":"佐賀県","cityName":"武雄市","streetName":"武雄町大字武雄５３２７番地","latitude":33.1947258,"longitude":130.021511,"id":"d7d47154-35eb-4a08-a1b9-318bddee056a"},{"name":"水天神社","prefectureName":"佐賀県","cityName":"鹿島市","streetName":"大字山浦３３２１番地","latitude":33.1037232,"longitude":130.0987689,"id":"76de2235-e0e6-41b9-8b02-359320616a4d"},{"name":"水影天神社","prefectureName":"佐賀県","cityName":"鳥栖市","streetName":"本鳥栖町４６８番地","latitude":33.37950722,"longitude":130.51866838,"id":"07ad2a6c-8b7c-4400-95d4-c5a8f2ae08db"},{"name":"水神社","prefectureName":"佐賀県","cityName":"嬉野市","streetName":"塩田町大字五町田乙３２番地","latitude":33.14720373,"longitude":130.06531034,"id":"82dabc80-f46c-403b-a837-6c8ba5a46e8b"},{"name":"永世神社","prefectureName":"佐賀県","cityName":"鳥栖市","streetName":"永吉町４７９番地","latitude":33.39956089,"longitude":130.53442723,"id":"b067e180-de79-4aee-9ed0-97662286ac52"},{"name":"池上神社","prefectureName":"佐賀県","cityName":"佐賀市","streetName":"大和町大字池上２１１６番地","latitude":33.2860229,"longitude":130.25376287,"id":"b0465bcc-2273-481e-b55a-f321271f66b0"},{"name":"沖神社","prefectureName":"佐賀県","cityName":"杵島郡白石町","streetName":"大字深浦５４０５番地","latitude":33.1810349,"longitude":130.1434991,"id":"52b0a690-da5a-4014-9416-db9514ffb740"},{"name":"沖神社","prefectureName":"佐賀県","cityName":"杵島郡白石町","streetName":"大字深浦２１０６番地","latitude":33.1810349,"longitude":130.1434991,"id":"321a85ad-1a03-49c9-b4d1-8b7ca9223f7e"},{"name":"沖神社","prefectureName":"佐賀県","cityName":"佐賀市","streetName":"嘉瀬町大字十五１５５６番地","latitude":33.22155928,"longitude":130.25942035,"id":"ca9b1197-d680-48b3-aa0c-18914bb635e7"},{"name":"沖神社","prefectureName":"佐賀県","cityName":"小城市","streetName":"芦刈町永田６１４番地","latitude":33.21484856,"longitude":130.20798236,"id":"50cb904e-0ab0-4cd0-b49a-72bd4672cb55"},{"name":"沖神社","prefectureName":"佐賀県","cityName":"小城市","streetName":"芦刈町永田９４番地","latitude":33.21371253,"longitude":130.21160986,"id":"7f515f50-dcfe-41d3-9915-9be010d15b82"},{"name":"沖神社","prefectureName":"佐賀県","cityName":"小城市","streetName":"芦刈町芦溝１０１４番地","latitude":33.23530431,"longitude":130.21311804,"id":"cefd4032-9f2c-4d57-8567-3950318b1182"},{"name":"沖神社","prefectureName":"佐賀県","cityName":"武雄市","streetName":"橘町大字片白７００４番地","latitude":33.17938621,"longitude":130.0538142,"id":"c55633f4-72f5-4ae5-b181-db87dab82545"},{"name":"沖神社","prefectureName":"佐賀県","cityName":"小城市","streetName":"芦刈町浜枝川４９５番地","latitude":33.23624311,"longitude":130.20357149,"id":"c80c214a-35f0-4e35-a319-cc243bf7afec"},{"name":"河上神社","prefectureName":"佐賀県","cityName":"鹿島市","streetName":"大字飯田丙５６２番地","latitude":33.1037232,"longitude":130.0987689,"id":"4e859c23-d420-4470-a900-b9a06ff43db1"},{"name":"波多八幡神社","prefectureName":"佐賀県","cityName":"唐津市","streetName":"北波多稗田２１５５番地","latitude":33.36879347,"longitude":129.95128252,"id":"5c1e5988-4e36-4d56-b8e2-9e615f278b46"},{"name":"波多津神社","prefectureName":"佐賀県","cityName":"唐津市","streetName":"鎮西町串３４４番地","latitude":33.5163338,"longitude":129.85427571,"id":"89dea3b3-a90b-4a69-8672-220fc57bda86"},{"name":"浅間神社","prefectureName":"佐賀県","cityName":"藤津郡太良町","streetName":"大字大浦丙５２７番地","latitude":32.95992724,"longitude":130.21719136,"id":"c1031224-2b1f-4ea0-a89f-db724ea66595"},{"name":"浅間神社","prefectureName":"佐賀県","cityName":"藤津郡太良町","streetName":"大字大浦乙１２３４番地","latitude":32.9612656,"longitude":130.19147915,"id":"a4f53735-94f2-462a-87af-193c5af7ac95"},{"name":"海神社","prefectureName":"佐賀県","cityName":"東松浦郡玄海町","streetName":"大字新田字沖ノ田１８０９番地","latitude":33.4721971,"longitude":129.8750862,"id":"fe15e1e6-a60a-4941-a30e-2d2e5bb08baf"},{"name":"海童神社","prefectureName":"佐賀県","cityName":"神埼市","streetName":"神埼町鶴４１６０番地","latitude":33.30950408,"longitude":130.37388748,"id":"28e8467f-7889-4a5d-b416-6bf4c7d2ec03"},{"name":"海童神社","prefectureName":"佐賀県","cityName":"鹿島市","streetName":"大字森１３８５番地","latitude":33.12422343,"longitude":130.08579193,"id":"d0bfbccf-e4e2-4658-807f-cfdd3881b551"},{"name":"海童神社","prefectureName":"佐賀県","cityName":"神埼郡吉野ヶ里町","streetName":"吉田９８８番地","latitude":33.3211889,"longitude":130.3988022,"id":"68957e77-e2f4-4411-a3be-67f7e5fc71fa"},{"name":"海童神社","prefectureName":"佐賀県","cityName":"小城市","streetName":"牛津町柿樋瀬１００５番地","latitude":33.24274234,"longitude":130.20897665,"id":"f5f10f69-a096-445d-82e7-7cfa57d62727"},{"name":"海童神社","prefectureName":"佐賀県","cityName":"唐津市","streetName":"相知町湯屋１３２４番地","latitude":33.34967765,"longitude":130.01305059,"id":"298c7f4f-a945-4138-b2c0-293336b3a15c"},{"name":"海童神社","prefectureName":"佐賀県","cityName":"佐賀市","streetName":"川副町大字犬井道６２４番地","latitude":33.18761746,"longitude":130.31889075,"id":"b39e346f-d9d9-4e59-9f24-f9cc5a03a669"},{"name":"海童神社","prefectureName":"佐賀県","cityName":"神埼郡吉野ヶ里町","streetName":"三津２４６４番地","latitude":33.35836092,"longitude":130.38758504,"id":"40645353-66ee-4cdc-8213-c55d74b0a6a8"},{"name":"海童神社","prefectureName":"佐賀県","cityName":"杵島郡白石町","streetName":"大字深浦８５６番地１","latitude":33.13653659,"longitude":130.12256661,"id":"8d3035d6-57ce-42fa-b5b1-cd75e6215a10"},{"name":"海童神社","prefectureName":"佐賀県","cityName":"武雄市","streetName":"北方町大字志久４３０５番地","latitude":33.21766897,"longitude":130.08577206,"id":"cc60c498-64b3-45ef-9428-616ccb5c07e9"},{"name":"海童神社","prefectureName":"佐賀県","cityName":"嬉野市","streetName":"塩田町大字久間丁３９６１番地","latitude":33.14720373,"longitude":130.06531034,"id":"2de5181d-8001-4841-ba0f-e687ee9b5814"},{"name":"淀姫神社","prefectureName":"佐賀県","cityName":"伊万里市","streetName":"大川町大川野１９７３番地","latitude":33.29999849,"longitude":129.97361049,"id":"4852a20c-09fb-4b64-8a95-27753cba1fe8"},{"name":"淀姫神社","prefectureName":"佐賀県","cityName":"西松浦郡有田町","streetName":"桑木原乙１３１９番地","latitude":33.21857334,"longitude":129.84768923,"id":"8beb08d3-39df-4e6b-948d-758eac725c6f"},{"name":"淀姫神社","prefectureName":"佐賀県","cityName":"佐賀市","streetName":"川副町大字福富６９番地","latitude":33.18761746,"longitude":130.31889075,"id":"9c801464-3142-40d5-8c42-dd2e38efa391"},{"name":"淀姫神社","prefectureName":"佐賀県","cityName":"佐賀市","streetName":"富士町大字上無津呂２８４４番地","latitude":33.45787496,"longitude":130.19749175,"id":"6db0bcc7-da8b-497f-b20d-faaa7453ef01"},{"name":"淀姫神社","prefectureName":"佐賀県","cityName":"佐賀市","streetName":"富士町大字古湯９６１番地","latitude":33.37343077,"longitude":130.20305074,"id":"9376022b-9d46-4162-a103-6a12d2fc0822"},{"name":"淀姫神社","prefectureName":"佐賀県","cityName":"武雄市","streetName":"朝日町大字中野１０２４７番地１","latitude":33.22423099,"longitude":130.02529895,"id":"63f5d243-98c6-4829-beec-0b22d0ffa5ee"},{"name":"淀姫神社","prefectureName":"佐賀県","cityName":"武雄市","streetName":"武雄町大字武雄７１５２番地","latitude":33.19570336,"longitude":130.01415315,"id":"1577caeb-179a-43c5-bd56-3973d626fe05"},{"name":"淀姫神社","prefectureName":"佐賀県","cityName":"小城市","streetName":"三日月町堀江８２７番地","latitude":33.2736671,"longitude":130.2169329,"id":"3e13da66-8262-4049-9956-020c170f08f3"},{"name":"淀姫神社","prefectureName":"佐賀県","cityName":"伊万里市","streetName":"木須町５７６０番地","latitude":33.29421718,"longitude":129.85401843,"id":"9ec6de56-255b-443f-8305-f2e648dcadec"},{"name":"淀姫神社","prefectureName":"佐賀県","cityName":"東松浦郡玄海町","streetName":"大字今村４７３５番地","latitude":33.51351736,"longitude":129.84769576,"id":"d44b9b11-c314-4a37-b4bd-71fb9f49f32d"},{"name":"渕上神社","prefectureName":"佐賀県","cityName":"唐津市","streetName":"浜玉町渕上１２３０番地２","latitude":33.45541415,"longitude":130.04404153,"id":"3844290e-3520-455e-b8ad-81fb13918d42"},{"name":"潮見神社","prefectureName":"佐賀県","cityName":"武雄市","streetName":"橘町大字永島１７３４３番地","latitude":33.17521157,"longitude":130.04663996,"id":"b48e2da8-d55b-442e-8bf4-d914ce441837"},{"name":"澤原神社","prefectureName":"佐賀県","cityName":"杵島郡白石町","streetName":"大字坂田３２３６番地","latitude":33.1480599,"longitude":130.09985132,"id":"b4fb3096-9a5d-49c5-817c-daddcbdaaa31"},{"name":"瀬川神社","prefectureName":"佐賀県","cityName":"小城市","streetName":"芦刈町芦溝１７２番地","latitude":33.21484856,"longitude":130.20798236,"id":"7ee19ad5-fee7-4ed5-9d2e-5b800dc97826"},{"name":"熊野原神社","prefectureName":"佐賀県","cityName":"唐津市","streetName":"西寺町１３６３番地","latitude":33.44842932,"longitude":129.96442581,"id":"e9418583-46f9-4697-903b-8e5d7849cfb7"},{"name":"熊野皇神社","prefectureName":"佐賀県","cityName":"唐津市","streetName":"鎮西町打上１３０３番地","latitude":33.51922603,"longitude":129.90895459,"id":"5960f080-b45f-4e9e-a675-bace974cb8c3"},{"name":"熊野神社","prefectureName":"佐賀県","cityName":"神埼郡吉野ヶ里町","streetName":"吉田８２６番地１６","latitude":33.32517198,"longitude":130.40266016,"id":"c27a2501-dcfd-4f30-ab8d-22dc0ba53fdf"},{"name":"熊野神社","prefectureName":"佐賀県","cityName":"唐津市","streetName":"相知町町切４６２番地４","latitude":33.32505921,"longitude":130.0418719,"id":"327a7f25-3f89-497b-90ff-7ba7aa7dbad4"},{"name":"熊野神社","prefectureName":"佐賀県","cityName":"神埼郡吉野ヶ里町","streetName":"吉田６７３番地１９","latitude":33.32878011,"longitude":130.40638203,"id":"2ff0cc4c-ee82-40d5-9f2d-3727c10f9532"},{"name":"熊野神社","prefectureName":"佐賀県","cityName":"唐津市","streetName":"神田１９７１番地","latitude":33.4399049,"longitude":129.9606064,"id":"08fa7cce-44ff-4598-b171-c272703c040e"},{"name":"熊野神社","prefectureName":"佐賀県","cityName":"唐津市","streetName":"相知町相知２４７３番地","latitude":33.34967765,"longitude":130.01305059,"id":"9bcd7cca-9a58-4292-9dad-e3d77d1300a0"},{"name":"熊野神社","prefectureName":"佐賀県","cityName":"杵島郡白石町","streetName":"大字辺田１３００番地","latitude":33.16591936,"longitude":130.11307548,"id":"da1f7af0-5a8c-4649-8d5d-b2fe2d24fa99"},{"name":"熊野神社","prefectureName":"佐賀県","cityName":"杵島郡白石町","streetName":"大字深浦４６８４番地","latitude":33.1810349,"longitude":130.1434991,"id":"c1b9f2c1-2b39-4426-b6ca-b5281e87fce5"},{"name":"熊野神社","prefectureName":"佐賀県","cityName":"神埼郡吉野ヶ里町","streetName":"三津１３２３番地","latitude":33.34811172,"longitude":130.388477,"id":"73aea1d6-b2c9-46a9-b78e-c692fcc73b3f"},{"name":"熊野神社","prefectureName":"佐賀県","cityName":"佐賀市","streetName":"大和町大字八反原５７８番地","latitude":33.31071333,"longitude":130.28135746,"id":"3f0f00df-fbe3-43bb-a938-59b997cb6929"},{"name":"熊野神社","prefectureName":"佐賀県","cityName":"嬉野市","streetName":"嬉野町大字岩屋川内甲１１３１番地","latitude":33.09716322,"longitude":129.98503417,"id":"29462263-e274-4488-b2a4-a09eb164176c"},{"name":"熊野神社","prefectureName":"佐賀県","cityName":"神埼郡吉野ヶ里町","streetName":"三津１８９２番地","latitude":33.3211889,"longitude":130.3988022,"id":"a69bceb9-fa64-4a57-98bf-4c9f1306513a"},{"name":"熊野神社","prefectureName":"佐賀県","cityName":"伊万里市","streetName":"大川町駒鳴２４４４番地","latitude":33.32559294,"longitude":129.96727095,"id":"87180315-26c5-44ce-bbf5-60b7b902389a"},{"name":"熊野神社","prefectureName":"佐賀県","cityName":"鳥栖市","streetName":"原古賀町５１２番地","latitude":33.3777544,"longitude":130.506258,"id":"30d1b9a7-4cad-4843-b68d-84d7ca15d6d0"},{"name":"熊野神社","prefectureName":"佐賀県","cityName":"神埼郡吉野ヶ里町","streetName":"松隈１００、１０２番地","latitude":33.3211889,"longitude":130.3988022,"id":"f26fe194-2b1d-4269-8217-a325c7e49cca"},{"name":"熊野神社","prefectureName":"佐賀県","cityName":"神埼郡吉野ヶ里町","streetName":"三津２３７２番地１","latitude":33.3211889,"longitude":130.3988022,"id":"19b9b436-9c85-4d69-9919-d96f7f7123d0"},{"name":"熊野神社","prefectureName":"佐賀県","cityName":"多久市","streetName":"多久町６８８０番地","latitude":33.27728288,"longitude":130.08877385,"id":"9ccdc867-f24b-4574-84e6-572950365715"},{"name":"熊野神社","prefectureName":"佐賀県","cityName":"武雄市","streetName":"北方町大字芦原５８０４番地","latitude":33.20080089,"longitude":130.06301867,"id":"f8c92bfa-47b6-4fb8-bd73-8a09f180434f"},{"name":"熊野神社","prefectureName":"佐賀県","cityName":"神埼郡吉野ヶ里町","streetName":"松隈１２９５番地","latitude":33.37592929,"longitude":130.40045301,"id":"5bfd68c0-3208-4ec9-a86b-7fda26a9f98f"},{"name":"熊野神社","prefectureName":"佐賀県","cityName":"唐津市","streetName":"肥前町湯野浦７２６番地","latitude":33.44165751,"longitude":129.81626964,"id":"6d3b9751-6048-465e-827a-164aea908adb"},{"name":"熊野神社","prefectureName":"佐賀県","cityName":"唐津市","streetName":"肥前町万賀里川字神ノ前７３４番地","latitude":33.44165751,"longitude":129.81626964,"id":"97e0c5a8-3823-450f-9038-47036cc7f359"},{"name":"熊野神社","prefectureName":"佐賀県","cityName":"佐賀市","streetName":"巨勢町大字修理田１１０９番地","latitude":33.26075211,"longitude":130.32417734,"id":"ff856595-4537-47aa-a1c5-6d4cfcc3f110"},{"name":"熊野神社","prefectureName":"佐賀県","cityName":"藤津郡太良町","streetName":"大字大浦乙３１８番地","latitude":33.01941,"longitude":130.1789733,"id":"302dba51-faa1-4953-b21d-93084c04af40"},{"name":"熊野神社","prefectureName":"佐賀県","cityName":"伊万里市","streetName":"松浦町中野原３３６２番地イ","latitude":33.2717261,"longitude":129.95873488,"id":"0e4dea33-c404-4ab5-a815-2302eeb4992c"},{"name":"熊野神社","prefectureName":"佐賀県","cityName":"唐津市","streetName":"肥前町瓜ケ坂１１０１番地","latitude":33.41180013,"longitude":129.83679786,"id":"5d0828df-8cac-40b8-b0f7-cfb78d6e6a52"},{"name":"熊野神社","prefectureName":"佐賀県","cityName":"唐津市","streetName":"肥前町大浦字西ノ平８５１番地イ","latitude":33.44165751,"longitude":129.81626964,"id":"1bb8a547-bb59-495f-8e41-aa4d288ef0ce"},{"name":"熊野神社","prefectureName":"佐賀県","cityName":"藤津郡太良町","streetName":"大字大浦乙１４５６番地","latitude":32.96471813,"longitude":130.20058973,"id":"e298058d-8261-472e-9df9-5b331782bffa"},{"name":"熊野神社","prefectureName":"佐賀県","cityName":"唐津市","streetName":"山本５４５番地","latitude":33.38992748,"longitude":129.98076325,"id":"148a1ba0-e3aa-4703-8aec-88d271757e56"},{"name":"熊野神社","prefectureName":"佐賀県","cityName":"唐津市","streetName":"厳木町厳木１３４０番地","latitude":33.31414933,"longitude":130.06479445,"id":"50a516af-e74d-4cb0-ad93-d5197830dd3b"},{"name":"熊野神社","prefectureName":"佐賀県","cityName":"唐津市","streetName":"相知町長部田９９３番地","latitude":33.33765815,"longitude":130.03371728,"id":"8ce09e74-337d-4d3e-98cf-3dc6654336be"},{"name":"牛尾神社","prefectureName":"佐賀県","cityName":"小城市","streetName":"小城町池上４７９３番地","latitude":33.29321993,"longitude":130.19898271,"id":"e60a6f1d-62df-4b27-900e-0732e48e7de9"},{"name":"牛神社","prefectureName":"佐賀県","cityName":"伊万里市","streetName":"南波多町大川原３１１７番地","latitude":33.2645853,"longitude":129.8802692,"id":"21b90a48-0743-43b7-8ebc-33523a04e052"},{"name":"物部神社","prefectureName":"佐賀県","cityName":"三養基郡みやき町","streetName":"大字中津隈２７２５番地","latitude":33.3246734,"longitude":130.4543848,"id":"5fc6961d-f467-44a4-b52a-b8ee18477c2e"},{"name":"猿田彦神社","prefectureName":"佐賀県","cityName":"唐津市","streetName":"見借３４４９番地","latitude":33.44231788,"longitude":129.94147125,"id":"74a1d835-9405-436c-8af9-d4cdf6b282b4"},{"name":"猿田彦神社","prefectureName":"佐賀県","cityName":"佐賀市","streetName":"兵庫町大字渕２６２９番地","latitude":33.2634815,"longitude":130.3008572,"id":"0e253700-40d3-4bef-b5db-5ed1916e3e6c"},{"name":"猿若神社","prefectureName":"佐賀県","cityName":"佐賀市","streetName":"富士町大字上熊川８６番地","latitude":33.37176713,"longitude":130.20645892,"id":"4dcd15d1-b943-4f7e-9c3e-98b81ad1f469"},{"name":"玉垂神社","prefectureName":"佐賀県","cityName":"武雄市","streetName":"武雄町大字永島１４７２４番地","latitude":33.18949596,"longitude":130.03659615,"id":"67b49b09-9617-4370-bc8a-a1b97404d0c4"},{"name":"玉垂神社","prefectureName":"佐賀県","cityName":"武雄市","streetName":"北方町大字志久４７３８番地","latitude":33.21948546,"longitude":130.08695251,"id":"2dad3887-9384-4c07-904a-45f2371d5b47"},{"name":"玉嶌神社","prefectureName":"佐賀県","cityName":"唐津市","streetName":"浜玉町南山２３９６番地","latitude":33.44155608,"longitude":130.06355043,"id":"55fdd0dc-890b-4d14-9bf4-a4b5b93a5a6d"},{"name":"玉里神社","prefectureName":"佐賀県","cityName":"佐賀市","streetName":"三瀬村藤原９９４番地イ","latitude":33.43834573,"longitude":130.30909242,"id":"f6ed8854-db47-4cde-afbf-c3122d5a078e"},{"name":"王子神社","prefectureName":"佐賀県","cityName":"神埼市","streetName":"千代田町用作１５０６番地","latitude":33.25997804,"longitude":130.3715781,"id":"085a17cc-5803-4d87-8a53-51c681ac7bb9"},{"name":"琴比羅神社","prefectureName":"佐賀県","cityName":"嬉野市","streetName":"塩田町大字大草野丙１６０５番地","latitude":33.14720373,"longitude":130.06531034,"id":"65699f1b-651b-4f7d-8d7e-edb30923a02a"},{"name":"琴路神社","prefectureName":"佐賀県","cityName":"鹿島市","streetName":"大字納富分１９３９番地","latitude":33.09563244,"longitude":130.09853858,"id":"508ff0a5-6d0c-4b97-a8e8-c7ceb85599cc"},{"name":"田上神社","prefectureName":"佐賀県","cityName":"神埼市","streetName":"神埼町竹３５１番地","latitude":33.30950408,"longitude":130.37388748,"id":"4f64c43f-c494-493d-8a79-1ad0977689a0"},{"name":"田島神社","prefectureName":"佐賀県","cityName":"伊万里市","streetName":"波多津町木場２２３１番地","latitude":33.40325205,"longitude":129.89314772,"id":"514a891e-079b-4dc7-8e19-2283ce681b8c"},{"name":"田島神社","prefectureName":"佐賀県","cityName":"唐津市","streetName":"肥前町杉ノ浦６８０番地","latitude":33.44165751,"longitude":129.81626964,"id":"c4b4caf5-c79c-497a-8df7-20e2d5cdabb3"},{"name":"田島神社","prefectureName":"佐賀県","cityName":"唐津市","streetName":"肥前町上ケ倉３３番地","latitude":33.41816333,"longitude":129.83962491,"id":"b93b5dc5-8a99-496f-94d7-604e0a2a7639"},{"name":"田島神社","prefectureName":"佐賀県","cityName":"伊万里市","streetName":"波多津町筒井１００７番地","latitude":33.3847848,"longitude":129.89285431,"id":"03d37a05-11a9-4d96-b776-61806dd92146"},{"name":"田島神社","prefectureName":"佐賀県","cityName":"唐津市","streetName":"鎮西町横竹５８５番地","latitude":33.52499745,"longitude":129.90013847,"id":"da64f762-1bb3-4e6a-a11e-9540f51bc463"},{"name":"田島神社","prefectureName":"佐賀県","cityName":"唐津市","streetName":"唐ノ川７０７番地","latitude":33.4501626,"longitude":129.9679895,"id":"e844a478-2ce7-4ba6-ae7b-5806595d3ff8"},{"name":"田島神社","prefectureName":"佐賀県","cityName":"唐津市","streetName":"呼子町加部島３９５６番地","latitude":33.55583283,"longitude":129.89050281,"id":"8d510bcf-aeb7-454b-ac97-302945150a09"},{"name":"田島神社","prefectureName":"佐賀県","cityName":"唐津市","streetName":"呼子町小川島２７９番地","latitude":33.59619234,"longitude":129.89891545,"id":"dd7dbc32-362c-4429-b4f1-a26d39bcda53"},{"name":"田島神社","prefectureName":"佐賀県","cityName":"唐津市","streetName":"北波多岸山５０８番地","latitude":33.3745815,"longitude":129.94170822,"id":"d0db344e-ee6b-4551-9a88-eaa183123828"},{"name":"田島神社","prefectureName":"佐賀県","cityName":"唐津市","streetName":"呼子町殿ノ浦１５４７番地","latitude":33.53818754,"longitude":129.89167792,"id":"92f58702-6566-4431-8e19-02dd13b5303e"},{"name":"田島神社","prefectureName":"佐賀県","cityName":"伊万里市","streetName":"波多津町板木９３２番地","latitude":33.37032559,"longitude":129.9050899,"id":"d1e4e75f-04f0-45c1-9f07-10e10d5b3f08"},{"name":"田島神社","prefectureName":"佐賀県","cityName":"唐津市","streetName":"肥前町入野甲１２０８番地","latitude":33.44165751,"longitude":129.81626964,"id":"1b9f9cf4-e6c5-4237-85d9-d2b0c8f1ffb1"},{"name":"田嶋神社","prefectureName":"佐賀県","cityName":"伊万里市","streetName":"波多津町畑津１２６０番地","latitude":33.3650727,"longitude":129.87507936,"id":"dd63af53-19cb-456e-b9b5-493db752b5ab"},{"name":"田手神社","prefectureName":"佐賀県","cityName":"神埼郡吉野ヶ里町","streetName":"田手１５２７番地","latitude":33.3190057,"longitude":130.38755554,"id":"675d11b8-3534-4864-b3ef-31f462c08120"},{"name":"男女神社","prefectureName":"佐賀県","cityName":"佐賀市","streetName":"大和町大字久留間２４８７番地１","latitude":33.31071333,"longitude":130.28135746,"id":"9aa13524-cd07-4d47-907c-519925637840"},{"name":"男女神社","prefectureName":"佐賀県","cityName":"佐賀市","streetName":"大和町大字久留間５１０９番地","latitude":33.31777914,"longitude":130.23152431,"id":"9591c8ec-e7d0-4893-a01d-833543b7e094"},{"name":"白山神社","prefectureName":"佐賀県","cityName":"唐津市","streetName":"七山仁部１１８番地","latitude":33.4501626,"longitude":129.9679895,"id":"ca7a456e-42ca-4d3b-9d90-2efa03599fde"},{"name":"白山神社","prefectureName":"佐賀県","cityName":"東松浦郡玄海町","streetName":"大字値賀川内１２３４番地","latitude":33.50049413,"longitude":129.87020804,"id":"7eb7c5db-939f-4e28-9536-42e67455b56e"},{"name":"白山神社","prefectureName":"佐賀県","cityName":"唐津市","streetName":"厳木町岩屋６８番地","latitude":33.32099592,"longitude":130.06489445,"id":"6b7bb391-bb44-44ca-9357-e8c16b8095d1"},{"name":"白山神社","prefectureName":"佐賀県","cityName":"嬉野市","streetName":"嬉野町大字岩屋川内乙９２０番地","latitude":33.09716322,"longitude":129.98503417,"id":"77d8c3fa-8469-4a71-b495-f27e533d942c"},{"name":"白山神社","prefectureName":"佐賀県","cityName":"佐賀市","streetName":"富士町大字関屋１９４５番地","latitude":33.40158451,"longitude":130.23754416,"id":"e6a5a464-9d51-4cd0-9bb8-d9d578d339ec"},{"name":"白山神社","prefectureName":"佐賀県","cityName":"伊万里市","streetName":"南波多町井手野２９２５番地","latitude":33.3158736,"longitude":129.92764443,"id":"1b34768a-1df9-4749-b91c-ce5d8b3e30f0"},{"name":"白峯神社","prefectureName":"佐賀県","cityName":"伊万里市","streetName":"南波多町小麦原１２３番地","latitude":33.2645853,"longitude":129.8802692,"id":"d6ee2122-1972-4278-9cdc-43e2f0a5a203"},{"name":"白幡神社","prefectureName":"佐賀県","cityName":"伊万里市","streetName":"東山代町里３４８番地","latitude":33.28811761,"longitude":129.83506161,"id":"5f81f8f8-57ad-4fbc-b014-23bf790398b8"},{"name":"白石神社","prefectureName":"佐賀県","cityName":"三養基郡みやき町","streetName":"大字白壁３９５６番地","latitude":33.3246734,"longitude":130.4543848,"id":"4d6579e0-e3ea-46b6-9d30-efdfc5462073"},{"name":"白石神社","prefectureName":"佐賀県","cityName":"佐賀市","streetName":"富士町大字杉山８９２番地","latitude":33.39077834,"longitude":130.1673327,"id":"45fce2fd-e771-4971-880b-d00bf926e46d"},{"name":"白髭神社","prefectureName":"佐賀県","cityName":"神埼市","streetName":"千代田町餘江１１８０番地","latitude":33.26194173,"longitude":130.35452693,"id":"7df64fbb-7ae2-4e6b-9b2c-12bf2cc9a6ed"},{"name":"白髭神社","prefectureName":"佐賀県","cityName":"佐賀市","streetName":"金立町大字千布２１４０番地","latitude":33.2634815,"longitude":130.3008572,"id":"1622c860-8a6e-4261-a884-4477d646d1c1"},{"name":"白髭神社","prefectureName":"佐賀県","cityName":"佐賀市","streetName":"富士町大字小副川５３０番地２４","latitude":33.36387171,"longitude":130.24420628,"id":"341a1df0-35c3-44e7-a780-0e095db99603"},{"name":"白鬚神社","prefectureName":"佐賀県","cityName":"佐賀市","streetName":"久保泉町大字下和泉２６８９番地","latitude":33.30852264,"longitude":130.32300966,"id":"73d43336-3be2-41f6-abba-7726729cfa6d"},{"name":"白鬚神社","prefectureName":"佐賀県","cityName":"佐賀市","streetName":"久保泉町大字上和泉２１２１番地","latitude":33.30443125,"longitude":130.31841029,"id":"f0d6f97c-f3c0-49e9-ba1b-c03eb2aecf55"},{"name":"白鬚神社","prefectureName":"佐賀県","cityName":"佐賀市","streetName":"久保泉町大字川久保３４６６番地","latitude":33.33223431,"longitude":130.32552172,"id":"83a62de9-ad4e-49c6-9a41-71d4e378e6ae"},{"name":"皇大神社","prefectureName":"佐賀県","cityName":"唐津市","streetName":"相知町平山上２６８番地","latitude":33.34967765,"longitude":130.01305059,"id":"ea15f664-2f3f-4f3f-a855-814fa3dc26d7"},{"name":"真島神社","prefectureName":"佐賀県","cityName":"佐賀市","streetName":"大和町大字尼寺１０５９番地","latitude":33.31071333,"longitude":130.28135746,"id":"787bd117-cfb0-4c9e-86a6-6158d4f87bb7"},{"name":"矢房神社","prefectureName":"佐賀県","cityName":"唐津市","streetName":"呼子町大友８７７７番地","latitude":33.53570206,"longitude":129.91713683,"id":"036af93b-fb14-4db3-98c6-72bbe30ffd68"},{"name":"矢房神社","prefectureName":"佐賀県","cityName":"唐津市","streetName":"中里３４４番地","latitude":33.52301751,"longitude":129.92416721,"id":"6a6efd32-30e4-4fdb-a1a0-d6dd3251563c"},{"name":"矢房神社","prefectureName":"佐賀県","cityName":"西松浦郡有田町","streetName":"広瀬甲４０７番地１","latitude":33.21092725,"longitude":129.85768008,"id":"c09870d4-2742-4186-862c-d98498762c7a"},{"name":"矢筈神社","prefectureName":"佐賀県","cityName":"武雄市","streetName":"西川登町大字神六３０４５７番地１","latitude":33.1947258,"longitude":130.021511,"id":"3c9e1abd-64fb-429d-820e-c35d92bcea65"},{"name":"石室神社","prefectureName":"佐賀県","cityName":"唐津市","streetName":"鎮西町石室９８７番地","latitude":33.50526336,"longitude":129.89039779,"id":"2c7d7586-7d95-4749-8ece-1349e00b9f8d"},{"name":"礒前神社","prefectureName":"佐賀県","cityName":"唐津市","streetName":"厳木町箞木１８番地","latitude":33.32099592,"longitude":130.06489445,"id":"202c3920-f845-4090-9305-66b98a5b2fe3"},{"name":"社神社","prefectureName":"佐賀県","cityName":"小城市","streetName":"三日月町金田１４９番地","latitude":33.2736671,"longitude":130.2169329,"id":"6ef58791-5a28-461c-97e5-f27714c0b8c7"},{"name":"祐徳稲荷神社","prefectureName":"佐賀県","cityName":"鹿島市","streetName":"古枝乙１８５５番地","latitude":33.07344591,"longitude":130.1081969,"id":"04152753-7d9b-41ec-bb8e-1798f8b814be"},{"name":"神道大成教天津神社","prefectureName":"佐賀県","cityName":"神埼郡吉野ヶ里町","streetName":"石動４１３番地１","latitude":33.36683,"longitude":130.40008101,"id":"4e12f63d-737b-4521-aebb-e54a352bb580"},{"name":"福富神社","prefectureName":"佐賀県","cityName":"杵島郡白石町","streetName":"大字福富２２３番地","latitude":33.1810349,"longitude":130.1434991,"id":"17db3ffd-31db-4aa0-8808-28615cfdf6ee"},{"name":"秋葉神社","prefectureName":"佐賀県","cityName":"鳥栖市","streetName":"秋葉町１丁目１０２１番地","latitude":33.37097445,"longitude":130.51449403,"id":"2fb62edc-13a7-485a-8e13-7d6358ebeccc"},{"name":"秋葉神社","prefectureName":"佐賀県","cityName":"伊万里市","streetName":"南波多町高瀬３４１番地","latitude":33.2645853,"longitude":129.8802692,"id":"dc5cf844-17bc-4873-84c8-4df988532d83"},{"name":"稲主神社","prefectureName":"佐賀県","cityName":"武雄市","streetName":"北方町大字志久３２８１番地","latitude":33.22106847,"longitude":130.06930952,"id":"a81b6928-abff-417d-9a45-13a76d0c9175"},{"name":"稲佐神社","prefectureName":"佐賀県","cityName":"杵島郡白石町","streetName":"大字辺田２９２５番地","latitude":33.16313059,"longitude":130.10087598,"id":"e422a30e-2d07-42c0-9596-ea491dfd41b9"},{"name":"稲荷神社","prefectureName":"佐賀県","cityName":"小城市","streetName":"小城町畑田１１７３番地","latitude":33.2772406,"longitude":130.19534529,"id":"b8f6f8ee-8d33-4461-b27c-8458954e1480"},{"name":"稲荷神社","prefectureName":"佐賀県","cityName":"唐津市","streetName":"厳木町鳥越４６番地","latitude":33.32099592,"longitude":130.06489445,"id":"58dd557e-a68f-47cb-bd97-2111a379387f"},{"name":"稲荷神社","prefectureName":"佐賀県","cityName":"唐津市","streetName":"相知町佐里又３１３１番地","latitude":33.34967765,"longitude":130.01305059,"id":"07a4416b-b10c-4807-a29c-1bc52714a402"},{"name":"稲荷神社","prefectureName":"佐賀県","cityName":"小城市","streetName":"牛津町下砥川５６６番地","latitude":33.24274234,"longitude":130.20897665,"id":"974c7531-d3f4-4c90-9b7f-52a122a143a7"},{"name":"稲荷神社","prefectureName":"佐賀県","cityName":"唐津市","streetName":"相知町楠３５４３番地","latitude":33.34967765,"longitude":130.01305059,"id":"58f756f6-2137-41a6-b45b-c2445e318032"},{"name":"稲荷神社","prefectureName":"佐賀県","cityName":"佐賀市","streetName":"兵庫町大字渕２７０３番地","latitude":33.29020186,"longitude":130.31362233,"id":"54cb578d-744b-49e0-b30a-fdc530d2c37a"},{"name":"稲荷神社","prefectureName":"佐賀県","cityName":"杵島郡江北町","streetName":"大字惣領分２０５８番地","latitude":33.2205947,"longitude":130.1575302,"id":"c8f21bdb-53ad-4dc2-846f-bf6e505ec9da"},{"name":"稲荷神社","prefectureName":"佐賀県","cityName":"西松浦郡有田町","streetName":"桑木原乙１３１９番地","latitude":33.21857334,"longitude":129.84768923,"id":"cb1b5c15-d58a-4eb9-992c-6a32ad39101a"},{"name":"稲荷神社","prefectureName":"佐賀県","cityName":"佐賀市","streetName":"兵庫北１丁目１９番１１号","latitude":33.26632887,"longitude":130.31084522,"id":"a5700205-694f-4188-8af3-f2698e4411f1"},{"name":"稲荷神社","prefectureName":"佐賀県","cityName":"唐津市","streetName":"北波多稗田３４０番地","latitude":33.3745815,"longitude":129.94170822,"id":"753e6228-8e63-4891-9f3a-01f93b7ee969"},{"name":"稲荷神社","prefectureName":"佐賀県","cityName":"佐賀市","streetName":"嘉瀬町大字十五１１６８番地","latitude":33.2634815,"longitude":130.3008572,"id":"bbba6cba-8dac-4706-81bf-fd374c624dd5"},{"name":"稲荷神社","prefectureName":"佐賀県","cityName":"西松浦郡有田町","streetName":"桑木原乙１３１９番地","latitude":33.21857334,"longitude":129.84768923,"id":"5b2f46af-5ed4-4d10-8073-f27adc282176"},{"name":"窟神社","prefectureName":"佐賀県","cityName":"伊万里市","streetName":"大川内町甲５８５番地","latitude":33.2645853,"longitude":129.8802692,"id":"dd24e63f-3be9-4ec1-8539-55c0d401f61d"},{"name":"立中神社","prefectureName":"佐賀県","cityName":"小城市","streetName":"小城町畑田５１３５番地","latitude":33.29321993,"longitude":130.19898271,"id":"74db3ae6-a3c7-4fe3-ae21-dbccb6810f98"},{"name":"立岩神社","prefectureName":"佐賀県","cityName":"伊万里市","streetName":"東山代町里３４８番地","latitude":33.28811761,"longitude":129.83506161,"id":"d93382c3-bcc4-4c59-be73-fbc3c3b24e39"},{"name":"竹田大和神社","prefectureName":"佐賀県","cityName":"杵島郡大町町","streetName":"大字大町２８１８番地","latitude":33.2139393,"longitude":130.1160222,"id":"32600896-3e2b-4b40-9c92-28f73238e436"},{"name":"籾神社","prefectureName":"佐賀県","cityName":"神埼郡吉野ヶ里町","streetName":"大曲１４６５番地","latitude":33.3379265,"longitude":130.39638507,"id":"ea1428de-0250-4dd2-9382-50c0a7d31a48"},{"name":"粟島神社","prefectureName":"佐賀県","cityName":"小城市","streetName":"三日月町金田２３８番地","latitude":33.2736671,"longitude":130.2169329,"id":"123890a4-986d-4914-9a79-89fe26912393"},{"name":"素鵞神社","prefectureName":"佐賀県","cityName":"武雄市","streetName":"武雄町大字富岡１１７２４番地１","latitude":33.19960031,"longitude":130.02604389,"id":"d85d4fb1-5dc6-426a-9128-141d805cbd04"},{"name":"綾部八幡神社","prefectureName":"佐賀県","cityName":"三養基郡みやき町","streetName":"大字原古賀２３３１番地","latitude":33.3246734,"longitude":130.4543848,"id":"7acc2d64-5d09-4430-83fe-32a04d0d3c40"},{"name":"綿積神社","prefectureName":"佐賀県","cityName":"唐津市","streetName":"肥前町湯野浦６６番地","latitude":33.44165751,"longitude":129.81626964,"id":"0d0403f4-58d1-48ff-a687-177d8cf15a67"},{"name":"羽根木神社","prefectureName":"佐賀県","cityName":"武雄市","streetName":"東川登町大字永野３５５７番地","latitude":33.1660007,"longitude":130.01955671,"id":"c9f09f7e-4d2e-4fbf-b43d-a56644e27946"},{"name":"羽黒神社","prefectureName":"佐賀県","cityName":"唐津市","streetName":"肥前町鶴牧６１４番地","latitude":33.45565597,"longitude":129.82865972,"id":"ca30f381-266b-41a8-b61d-ffd3d38be103"},{"name":"老松神社","prefectureName":"佐賀県","cityName":"三養基郡基山町","streetName":"大字小倉１３０９番地","latitude":33.43402565,"longitude":130.52002604,"id":"1c71fbe8-e336-489b-9447-02412f7972ba"},{"name":"老松神社","prefectureName":"佐賀県","cityName":"鳥栖市","streetName":"古賀町６３９番地","latitude":33.39029495,"longitude":130.49765205,"id":"2c50d246-dc37-4534-a124-ebfaafd798f2"},{"name":"老松神社","prefectureName":"佐賀県","cityName":"鳥栖市","streetName":"蔵上町５４８番地","latitude":33.37674314,"longitude":130.49676121,"id":"479e2781-9d49-4ce9-bd94-4bda530378fd"},{"name":"老松神社","prefectureName":"佐賀県","cityName":"鳥栖市","streetName":"高田町１３９番地","latitude":33.3453902,"longitude":130.52454901,"id":"9ce88fd5-236e-4d15-b9cc-2283c7f029a4"},{"name":"老松神社","prefectureName":"佐賀県","cityName":"鳥栖市","streetName":"元町１１０６番地","latitude":33.36905788,"longitude":130.51133321,"id":"edc7f203-0086-45f0-8c16-959ba8321db4"},{"name":"老松神社","prefectureName":"佐賀県","cityName":"三養基郡上峰町","streetName":"大字前牟田１７１９番地","latitude":33.31116476,"longitude":130.41280754,"id":"4d877ad0-5a7e-4433-8e68-0c877b832bf6"},{"name":"老松神社","prefectureName":"佐賀県","cityName":"鳥栖市","streetName":"下野町２５８７番地","latitude":33.33519302,"longitude":130.50351595,"id":"da7d4f49-6b95-488a-8854-578ecfef215a"},{"name":"老松神社","prefectureName":"佐賀県","cityName":"鳥栖市","streetName":"神辺町１３９７番地","latitude":33.3923867,"longitude":130.50423522,"id":"e69f5e24-1d2c-4869-a7ba-f61287158c93"},{"name":"老松神社","prefectureName":"佐賀県","cityName":"鳥栖市","streetName":"萱方町２番地","latitude":33.39126178,"longitude":130.50429916,"id":"1ec72665-72d7-4d6a-a437-eaf910aea77b"},{"name":"老松神社","prefectureName":"佐賀県","cityName":"佐賀市","streetName":"兵庫町大字若宮１０６番地","latitude":33.2728654,"longitude":130.33356774,"id":"1ab0b35d-448e-413a-a3a3-e544be71108e"},{"name":"老松神社","prefectureName":"佐賀県","cityName":"鳥栖市","streetName":"永吉町１６４番地","latitude":33.39409433,"longitude":130.54119568,"id":"78065eab-94a1-43ff-9555-bcb6b7451fb4"},{"name":"老松神社","prefectureName":"佐賀県","cityName":"鳥栖市","streetName":"曽根崎町１３２０番地","latitude":33.37624352,"longitude":130.52702052,"id":"dd1de0c7-12c8-454c-9747-6347b9116385"},{"name":"脇野神社","prefectureName":"佐賀県","cityName":"伊万里市","streetName":"東山代町里３４８番地","latitude":33.28811761,"longitude":129.83506161,"id":"b152619c-b71f-4aa1-923b-6809e96e2b65"},{"name":"脊振神社","prefectureName":"佐賀県","cityName":"神埼市","streetName":"脊振町服巻１４４９番地","latitude":33.37709691,"longitude":130.32693714,"id":"2f28a0c3-9b73-4f2e-9a88-b4d24564e5d6"},{"name":"與止日女神社","prefectureName":"佐賀県","cityName":"佐賀市","streetName":"大和町大字川上１番地","latitude":33.32639806,"longitude":130.26827187,"id":"85f55415-a48a-45bf-9056-6d4649dd6ea6"},{"name":"與賀神社","prefectureName":"佐賀県","cityName":"佐賀市","streetName":"与賀町２番５０号","latitude":33.24880207,"longitude":130.29489699,"id":"77ae7f24-4c39-4a19-9ea7-a291ab644d7a"},{"name":"船底神社","prefectureName":"佐賀県","cityName":"鳥栖市","streetName":"宿町１２６６番地","latitude":33.38090144,"longitude":130.50681065,"id":"4bd521f3-ebc4-4055-8a98-df320862803f"},{"name":"若宮八幡神社","prefectureName":"佐賀県","cityName":"三養基郡みやき町","streetName":"大字白壁３６５０番地","latitude":33.3246734,"longitude":130.4543848,"id":"7808ce6b-6f85-48af-b6c8-d641815ecd3b"},{"name":"若宮八幡神社","prefectureName":"佐賀県","cityName":"三養基郡みやき町","streetName":"大字白壁１３１９番地","latitude":33.3246734,"longitude":130.4543848,"id":"8925c602-ac93-4d14-b0df-b09d8d471779"},{"name":"若宮八幡神社","prefectureName":"佐賀県","cityName":"佐賀市","streetName":"金立町大字金立１０５５番地","latitude":33.32297116,"longitude":130.31274026,"id":"4bee7863-f92c-4541-ae1e-dd1d6b75abde"},{"name":"若宮八幡神社","prefectureName":"佐賀県","cityName":"三養基郡基山町","streetName":"大字宮浦１９７番地","latitude":33.42243277,"longitude":130.53139239,"id":"d146bb82-2196-469c-9382-60f6d88451eb"},{"name":"若宮八幡神社","prefectureName":"佐賀県","cityName":"三養基郡みやき町","streetName":"大字簑原１４７７番地イ","latitude":33.34686846,"longitude":130.44733674,"id":"358d368a-c243-4e36-8903-7360824fb459"},{"name":"若宮八幡神社","prefectureName":"佐賀県","cityName":"三養基郡みやき町","streetName":"大字簑原２９７３番地","latitude":33.3246734,"longitude":130.4543848,"id":"d42f5ace-99dd-4289-a937-541091c8e531"},{"name":"若宮神社","prefectureName":"佐賀県","cityName":"神埼市","streetName":"神埼町本堀４２９番地","latitude":33.30950408,"longitude":130.37388748,"id":"bf83748d-5254-4441-b2df-ba5e1430dedb"},{"name":"若宮神社","prefectureName":"佐賀県","cityName":"鹿島市","streetName":"古枝甲１８９番地","latitude":33.1037232,"longitude":130.0987689,"id":"ef31cfbe-e6dc-4a6a-bc93-0eb7fd15863a"},{"name":"若宮神社","prefectureName":"佐賀県","cityName":"神埼市","streetName":"神埼町永歌７１１番地４","latitude":33.30950408,"longitude":130.37388748,"id":"a3aa9678-7241-413d-9513-36163e56d18b"},{"name":"若宮神社","prefectureName":"佐賀県","cityName":"神埼市","streetName":"千代田町境原８５１番地１","latitude":33.26465542,"longitude":130.35346029,"id":"2db3a666-a9d4-42c8-9529-207ea8b67ab6"},{"name":"若宮神社","prefectureName":"佐賀県","cityName":"鹿島市","streetName":"大字常広１０４６番地","latitude":33.1037232,"longitude":130.0987689,"id":"c5631fb2-ffd7-4655-95c4-44489263c932"},{"name":"若宮神社","prefectureName":"佐賀県","cityName":"伊万里市","streetName":"黒川町小黒川４０３番地","latitude":33.32683613,"longitude":129.85038829,"id":"9b7fa367-3283-4df2-a7e8-510779d65930"},{"name":"若宮神社","prefectureName":"佐賀県","cityName":"小城市","streetName":"牛津町柿樋瀬７９６番地","latitude":33.24942216,"longitude":130.21082928,"id":"e1e6e947-bd4e-4134-990f-bc80d43870ba"},{"name":"若宮神社","prefectureName":"佐賀県","cityName":"伊万里市","streetName":"大坪町丙１９４２番地","latitude":33.26975158,"longitude":129.88717956,"id":"0dcbfd18-2d60-4064-ba13-c21bf2605e4f"},{"name":"若宮神社","prefectureName":"佐賀県","cityName":"佐賀市","streetName":"嘉瀬町大字扇町２４０７番地","latitude":33.24537654,"longitude":130.27046292,"id":"14b3cfcc-b10f-45de-ac3d-493d6805dde5"},{"name":"若宮神社","prefectureName":"佐賀県","cityName":"小城市","streetName":"牛津町乙柳１３５番地","latitude":33.26924781,"longitude":130.21161164,"id":"a7f808db-7d83-4b21-96fd-bce823abcf4f"},{"name":"若宮神社","prefectureName":"佐賀県","cityName":"佐賀市","streetName":"西与賀町大字相応津１２４番地","latitude":33.22033738,"longitude":130.26468379,"id":"4511c028-8cda-455e-ace8-ed3c6fbef51e"},{"name":"若宮神社","prefectureName":"佐賀県","cityName":"小城市","streetName":"三日月町堀江１１１番地","latitude":33.2736671,"longitude":130.2169329,"id":"8ef8b41b-0ef8-484a-bf7a-a5bcd05b891f"},{"name":"若宮神社","prefectureName":"佐賀県","cityName":"唐津市","streetName":"肥前町杉ノ浦４２３番地","latitude":33.44165751,"longitude":129.81626964,"id":"c2d38193-7be0-406a-b647-fa0fd9259a9b"},{"name":"若宮神社","prefectureName":"佐賀県","cityName":"唐津市","streetName":"相知町牟田部２４１２番地","latitude":33.34967765,"longitude":130.01305059,"id":"2502a657-3e17-4859-b30f-1ff202af9acb"},{"name":"若宮神社","prefectureName":"佐賀県","cityName":"神埼市","streetName":"千代田町姉１３８番地","latitude":33.3107511,"longitude":130.3730542,"id":"232a42d0-84a8-4ffd-95c9-8910f6cad434"},{"name":"若宮神社","prefectureName":"佐賀県","cityName":"唐津市","streetName":"厳木町中島７０番地","latitude":33.32099592,"longitude":130.06489445,"id":"a7936b15-d977-4042-b600-1e12988c1d37"},{"name":"若宮神社","prefectureName":"佐賀県","cityName":"神埼市","streetName":"千代田町直鳥６２０番地","latitude":33.27217712,"longitude":130.37144189,"id":"a5876cad-2b0b-4b7b-a851-d1acafaa324f"},{"name":"若宮神社","prefectureName":"佐賀県","cityName":"唐津市","streetName":"厳木町天川１７７７番地","latitude":33.32099592,"longitude":130.06489445,"id":"cd91b770-9db1-40d0-b07f-8a174413a1af"},{"name":"若松神社","prefectureName":"佐賀県","cityName":"武雄市","streetName":"北方町大字芦原６８１番地","latitude":33.21054191,"longitude":130.08293344,"id":"720cbd64-6492-4860-9606-4a8ff25d0726"},{"name":"若王子神社","prefectureName":"佐賀県","cityName":"伊万里市","streetName":"東山代町里３４８番地","latitude":33.28811761,"longitude":129.83506161,"id":"f03dd983-bb45-4587-aee7-8393778b6232"},{"name":"若神社","prefectureName":"佐賀県","cityName":"神埼市","streetName":"千代田町直鳥３１７番地","latitude":33.27377145,"longitude":130.36697553,"id":"6cfa204c-f222-4a07-a642-3ed92c032768"},{"name":"草場天神社","prefectureName":"佐賀県","cityName":"唐津市","streetName":"浜玉町平原甲１２６２番地","latitude":33.44956235,"longitude":130.04105634,"id":"80834a97-987a-4b18-91cc-d1f2d412b2c1"},{"name":"荒穂神社","prefectureName":"佐賀県","cityName":"三養基郡基山町","streetName":"大字宮浦２０５０番地","latitude":33.43382016,"longitude":130.5095521,"id":"2d0446ce-424e-4d23-bf2a-98cd34023321"},{"name":"菅原神社","prefectureName":"佐賀県","cityName":"佐賀市","streetName":"本庄町大字鹿子１７９番地","latitude":33.22235192,"longitude":130.29441989,"id":"9c70a9ee-4b9a-49a4-8900-97d6083f72f5"},{"name":"葛原神社","prefectureName":"佐賀県","cityName":"唐津市","streetName":"北波多田中６７２番地","latitude":33.37771174,"longitude":129.94534113,"id":"85451c7d-436e-4efe-a7b0-39f728a8de3a"},{"name":"葛城神社","prefectureName":"佐賀県","cityName":"三養基郡みやき町","streetName":"大字天建寺１１７０番地","latitude":33.29518416,"longitude":130.44760018,"id":"4fbc7127-6927-4b6f-b13e-d07aa7ae71a9"},{"name":"蔵王神社","prefectureName":"佐賀県","cityName":"小城市","streetName":"小城町畑田２８７７番地","latitude":33.29857252,"longitude":130.19278045,"id":"25e1aff8-d2f6-45cf-bd65-4ddca3a1aeec"},{"name":"藤原神社","prefectureName":"佐賀県","cityName":"唐津市","streetName":"厳木町星領６１５番地","latitude":33.39226865,"longitude":130.10169262,"id":"e1f3bfc0-a088-428a-b893-11286e921565"},{"name":"藤川神社","prefectureName":"佐賀県","cityName":"伊万里市","streetName":"松浦町山形８１８６番地","latitude":33.27873884,"longitude":129.92980909,"id":"8b6a3afe-8684-4f5e-a830-cc697b8cf200"},{"name":"藤瀬神社","prefectureName":"佐賀県","cityName":"佐賀市","streetName":"富士町大字藤瀬６０５番地","latitude":33.37176713,"longitude":130.20645892,"id":"7593277d-4914-43c4-848d-dd41fe044617"},{"name":"蛇石神社","prefectureName":"佐賀県","cityName":"唐津市","streetName":"浜玉町東山田８２番地","latitude":33.44956235,"longitude":130.04105634,"id":"97983aae-19b0-4f37-b045-ce5bcb564a19"},{"name":"西宮神社","prefectureName":"佐賀県","cityName":"神埼市","streetName":"千代田町境原１５３５番地","latitude":33.3107511,"longitude":130.3730542,"id":"ef9741d9-ebec-4ce2-a27f-9897ae4fa2e5"},{"name":"西宮神社","prefectureName":"佐賀県","cityName":"小城市","streetName":"牛津町柿樋瀬１０８０番地","latitude":33.25048861,"longitude":130.20294642,"id":"75e78bad-a002-455a-96b4-31202465643f"},{"name":"諏訪神社","prefectureName":"佐賀県","cityName":"藤津郡太良町","streetName":"大字大浦戊３８０番地","latitude":32.98703042,"longitude":130.19488703,"id":"4f83525e-0c4e-4d57-91e2-ae53782e1013"},{"name":"諏訪神社","prefectureName":"佐賀県","cityName":"藤津郡太良町","streetName":"大字多良９１０番地１","latitude":33.02345712,"longitude":130.1659658,"id":"86a08375-d58e-4585-99f6-40f4c58c3b4b"},{"name":"諏訪神社","prefectureName":"佐賀県","cityName":"佐賀市","streetName":"富士町大字市川１５０５番地","latitude":33.35462928,"longitude":130.16604249,"id":"21b84b7c-928b-4adf-9578-dbc817eef508"},{"name":"諏訪神社","prefectureName":"佐賀県","cityName":"杵島郡白石町","streetName":"大字辺田５０３番地","latitude":33.17103552,"longitude":130.110931,"id":"b3fa61c1-90a6-4a1a-baa2-de68fa6f8f4a"},{"name":"諏訪神社","prefectureName":"佐賀県","cityName":"佐賀市","streetName":"富士町大字苣木６１５番地","latitude":33.37176713,"longitude":130.20645892,"id":"d9ae1749-93b4-4766-830c-1324d14c2fa1"},{"name":"諏訪神社","prefectureName":"佐賀県","cityName":"武雄市","streetName":"武雄町大字富岡９０５９番地","latitude":33.1947258,"longitude":130.021511,"id":"b0ba13f5-6b93-483e-a274-f60553aa44ae"},{"name":"諏訪神社","prefectureName":"佐賀県","cityName":"小城市","streetName":"小城町池上３７０１番地","latitude":33.29321993,"longitude":130.19898271,"id":"fdeb2bdd-a8b5-4d08-9ca9-a86961f2e010"},{"name":"諏訪神社","prefectureName":"佐賀県","cityName":"伊万里市","streetName":"松浦町桃川５８９１番地","latitude":33.27124558,"longitude":129.95971816,"id":"b660a543-b168-4401-a548-ec7164613b2a"},{"name":"諏訪神社","prefectureName":"佐賀県","cityName":"唐津市","streetName":"浜玉町浜崎１１７９番地","latitude":33.44829305,"longitude":130.03825116,"id":"9fec9e71-dad3-424b-bdc1-67561ff2a75f"},{"name":"豊姫神社","prefectureName":"佐賀県","cityName":"伊万里市","streetName":"松浦町山形５４８５番地","latitude":33.2645853,"longitude":129.8802692,"id":"b1ad785c-9e9a-4382-b274-5a43177d98eb"},{"name":"豊玉姫神社","prefectureName":"佐賀県","cityName":"嬉野市","streetName":"嬉野町大字下宿乙２２３１番地２","latitude":33.09737144,"longitude":129.98256212,"id":"664890f0-b73a-4e5d-b72e-42af27a927a4"},{"name":"貴別当神社","prefectureName":"佐賀県","cityName":"神埼市","streetName":"千代田町下西４５５番地","latitude":33.3107511,"longitude":130.3730542,"id":"dfa412c0-437a-4b31-ba00-a301f03085d7"},{"name":"貴船神社","prefectureName":"佐賀県","cityName":"武雄市","streetName":"東川登町大字袴野１００９６番地","latitude":33.14973762,"longitude":129.99445579,"id":"baaf260c-06d2-45c4-b283-1c76c8f54f98"},{"name":"賀茂神社","prefectureName":"佐賀県","cityName":"唐津市","streetName":"七山藤川２２９９番地","latitude":33.4501626,"longitude":129.9679895,"id":"ecfec5d8-c3d5-4ed6-b20c-45ca550fc8ab"},{"name":"辨天神社","prefectureName":"佐賀県","cityName":"伊万里市","streetName":"木須町４７９３番地イ","latitude":33.2645853,"longitude":129.8802692,"id":"9bbced13-9615-4324-bdb1-665047eecb35"},{"name":"辨財天神社","prefectureName":"佐賀県","cityName":"伊万里市","streetName":"松島町１８０番地","latitude":33.27709476,"longitude":129.87665822,"id":"221dac0e-a63e-493a-b386-58cbfc4ff496"},{"name":"辺保神社","prefectureName":"佐賀県","cityName":"唐津市","streetName":"浜玉町平原乙１８４３番地","latitude":33.44956235,"longitude":130.04105634,"id":"0e2c607f-f805-43ba-8bc6-01b4e3f58643"},{"name":"道祖神社","prefectureName":"佐賀県","cityName":"鳥栖市","streetName":"田代昌町３３番地","latitude":33.39037025,"longitude":130.52721449,"id":"aaab4ca1-b586-4f33-bd9c-0028bd9cf21b"},{"name":"道祖神社","prefectureName":"佐賀県","cityName":"伊万里市","streetName":"東山代町里３４８番地","latitude":33.28811761,"longitude":129.83506161,"id":"ce6819d2-5781-4042-a584-5ff02263b693"},{"name":"道祖神社","prefectureName":"佐賀県","cityName":"佐賀市","streetName":"道祖元町７７番地","latitude":33.24806286,"longitude":130.28408679,"id":"0522865c-c096-46df-a6b7-ef9029361e6d"},{"name":"道祖神社","prefectureName":"佐賀県","cityName":"杵島郡白石町","streetName":"大字深浦８５６番地","latitude":33.13666436,"longitude":130.12289437,"id":"12f923b7-933a-4b75-aded-8fcd6022b400"},{"name":"道祖神社","prefectureName":"佐賀県","cityName":"杵島郡白石町","streetName":"大字深浦４９３４番地","latitude":33.1810349,"longitude":130.1434991,"id":"057b8ab1-edc7-4419-850d-369997f7394b"},{"name":"野元神社","prefectureName":"佐賀県","cityName":"唐津市","streetName":"鎮西町名護屋８２番地","latitude":33.53477653,"longitude":129.87620428,"id":"cf7930c0-60e2-4755-8fcf-641429d01304"},{"name":"野波神社","prefectureName":"佐賀県","cityName":"佐賀市","streetName":"三瀬村杠１３５８番地４１","latitude":33.42834642,"longitude":130.25820536,"id":"324b9276-1aa3-4f6a-8485-6b2a215e24e5"},{"name":"野田神社","prefectureName":"佐賀県","cityName":"唐津市","streetName":"浜玉町東山田５７０番地","latitude":33.42097184,"longitude":130.0575049,"id":"fee3d98e-e906-49e3-b858-83df5747a14c"},{"name":"金刀比羅神社","prefectureName":"佐賀県","cityName":"伊万里市","streetName":"波多津町辻４０６８番地第２","latitude":33.2645853,"longitude":129.8802692,"id":"f45261d6-6137-4caf-aa70-067680f56de0"},{"name":"金刀比羅神社","prefectureName":"佐賀県","cityName":"伊万里市","streetName":"東山代町里３４８番地","latitude":33.28811761,"longitude":129.83506161,"id":"156f7dcc-22fd-405f-801c-3de1e6942820"},{"name":"金刀比羅神社","prefectureName":"佐賀県","cityName":"唐津市","streetName":"相知町長部田９９３番地","latitude":33.33765815,"longitude":130.03371728,"id":"c50b42a8-6ddf-4837-ba20-f296795a5b68"},{"name":"金刀比羅神社","prefectureName":"佐賀県","cityName":"佐賀市","streetName":"金立町大字金立３３４７番地１","latitude":33.33030381,"longitude":130.2995357,"id":"1be7542a-2f98-4b89-8fa3-1589b1fdbd42"},{"name":"金刀比羅神社","prefectureName":"佐賀県","cityName":"唐津市","streetName":"肥前町納所辛１１９９番地","latitude":33.46246291,"longitude":129.80508628,"id":"c93d1abf-37f2-42ba-8261-87609d840c00"},{"name":"金刀比羅神社","prefectureName":"佐賀県","cityName":"唐津市","streetName":"東町ロの２番地","latitude":33.44306406,"longitude":129.98300211,"id":"f84bc9b2-e026-4280-9d70-455c84306842"},{"name":"金比羅神社","prefectureName":"佐賀県","cityName":"杵島郡白石町","streetName":"大字福富下分２８５０番地","latitude":33.19774295,"longitude":130.19513637,"id":"ac8f2f7f-ac3a-4b6e-b0d4-64557fd46343"},{"name":"金比羅神社","prefectureName":"佐賀県","cityName":"武雄市","streetName":"武雄町大字武雄７１５３番地","latitude":33.1947258,"longitude":130.021511,"id":"4e64fae9-fbf9-495e-8a80-6855ff7143b8"},{"name":"金立神社","prefectureName":"佐賀県","cityName":"佐賀市","streetName":"金立町大字金立２４６８番地","latitude":33.2634815,"longitude":130.3008572,"id":"d06c47f1-c291-4289-9ea1-2a0f1e0e7d8b"},{"name":"金＿羅神社","prefectureName":"佐賀県","cityName":"伊万里市","streetName":"木須町４６３３番地","latitude":33.28354641,"longitude":129.86484816,"id":"40695cef-5e3c-4441-8c73-909f708b70f3"},{"name":"金＿羅神社","prefectureName":"佐賀県","cityName":"伊万里市","streetName":"瀬戸町２２５６番地１０","latitude":33.31237316,"longitude":129.83690278,"id":"9fe9c5cb-06f5-43c7-ba84-358d3a2613d3"},{"name":"鉄輪神社","prefectureName":"佐賀県","cityName":"西松浦郡有田町","streetName":"桑木原乙１３１９番地","latitude":33.21857334,"longitude":129.84768923,"id":"9e3b370a-434f-4209-8a7c-9419c86fd393"},{"name":"鍵尼神社","prefectureName":"佐賀県","cityName":"佐賀市","streetName":"大和町大字尼寺４１６番地","latitude":33.31071333,"longitude":130.28135746,"id":"da52d2fd-f439-4b09-a2aa-1ae3b28105a6"},{"name":"鎌王神社","prefectureName":"佐賀県","cityName":"佐賀市","streetName":"富士町大字鎌原１０３７番地","latitude":33.35487944,"longitude":130.19396063,"id":"fdf9e0f1-799f-4502-a880-b054c1efb3dd"},{"name":"鎮守大神社","prefectureName":"佐賀県","cityName":"武雄市","streetName":"山内町大字犬走７５９０番地","latitude":33.19539386,"longitude":129.94657561,"id":"35bd1919-32c2-49dd-82cb-6dbf3ef8e8ee"},{"name":"鎮守大神社","prefectureName":"佐賀県","cityName":"武雄市","streetName":"山内町大字三間坂甲１４４８５番地２","latitude":33.19539386,"longitude":129.94657561,"id":"ac856f65-5ef2-4c52-93b7-db2bf4310d7a"},{"name":"鎮守神社","prefectureName":"佐賀県","cityName":"東松浦郡玄海町","streetName":"大字湯野尾字向谷２０４番地","latitude":33.4721971,"longitude":129.8750862,"id":"dfebc556-7c39-4430-9aa4-6d738c23608d"},{"name":"鎮守神社","prefectureName":"佐賀県","cityName":"藤津郡太良町","streetName":"大字糸岐３３８８番地１","latitude":33.01941,"longitude":130.1789733,"id":"dc02b268-cd1a-444e-9756-3c393d97afc4"},{"name":"鎮守神社","prefectureName":"佐賀県","cityName":"唐津市","streetName":"肥前町中浦９８４番地","latitude":33.40962048,"longitude":129.87760165,"id":"69405ed3-f2dd-45b7-829d-a01a4f8d2a80"},{"name":"鎮守神社","prefectureName":"佐賀県","cityName":"武雄市","streetName":"西川登町大字神六２７０５３番地１","latitude":33.1947258,"longitude":130.021511,"id":"f66ff637-3cbb-4623-92ea-17687d27e758"},{"name":"鎮守神社","prefectureName":"佐賀県","cityName":"鹿島市","streetName":"大字音成戌１９８６番地１","latitude":33.1037232,"longitude":130.0987689,"id":"a6575578-d611-4c77-997b-707c86a51161"},{"name":"鎮守神社","prefectureName":"佐賀県","cityName":"唐津市","streetName":"肥前町寺浦２１９番地","latitude":33.44342997,"longitude":129.84880031,"id":"7714c2ac-a151-4cb6-8934-dc8d34ba4e5f"},{"name":"鎮守神社","prefectureName":"佐賀県","cityName":"鹿島市","streetName":"大字音成丙１２２８番地","latitude":33.1037232,"longitude":130.0987689,"id":"0ac464e4-be7d-40bf-bb28-d994d922d630"},{"name":"鎮守神社","prefectureName":"佐賀県","cityName":"唐津市","streetName":"肥前町鶴牧１１０２番地","latitude":33.4558672,"longitude":129.83483424,"id":"d51d0121-37b1-4bc6-a7e6-c977d6e8c5a6"},{"name":"鎮守神社","prefectureName":"佐賀県","cityName":"武雄市","streetName":"山内町大字鳥海１７６８８番地","latitude":33.19539386,"longitude":129.94657561,"id":"6af8405f-4631-43f9-a7dd-f5875effcb12"},{"name":"鎮守神社","prefectureName":"佐賀県","cityName":"鹿島市","streetName":"大字飯田甲４８０９番地","latitude":33.1037232,"longitude":130.0987689,"id":"86e660e6-8062-4752-91ac-c816ce9552cc"},{"name":"鎮守神社","prefectureName":"佐賀県","cityName":"唐津市","streetName":"肥前町納所戊２７７番地","latitude":33.44165751,"longitude":129.81626964,"id":"763e0ae3-8fa8-4554-a479-266cc777f99f"},{"name":"鎮守神社","prefectureName":"佐賀県","cityName":"唐津市","streetName":"鎮西町加倉１２４９番地","latitude":33.53261012,"longitude":129.87758194,"id":"7f56a668-4055-47dd-a07e-4101c1ba0a54"},{"name":"鎮守神社","prefectureName":"佐賀県","cityName":"鹿島市","streetName":"大字音成乙１８６３番地","latitude":33.1037232,"longitude":130.0987689,"id":"e8f498b6-59fb-4d36-a703-bcff67ca1ba1"},{"name":"鎮守神社","prefectureName":"佐賀県","cityName":"唐津市","streetName":"肥前町梅崎１１８８番地","latitude":33.44440479,"longitude":129.84113978,"id":"e42de606-5290-466e-9491-521cd740f9cd"},{"name":"鎮守神社","prefectureName":"佐賀県","cityName":"唐津市","streetName":"相知町平山上２６７番地","latitude":33.34967765,"longitude":130.01305059,"id":"fd95a865-808f-412e-bb60-ee1717a3c2f6"},{"name":"鏡山神社","prefectureName":"佐賀県","cityName":"唐津市","streetName":"鏡６０５２番地２０","latitude":33.42945937,"longitude":130.02336772,"id":"d17a543e-17bd-4c31-aad7-db94a4dfaabd"},{"name":"鏡神社","prefectureName":"佐賀県","cityName":"小城市","streetName":"小城町池上４８４番地１","latitude":33.29321993,"longitude":130.19898271,"id":"c8e1002f-1164-4b8b-aac8-f4ee823cd9dc"},{"name":"鏡神社","prefectureName":"佐賀県","cityName":"唐津市","streetName":"鏡１８２７番地","latitude":33.43204993,"longitude":130.00811076,"id":"1d5bf4ee-b092-4782-8465-eb9bf1ad22cf"},{"name":"鏡神社","prefectureName":"佐賀県","cityName":"佐賀市","streetName":"富士町大字下合瀬６５４番地","latitude":33.44380319,"longitude":130.26412369,"id":"f94c6df2-db16-48e4-b581-55f3a70c963a"},{"name":"長瀬天満神社","prefectureName":"佐賀県","cityName":"佐賀市","streetName":"高木瀬町大字長瀬１４３２番地１","latitude":33.29490051,"longitude":130.27818324,"id":"5dc35db4-0bcb-46cf-9cc1-3fd6d46e098e"},{"name":"陶山神社","prefectureName":"佐賀県","cityName":"西松浦郡有田町","streetName":"大樽２丁目５番１号","latitude":33.18894119,"longitude":129.89932931,"id":"33ca1c50-f3a1-4f33-a4ef-fb336e75e321"},{"name":"霧寄神社","prefectureName":"佐賀県","cityName":"伊万里市","streetName":"東山代町里３４８番地","latitude":33.28811761,"longitude":129.83506161,"id":"2c46b15c-aa79-439b-a20f-5526489bf9e7"},{"name":"青幡神社","prefectureName":"佐賀県","cityName":"武雄市","streetName":"北方町大字芦原５９２５番地","latitude":33.20136229,"longitude":130.08061705,"id":"6c741f6a-2745-4a8e-9b88-e766766d809f"},{"name":"青幡神社","prefectureName":"佐賀県","cityName":"伊万里市","streetName":"東山代町里３４８番地","latitude":33.28811761,"longitude":129.83506161,"id":"1c510f41-cd50-4b8d-a833-c3fd73c5a95e"},{"name":"青幡神社","prefectureName":"佐賀県","cityName":"唐津市","streetName":"相知町佐里又１８４４番地","latitude":33.34967765,"longitude":130.01305059,"id":"88f6c48b-204c-4268-8e19-3450aa622681"},{"name":"鞆神社","prefectureName":"佐賀県","cityName":"唐津市","streetName":"呼子町小友５２４番地","latitude":33.54868939,"longitude":129.90818182,"id":"97c9649d-38c5-4140-b645-26d5e48929c5"},{"name":"須賀神社","prefectureName":"佐賀県","cityName":"小城市","streetName":"小城町松尾３５９４番地","latitude":33.30272879,"longitude":130.20502635,"id":"bc1ebde6-4072-48db-8bca-ac25f6286844"},{"name":"風王神社","prefectureName":"佐賀県","cityName":"伊万里市","streetName":"脇田町３２６７番地","latitude":33.2645853,"longitude":129.8802692,"id":"f64f32d1-d701-46af-9be7-f7b32323c258"},{"name":"飯盛神社","prefectureName":"佐賀県","cityName":"多久市","streetName":"北多久町大字多久原２１７６番地","latitude":33.29033741,"longitude":130.11694267,"id":"c8888299-d9de-4e4a-a244-c430335c18ee"},{"name":"飯盛神社","prefectureName":"佐賀県","cityName":"伊万里市","streetName":"東山代町里３４８番地","latitude":33.28811761,"longitude":129.83506161,"id":"bd72525a-e46b-4c50-ac75-ec5b2c0b7e58"},{"name":"養母神社","prefectureName":"佐賀県","cityName":"神埼市","streetName":"神埼町竹１３９３番地","latitude":33.31749208,"longitude":130.36333271,"id":"a6ed93d7-5abd-4b4a-a7ee-30d24e4bb782"},{"name":"養父神社","prefectureName":"佐賀県","cityName":"佐賀市","streetName":"兵庫町大字渕３０１９番地","latitude":33.29074343,"longitude":130.31218633,"id":"f8d2c922-f0cf-41b3-b866-06b59c473e6a"},{"name":"香椎神社","prefectureName":"佐賀県","cityName":"神埼市","streetName":"千代田町餘江５５９番地","latitude":33.25942529,"longitude":130.36518705,"id":"c6898976-5ed7-4570-ae58-c92d47b40796"},{"name":"香椎神社","prefectureName":"佐賀県","cityName":"佐賀市","streetName":"久保田町大字徳万１５５６番地","latitude":33.24945305,"longitude":130.23621564,"id":"c61d5dd9-8e20-4e1c-9418-737e651069bc"},{"name":"香椎神社","prefectureName":"佐賀県","cityName":"鳥栖市","streetName":"牛原町９３６番地","latitude":33.38981155,"longitude":130.49489942,"id":"51da305e-89a4-4fad-b466-8a75258c8237"},{"name":"馬川神社","prefectureName":"佐賀県","cityName":"唐津市","streetName":"七山馬川１１１９番地","latitude":33.44071172,"longitude":130.15062732,"id":"9ee2e02c-af8b-4d2b-985b-0a65b837047d"},{"name":"駅ケ里神社","prefectureName":"佐賀県","cityName":"神埼市","streetName":"神埼町田道ヶ里２０６２番地","latitude":33.31507284,"longitude":130.3797035,"id":"c9752c4a-7f3d-496f-9951-d43aed9d78af"},{"name":"高志神社","prefectureName":"佐賀県","cityName":"神埼市","streetName":"千代田町下板１２２９番地","latitude":33.3107511,"longitude":130.3730542,"id":"016648b1-79e3-4904-aed9-53a1b8f2a1b2"},{"name":"高松神社","prefectureName":"佐賀県","cityName":"伊万里市","streetName":"脇田町３１８３番地","latitude":33.29294841,"longitude":129.87871337,"id":"91f29656-035f-4e5a-9eb1-0d2a02100989"},{"name":"高松神社","prefectureName":"佐賀県","cityName":"多久市","streetName":"多久町２２９３番地１","latitude":33.26250067,"longitude":130.08823286,"id":"76910aa9-9865-4d81-828c-056f0ba5935b"},{"name":"高野神社","prefectureName":"佐賀県","cityName":"多久市","streetName":"南多久町大字下多久２５１１番地","latitude":33.27471928,"longitude":130.12434266,"id":"2547a282-4026-4e1b-ac18-cb77096a2f7b"},{"name":"鬼子嶽五社稲荷神社","prefectureName":"佐賀県","cityName":"武雄市","streetName":"武内町大字真手野２８３９４番地１","latitude":33.22864393,"longitude":129.95834609,"id":"d63e08df-b52a-4695-83fe-43d2c80ab459"},{"name":"鳩森神社","prefectureName":"佐賀県","cityName":"佐賀市","streetName":"八幡小路３番９号","latitude":33.25421,"longitude":130.2980244,"id":"d154b0f0-aa59-4b00-88df-30f16f51c9e0"},{"name":"鳴瀬神社","prefectureName":"佐賀県","cityName":"武雄市","streetName":"橘町大字芦原４７８８番地","latitude":33.20076738,"longitude":130.05569702,"id":"39007575-15a1-4ab8-a64b-6b8fc41cde71"},{"name":"鶴田神社","prefectureName":"佐賀県","cityName":"唐津市","streetName":"厳木町浪瀬１０８１番地２、１０８４番地","latitude":33.31049087,"longitude":130.04655741,"id":"9f823ea8-54d4-4540-bf2c-ddc52ae52088"},{"name":"鶴神社","prefectureName":"佐賀県","cityName":"多久市","streetName":"北多久町大字多久原２１７６番地","latitude":33.29033741,"longitude":130.11694267,"id":"4679b5b7-f9c3-46ab-a9ed-52a58dfa0775"},{"name":"鷹屋神社","prefectureName":"佐賀県","cityName":"杵島郡白石町","streetName":"大字廿治１５００番地","latitude":33.18013472,"longitude":130.13629981,"id":"3fadce56-3c66-4867-8ebe-7b00fadfc881"},{"name":"鹿山神社","prefectureName":"佐賀県","cityName":"藤津郡太良町","streetName":"大字大浦甲５７４番地","latitude":33.01941,"longitude":130.1789733,"id":"7be08992-78ef-4cb8-baa9-a6cc134e77d3"},{"name":"鹿路神社","prefectureName":"佐賀県","cityName":"神埼市","streetName":"脊振町鹿路２５３番地","latitude":33.37709691,"longitude":130.32693714,"id":"37b5ff2a-d51a-4e90-926a-bfb960d34aa3"},{"name":"黒尾大神社","prefectureName":"佐賀県","cityName":"武雄市","streetName":"山内町大字大野８９６２番地","latitude":33.20869824,"longitude":129.94471987,"id":"15380e51-44a8-472b-80f9-ae2fdf05cfc3"},{"name":"黒尾神社","prefectureName":"佐賀県","cityName":"武雄市","streetName":"朝日町大字中野６７４１番地","latitude":33.21857043,"longitude":130.02516019,"id":"1eebb8af-c139-4ac3-a988-32297c99a8ce"},{"name":"黒崎神社","prefectureName":"佐賀県","cityName":"唐津市","streetName":"浦５１３８番地６","latitude":33.48490254,"longitude":129.94191499,"id":"f2769dc7-f153-42ff-b088-650b94a4b6dc"},{"name":"黒髪神社","prefectureName":"佐賀県","cityName":"伊万里市","streetName":"南波多町大川原３４７７番地","latitude":33.2645853,"longitude":129.8802692,"id":"79d91192-bebd-4d50-9acb-502bd8a02838"},{"name":"黒髪神社","prefectureName":"佐賀県","cityName":"武雄市","streetName":"山内町大字宮野１０３９番地","latitude":33.19539386,"longitude":129.94657561,"id":"012a4c61-8ba4-4d3c-9f97-3735a9be4bea"},{"name":"黒髪神社","prefectureName":"佐賀県","cityName":"伊万里市","streetName":"東山代町里３４８番地","latitude":33.28811761,"longitude":129.83506161,"id":"e46f87e0-123b-4299-84ba-06e2ca139801"},{"name":"龍王神社","prefectureName":"佐賀県","cityName":"佐賀市","streetName":"東与賀町大字田中１０４８番地","latitude":33.20135694,"longitude":130.28813782,"id":"024a35f3-8c84-47f4-a90e-358c9e099917"},{"name":"龍王神社","prefectureName":"佐賀県","cityName":"三養基郡みやき町","streetName":"大字東尾２８９１番地","latitude":33.3246734,"longitude":130.4543848,"id":"b7a61291-947c-4d81-b482-fc6ace1bab42"},{"name":"龍王神社","prefectureName":"佐賀県","cityName":"鹿島市","streetName":"大字音成乙４８０番地イ","latitude":33.07919593,"longitude":130.14216424,"id":"19cbcee6-dabf-4b67-9ce2-b4faeee3efb6"},{"name":"龍神社","prefectureName":"佐賀県","cityName":"鹿島市","streetName":"浜町乙９７３番地３","latitude":33.0923775,"longitude":130.11817029,"id":"61a00045-314d-4217-a60e-97eeaa24352b"},{"name":"龍神社","prefectureName":"佐賀県","cityName":"伊万里市","streetName":"大坪町甲４０６番地","latitude":33.30197037,"longitude":129.89953855,"id":"17fa5783-f9ff-444d-b108-50503fe4d24c"},{"name":"龍神社","prefectureName":"佐賀県","cityName":"伊万里市","streetName":"南波多町高瀬１２５番地","latitude":33.2645853,"longitude":129.8802692,"id":"b6744472-04bd-4cc3-92c8-cbe13d3f6069"},{"name":"龍神社","prefectureName":"佐賀県","cityName":"杵島郡白石町","streetName":"大字福富下分１８６４番地","latitude":33.19032168,"longitude":130.21286239,"id":"7aff4b72-686e-48ec-924e-96e76797afa6"},{"name":"八町大神宮","prefectureName":"佐賀県","cityName":"杵島郡江北町","streetName":"大字八町９００番地","latitude":33.19426162,"longitude":130.1535368,"id":"1321dc44-b438-42a5-9bc5-38637d90fe4d"},{"name":"大江神大神宮","prefectureName":"佐賀県","cityName":"杵島郡江北町","streetName":"大字山口５０３７番地","latitude":33.2205947,"longitude":130.1575302,"id":"e579fb8c-0eb7-4945-aa4d-d7b8d9b2c37b"},{"name":"大神宮","prefectureName":"佐賀県","cityName":"佐賀市","streetName":"嘉瀬町大字十五１５０４番地１","latitude":33.2634815,"longitude":130.3008572,"id":"f576daad-e7d2-405c-9019-2bc24afee0c0"},{"name":"大神宮","prefectureName":"佐賀県","cityName":"神埼郡吉野ヶ里町","streetName":"吉田５７７番地","latitude":33.3211889,"longitude":130.3988022,"id":"10027cfd-33e9-4ebd-a45a-4a74169c7b89"},{"name":"大神宮","prefectureName":"佐賀県","cityName":"小城市","streetName":"芦刈町道免７２番地","latitude":33.23020209,"longitude":130.21838156,"id":"9c2514f2-33be-4811-90fc-387aee5663ec"},{"name":"大神宮","prefectureName":"佐賀県","cityName":"杵島郡白石町","streetName":"大字遠江６２１番地","latitude":33.1810349,"longitude":130.1434991,"id":"42ae3eaf-a5d3-47dd-aeaa-5d560ed29e42"},{"name":"大神宮","prefectureName":"佐賀県","cityName":"小城市","streetName":"牛津町上砥川４７８番地","latitude":33.24274234,"longitude":130.20897665,"id":"ca02e84d-5fea-4491-8b56-79b2a541f5b0"},{"name":"大神宮","prefectureName":"佐賀県","cityName":"嬉野市","streetName":"塩田町大字馬場下甲３０９４番地","latitude":33.12538058,"longitude":130.04216029,"id":"871914f4-1155-4495-9094-f324b863334b"},{"name":"天照皇大神宮","prefectureName":"佐賀県","cityName":"嬉野市","streetName":"嬉野町大字不動山丙２１４５番地","latitude":33.09716322,"longitude":129.98503417,"id":"607c6c13-6f87-46cc-92c9-15bb431a33df"},{"name":"龍神宮","prefectureName":"佐賀県","cityName":"伊万里市","streetName":"新天町７３３番地２","latitude":33.2645853,"longitude":129.8802692,"id":"7c701ff8-e0f0-463a-925f-2adbc1db76d8"}]