[
    {
        "name": "一丁田神社",
        "prefectureName": "宮崎県",
        "cityName": "児湯郡新富町",
        "streetName": "大字新田１６３６７番地",
        "latitude": 32.10021321,
        "longitude": 131.44611862,
        "id": "ea6d2ad4-5cfe-4462-b431-b6738eb8a970"
    },
    {
        "name": "一水神社",
        "prefectureName": "宮崎県",
        "cityName": "西臼杵郡日之影町",
        "streetName": "大字七折１１６２３番地２",
        "latitude": 32.6841884,
        "longitude": 131.36081973,
        "id": "60b35727-3e98-4d61-90d3-fea3b58ac737"
    },
    {
        "name": "一葉神社",
        "prefectureName": "宮崎県",
        "cityName": "宮崎市",
        "streetName": "新別府町前浜１４０２番地",
        "latitude": 31.9077892,
        "longitude": 131.4203302,
        "id": "b2b0a894-801c-4eb2-888d-d56efaa07311"
    },
    {
        "name": "三ケ所神社",
        "prefectureName": "宮崎県",
        "cityName": "西臼杵郡五ヶ瀬町",
        "streetName": "大字三ヶ所８７３６番地",
        "latitude": 32.6830229,
        "longitude": 131.1963782,
        "id": "f3abcc02-32f7-42e5-b28d-48ab7e92f9c2"
    },
    {
        "name": "三宅神社",
        "prefectureName": "宮崎県",
        "cityName": "西都市",
        "streetName": "大字三宅３４１５番地",
        "latitude": 32.10532596,
        "longitude": 131.39366981,
        "id": "5a4ab42b-71e3-4e7a-98ea-7c315e15ef96"
    },
    {
        "name": "三島神社",
        "prefectureName": "宮崎県",
        "cityName": "児湯郡川南町",
        "streetName": "大字川南９０４１番地",
        "latitude": 32.23447889,
        "longitude": 131.55591341,
        "id": "93682d9b-fce5-4205-826a-25bde3ae25a2"
    },
    {
        "name": "三島神社",
        "prefectureName": "宮崎県",
        "cityName": "日南市",
        "streetName": "大字下方４５８６番地イ",
        "latitude": 31.6013985,
        "longitude": 131.3783384,
        "id": "b495a407-7e42-4b0d-9a5f-10776b4dd334"
    },
    {
        "name": "三島神社",
        "prefectureName": "宮崎県",
        "cityName": "東諸県郡国富町",
        "streetName": "大字岩知野１１６５番地",
        "latitude": 31.97988962,
        "longitude": 131.37190816,
        "id": "56c15cb3-d8af-4790-bf6e-53f183c03938"
    },
    {
        "name": "三川内神社",
        "prefectureName": "宮崎県",
        "cityName": "延岡市",
        "streetName": "北浦町三川内１１４７番地",
        "latitude": 32.70631904,
        "longitude": 131.82116427,
        "id": "481e2d18-7709-4974-b565-bdbcab209aec"
    },
    {
        "name": "三石神社",
        "prefectureName": "宮崎県",
        "cityName": "児湯郡木城町",
        "streetName": "大字石河内１４２５番地",
        "latitude": 32.1641772,
        "longitude": 131.4736164,
        "id": "2c6f0b06-c199-4eb2-a427-93fb14f82ea4"
    },
    {
        "name": "三箇瀬神社",
        "prefectureName": "宮崎県",
        "cityName": "東臼杵郡門川町",
        "streetName": "大字川内１２８０番地",
        "latitude": 32.46020991,
        "longitude": 131.55694428,
        "id": "54bfc67a-6a5a-4100-9f82-091243c3d319"
    },
    {
        "name": "三輪神社",
        "prefectureName": "宮崎県",
        "cityName": "延岡市",
        "streetName": "下三輪町１０６５番地１０６６番地",
        "latitude": 32.5823196,
        "longitude": 131.6648505,
        "id": "e594aaa3-a87b-4393-b71d-2f27f3de347e"
    },
    {
        "name": "三須神社",
        "prefectureName": "宮崎県",
        "cityName": "延岡市",
        "streetName": "三須町６４８番地６４９番地",
        "latitude": 32.5823196,
        "longitude": 131.6648505,
        "id": "226e3b48-b25f-48fc-b62e-b32de5065bd0"
    },
    {
        "name": "上三財神社",
        "prefectureName": "宮崎県",
        "cityName": "西都市",
        "streetName": "大字上三財６８２６番地１",
        "latitude": 32.06541241,
        "longitude": 131.33449163,
        "id": "f474f0af-da1a-4257-a72f-aec1d8797bcc"
    },
    {
        "name": "上伊福形神社",
        "prefectureName": "宮崎県",
        "cityName": "延岡市",
        "streetName": "上伊形町８９２番地",
        "latitude": 32.52322431,
        "longitude": 131.65687901,
        "id": "65c6394c-59ff-4ab8-b9ef-184fcb3f457a"
    },
    {
        "name": "上円野神社",
        "prefectureName": "宮崎県",
        "cityName": "東臼杵郡美郷町",
        "streetName": "西郷田代２２２１番地イ",
        "latitude": 32.4402748,
        "longitude": 131.4231705,
        "id": "cb212dfe-fe19-4aac-9627-ea3ffae4202d"
    },
    {
        "name": "上名貫神社",
        "prefectureName": "宮崎県",
        "cityName": "児湯郡都農町",
        "streetName": "大字川北字篠別府４２４番地２",
        "latitude": 32.2562951,
        "longitude": 131.5595699,
        "id": "66e9142e-5a45-4ed8-941d-04555fb4062e"
    },
    {
        "name": "上方神社",
        "prefectureName": "宮崎県",
        "cityName": "日南市",
        "streetName": "大字上方１１１０番地",
        "latitude": 31.6013985,
        "longitude": 131.3783384,
        "id": "ef923e13-6a24-42ed-8110-ef0f185ce40c"
    },
    {
        "name": "上赤神社",
        "prefectureName": "宮崎県",
        "cityName": "延岡市",
        "streetName": "北川町川内名９７６５番地",
        "latitude": 32.686108,
        "longitude": 131.69329339,
        "id": "f17f565f-2dcc-45e1-bed8-c23ed090879f"
    },
    {
        "name": "上野神社",
        "prefectureName": "宮崎県",
        "cityName": "西臼杵郡高千穂町",
        "streetName": "大字上野３３８９番地",
        "latitude": 32.7655868,
        "longitude": 131.29910882,
        "id": "97763a80-9468-467c-a6f3-06d5b87b0d62"
    },
    {
        "name": "上鹿川神社",
        "prefectureName": "宮崎県",
        "cityName": "延岡市",
        "streetName": "北方町上鹿川申７１１番地１",
        "latitude": 32.60495456,
        "longitude": 131.48611299,
        "id": "27cd9800-5681-4b11-89c3-3ebed9d6943c"
    },
    {
        "name": "下三財神社",
        "prefectureName": "宮崎県",
        "cityName": "西都市",
        "streetName": "大字下三財３４６７番地",
        "latitude": 32.06331272,
        "longitude": 131.35954869,
        "id": "011fb8e9-ceba-4ae9-a698-e136180068aa"
    },
    {
        "name": "下伊福形神社",
        "prefectureName": "宮崎県",
        "cityName": "延岡市",
        "streetName": "北一ケ岡４丁目４番地１２９",
        "latitude": 32.5823196,
        "longitude": 131.6648505,
        "id": "ff157cc5-afe0-44b3-a418-542d5b41cff6"
    },
    {
        "name": "下塚神社",
        "prefectureName": "宮崎県",
        "cityName": "延岡市",
        "streetName": "北川町川内名１２２４番の１地",
        "latitude": 32.686108,
        "longitude": 131.69329339,
        "id": "d64f4de5-901c-46f0-b0d8-529dd8c6ee2b"
    },
    {
        "name": "下富田神社",
        "prefectureName": "宮崎県",
        "cityName": "児湯郡新富町",
        "streetName": "大字下富田４５５番地",
        "latitude": 32.05234245,
        "longitude": 131.5002274,
        "id": "b476b197-18ab-4b31-be9f-563a18dd712b"
    },
    {
        "name": "下田島神社",
        "prefectureName": "宮崎県",
        "cityName": "宮崎市",
        "streetName": "佐土原町下田島１２２１８番地１",
        "latitude": 32.0377208,
        "longitude": 131.47080878,
        "id": "d3f1444d-2616-4ab1-a9dd-7e52de7bee5b"
    },
    {
        "name": "下舞野神社",
        "prefectureName": "宮崎県",
        "cityName": "延岡市",
        "streetName": "舞野町２６７２番地",
        "latitude": 32.58075024,
        "longitude": 131.59549423,
        "id": "cb1f8c7f-7896-435a-8db1-0315688a28dc"
    },
    {
        "name": "下那珂神社",
        "prefectureName": "宮崎県",
        "cityName": "宮崎市",
        "streetName": "佐土原町下那珂１１６７８番地",
        "latitude": 32.00688453,
        "longitude": 131.45460369,
        "id": "b1852c5f-4f1d-429a-97a8-40cc2856f729"
    },
    {
        "name": "下顔神社",
        "prefectureName": "宮崎県",
        "cityName": "西臼杵郡日之影町",
        "streetName": "大字七折２９９５番地１",
        "latitude": 32.6538578,
        "longitude": 131.3877651,
        "id": "0f168855-d6a7-40e4-be46-92c2ad3215bf"
    },
    {
        "name": "不土野神社",
        "prefectureName": "宮崎県",
        "cityName": "東臼杵郡椎葉村",
        "streetName": "大字不土野１４４７番地",
        "latitude": 32.4673725,
        "longitude": 131.1581508,
        "id": "c774d80c-32f4-4866-aaba-fc879c3e1c79"
    },
    {
        "name": "中八重神社",
        "prefectureName": "宮崎県",
        "cityName": "東臼杵郡美郷町",
        "streetName": "西郷山三ケ２８３４番地",
        "latitude": 32.4402748,
        "longitude": 131.4231705,
        "id": "6e28c566-0fbe-4c34-81b1-2062fb31dbc8"
    },
    {
        "name": "中山神社",
        "prefectureName": "宮崎県",
        "cityName": "東臼杵郡門川町",
        "streetName": "大字門川尾末６３４３番地",
        "latitude": 32.47372765,
        "longitude": 131.63367859,
        "id": "6e52f1b5-1424-49d1-bfc2-1b73959d061c"
    },
    {
        "name": "中島神社",
        "prefectureName": "宮崎県",
        "cityName": "えびの市",
        "streetName": "大字原田３９８５番地",
        "latitude": 32.05137538,
        "longitude": 130.87220451,
        "id": "b7dc9bf1-8bc2-4143-a871-d7212acfcdee"
    },
    {
        "name": "中川神社",
        "prefectureName": "宮崎県",
        "cityName": "西臼杵郡日之影町",
        "streetName": "大字七折４６２８番地",
        "latitude": 32.6721394,
        "longitude": 131.44028194,
        "id": "67f4cb6e-256e-47bc-b3e7-1675d0e9e183"
    },
    {
        "name": "中村神社",
        "prefectureName": "宮崎県",
        "cityName": "日南市",
        "streetName": "南郷町中村字穴ノ前甲４８１１番地",
        "latitude": 31.54090593,
        "longitude": 131.38229234,
        "id": "e4dd3039-cb35-404c-9019-43357b609df8"
    },
    {
        "name": "中畑神社",
        "prefectureName": "宮崎県",
        "cityName": "西臼杵郡高千穂町",
        "streetName": "大字押方６４１７番地",
        "latitude": 32.72417368,
        "longitude": 131.27448335,
        "id": "93b4532d-4782-4712-abf6-9417fbbea2ba"
    },
    {
        "name": "中野神社",
        "prefectureName": "宮崎県",
        "cityName": "宮崎市",
        "streetName": "清武町木原５２５番地",
        "latitude": 31.85890673,
        "longitude": 131.39536708,
        "id": "c2427364-ba71-44f9-8efc-1a0806b24618"
    },
    {
        "name": "串間神社",
        "prefectureName": "宮崎県",
        "cityName": "串間市",
        "streetName": "大字串間１４１０番地",
        "latitude": 31.48596657,
        "longitude": 131.24500973,
        "id": "bc77fc31-acab-4e3b-91be-6fd86ac7e68a"
    },
    {
        "name": "久保山神社",
        "prefectureName": "宮崎県",
        "cityName": "延岡市",
        "streetName": "北方町北久保山子３８５６番地３８５７番地",
        "latitude": 32.60495456,
        "longitude": 131.48611299,
        "id": "0331b295-88a5-4e93-b87c-badceda73583"
    },
    {
        "name": "久峯神社",
        "prefectureName": "宮崎県",
        "cityName": "宮崎市",
        "streetName": "佐土原町下田島１４０５６番地",
        "latitude": 32.016718,
        "longitude": 131.47671815,
        "id": "c8c6b299-7400-4b88-b37b-f81c078bc7f7"
    },
    {
        "name": "乙姫神社",
        "prefectureName": "宮崎県",
        "cityName": "日南市",
        "streetName": "南郷町潟上９３２９番地",
        "latitude": 31.50991544,
        "longitude": 131.3311751,
        "id": "32e2c6f4-e341-4d03-8884-1b4830ed4b14"
    },
    {
        "name": "乙戸神社",
        "prefectureName": "宮崎県",
        "cityName": "都城市",
        "streetName": "下川東３丁目１２号２番地",
        "latitude": 31.7446852,
        "longitude": 131.07325587,
        "id": "06d91811-ced8-436e-a3d4-ef1348983973"
    },
    {
        "name": "九社神社",
        "prefectureName": "宮崎県",
        "cityName": "日南市",
        "streetName": "大字下方１６３０番地",
        "latitude": 31.6013985,
        "longitude": 131.3783384,
        "id": "3a6d5e49-5add-447b-8c23-0ac0a5ea8cba"
    },
    {
        "name": "亀井神社",
        "prefectureName": "宮崎県",
        "cityName": "延岡市",
        "streetName": "天神小路２９２番地",
        "latitude": 32.58156932,
        "longitude": 131.6574566,
        "id": "fc83d189-8e72-4cc7-973c-5a588b48f640"
    },
    {
        "name": "二上神社",
        "prefectureName": "宮崎県",
        "cityName": "西臼杵郡高千穂町",
        "streetName": "大字押方２３７５番地１",
        "latitude": 32.68687991,
        "longitude": 131.26677628,
        "id": "2d19fdce-d7a8-4c69-9f37-d7f07b10c606"
    },
    {
        "name": "二嶽神社",
        "prefectureName": "宮崎県",
        "cityName": "西臼杵郡高千穂町",
        "streetName": "大字上岩戸２１５番地",
        "latitude": 32.74776683,
        "longitude": 131.37596029,
        "id": "1aa6bdb9-5292-4850-a1c8-37bbca515f7b"
    },
    {
        "name": "二股神社",
        "prefectureName": "宮崎県",
        "cityName": "延岡市",
        "streetName": "北方町二股亥６５５番地",
        "latitude": 32.60495456,
        "longitude": 131.48611299,
        "id": "b841aaab-2041-41c9-a030-a971d4bcdcd2"
    },
    {
        "name": "五十猛神社",
        "prefectureName": "宮崎県",
        "cityName": "日向市",
        "streetName": "大字財光寺７２６０番地",
        "latitude": 32.41253659,
        "longitude": 131.62630116,
        "id": "20b18899-d573-4199-97f4-b37558f64754"
    },
    {
        "name": "五百禩神社",
        "prefectureName": "宮崎県",
        "cityName": "日南市",
        "streetName": "大字楠原字寺之脇１番地",
        "latitude": 31.62335725,
        "longitude": 131.34787608,
        "id": "54b8aa55-a26f-4010-940c-5a071b4165b2"
    },
    {
        "name": "今泉神社",
        "prefectureName": "宮崎県",
        "cityName": "宮崎市",
        "streetName": "清武町今泉丙１５２５番地",
        "latitude": 31.84061827,
        "longitude": 131.37241916,
        "id": "7c9077be-4038-44e8-80bf-56ad5b73e313"
    },
    {
        "name": "今町神社",
        "prefectureName": "宮崎県",
        "cityName": "児湯郡新富町",
        "streetName": "大字新田１１３番地",
        "latitude": 32.05766778,
        "longitude": 131.46078069,
        "id": "77dc7147-ab02-4f6a-986f-16933d110075"
    },
    {
        "name": "仲瀨神社",
        "prefectureName": "宮崎県",
        "cityName": "日向市",
        "streetName": "東郷町山陰戊５９４番地４・５９４番地５",
        "latitude": 32.38067955,
        "longitude": 131.55254481,
        "id": "85c20e39-728a-4abe-bdcf-f0fe1c8b46d0"
    },
    {
        "name": "伊倉神社",
        "prefectureName": "宮崎県",
        "cityName": "児湯郡新富町",
        "streetName": "大字伊倉１３番地",
        "latitude": 32.07304907,
        "longitude": 131.43872113,
        "id": "c14a021a-0b42-4656-8984-654718a32244"
    },
    {
        "name": "伊勢神社",
        "prefectureName": "宮崎県",
        "cityName": "宮崎市",
        "streetName": "高岡町浦之名４１３８番地２",
        "latitude": 31.95775046,
        "longitude": 131.30193289,
        "id": "bb0f752f-c7f4-4056-af20-47b4050098fd"
    },
    {
        "name": "伊勢神社",
        "prefectureName": "宮崎県",
        "cityName": "児湯郡木城町",
        "streetName": "大字椎木１３０５番地",
        "latitude": 32.16549621,
        "longitude": 131.45080461,
        "id": "405539a7-01a5-408b-af69-b5121dce05eb"
    },
    {
        "name": "伊比井神社",
        "prefectureName": "宮崎県",
        "cityName": "日南市",
        "streetName": "大字伊比井１９９１番地",
        "latitude": 31.6013985,
        "longitude": 131.3783384,
        "id": "068b2f7d-d466-4e2a-9061-7fc5857b4d87"
    },
    {
        "name": "伍社神社",
        "prefectureName": "宮崎県",
        "cityName": "日南市",
        "streetName": "南郷町中村字小島乙８８７番地乙",
        "latitude": 31.54090593,
        "longitude": 131.38229234,
        "id": "a05d1585-cb45-4b42-8225-ea8b7c69d78d"
    },
    {
        "name": "住吉神社",
        "prefectureName": "宮崎県",
        "cityName": "宮崎市",
        "streetName": "大字塩路３０８２番地１",
        "latitude": 31.98251517,
        "longitude": 131.4768563,
        "id": "38163b4a-f256-4c6f-95c3-48d56f0d68c1"
    },
    {
        "name": "住吉神社",
        "prefectureName": "宮崎県",
        "cityName": "宮崎市",
        "streetName": "阿波岐原町竹割２４０９番地",
        "latitude": 31.9077892,
        "longitude": 131.4203302,
        "id": "da81773f-5339-445a-b532-f0c76eda140a"
    },
    {
        "name": "住吉神社",
        "prefectureName": "宮崎県",
        "cityName": "西都市",
        "streetName": "大字岡富９６３番地",
        "latitude": 32.07813703,
        "longitude": 131.40980586,
        "id": "bca6982c-59b8-4906-82b3-f98a14b131c6"
    },
    {
        "name": "住吉神社",
        "prefectureName": "宮崎県",
        "cityName": "日南市",
        "streetName": "北郷町郷之原甲３５３７番地",
        "latitude": 31.69834745,
        "longitude": 131.37526634,
        "id": "97f3d05c-249c-464c-a59b-5d56f045494a"
    },
    {
        "name": "佐土原神社",
        "prefectureName": "宮崎県",
        "cityName": "宮崎市",
        "streetName": "佐土原町上田島１３４３番地１",
        "latitude": 32.016718,
        "longitude": 131.47671815,
        "id": "c2d88fc8-632d-4f82-a7cd-44008e4bf56d"
    },
    {
        "name": "倉岡神社",
        "prefectureName": "宮崎県",
        "cityName": "宮崎市",
        "streetName": "大字糸原３２９５番地",
        "latitude": 31.9077892,
        "longitude": 131.4203302,
        "id": "ad67180f-ff7c-41dc-8f0c-c7df238d3b04"
    },
    {
        "name": "児原稲荷神社",
        "prefectureName": "宮崎県",
        "cityName": "児湯郡西米良村",
        "streetName": "大字越野尾１３４番地１",
        "latitude": 32.18775239,
        "longitude": 131.24375883,
        "id": "38c8e575-b494-47a6-910a-658091c4393a"
    },
    {
        "name": "入下神社",
        "prefectureName": "宮崎県",
        "cityName": "東臼杵郡美郷町",
        "streetName": "北郷入下２２１５番地",
        "latitude": 32.4402748,
        "longitude": 131.4231705,
        "id": "2dc37f42-332b-402b-ba18-a318bd41fca8"
    },
    {
        "name": "入野神社",
        "prefectureName": "宮崎県",
        "cityName": "東諸県郡綾町",
        "streetName": "大字入野１２８０番地のイ",
        "latitude": 31.99103326,
        "longitude": 131.26266949,
        "id": "3e376fb7-defe-4e8e-a0a7-98a5f80551a5"
    },
    {
        "name": "八坂神社",
        "prefectureName": "宮崎県",
        "cityName": "東諸県郡綾町",
        "streetName": "大字南俣７８９番地",
        "latitude": 31.99746584,
        "longitude": 131.25243399,
        "id": "ae0440b8-ce59-45cf-9ee0-93c85d153924"
    },
    {
        "name": "八坂神社",
        "prefectureName": "宮崎県",
        "cityName": "宮崎市",
        "streetName": "佐土原町上田島１７１４番地３",
        "latitude": 32.04906239,
        "longitude": 131.43199261,
        "id": "4ebaca7a-06a0-4439-84e4-3cadbba58cb1"
    },
    {
        "name": "八坂神社",
        "prefectureName": "宮崎県",
        "cityName": "児湯郡都農町",
        "streetName": "大字川北２１８６番地イ号",
        "latitude": 32.2562951,
        "longitude": 131.5595699,
        "id": "33ef3e5e-564c-49be-9a86-d99e3c278758"
    },
    {
        "name": "八坂神社",
        "prefectureName": "宮崎県",
        "cityName": "宮崎市",
        "streetName": "大字跡江３３２３番地１",
        "latitude": 31.9077892,
        "longitude": 131.4203302,
        "id": "4af9c0b8-0e26-4e4d-81a9-e09072ffa6bd"
    },
    {
        "name": "八坂神社",
        "prefectureName": "宮崎県",
        "cityName": "児湯郡木城町",
        "streetName": "大字椎木４２６７番地",
        "latitude": 32.158014,
        "longitude": 131.47086115,
        "id": "de64ce1c-5add-4e5f-85b2-730f3d58b0e3"
    },
    {
        "name": "八坂神社",
        "prefectureName": "宮崎県",
        "cityName": "児湯郡都農町",
        "streetName": "大字川北４８７４番地１",
        "latitude": 32.255984,
        "longitude": 131.55927831,
        "id": "04373ffb-ab5b-4eef-b334-df8bf55e5785"
    },
    {
        "name": "八坂神社",
        "prefectureName": "宮崎県",
        "cityName": "宮崎市",
        "streetName": "大字跡江２４０２番地１",
        "latitude": 31.9077892,
        "longitude": 131.4203302,
        "id": "634addad-d2ee-422b-886b-a1047d93cd68"
    },
    {
        "name": "八坂神社",
        "prefectureName": "宮崎県",
        "cityName": "児湯郡高鍋町",
        "streetName": "大字南高鍋８２４番地",
        "latitude": 32.1280732,
        "longitude": 131.503015,
        "id": "e291dd30-5c9f-4729-ac5b-5a6ab4454b9a"
    },
    {
        "name": "八坂神社",
        "prefectureName": "宮崎県",
        "cityName": "都城市",
        "streetName": "宮丸町３０６６番地３",
        "latitude": 31.72723352,
        "longitude": 131.05784633,
        "id": "288d179c-06e6-4008-b55d-6cf18397a032"
    },
    {
        "name": "八坂神社",
        "prefectureName": "宮崎県",
        "cityName": "宮崎市",
        "streetName": "城ケ崎３丁目９番地４",
        "latitude": 31.8974694,
        "longitude": 131.43128789,
        "id": "a8faec85-6c75-4e2f-8677-0a181961b100"
    },
    {
        "name": "八坂神社",
        "prefectureName": "宮崎県",
        "cityName": "都城市",
        "streetName": "西町３７１３番地１",
        "latitude": 31.7195901,
        "longitude": 131.061624,
        "id": "9e774b0a-e76e-46bd-b457-b3909a949868"
    },
    {
        "name": "八坂神社",
        "prefectureName": "宮崎県",
        "cityName": "日南市",
        "streetName": "南郷町贄波字丑牧３２３３番地",
        "latitude": 31.54090593,
        "longitude": 131.38229234,
        "id": "34d43126-0b70-455d-b672-a7ac58caefca"
    },
    {
        "name": "八坂神社",
        "prefectureName": "宮崎県",
        "cityName": "宮崎市",
        "streetName": "高岡町上倉永１９０５番地",
        "latitude": 31.92262407,
        "longitude": 131.33539941,
        "id": "9eaf88f9-dc20-4371-9ce1-83b802eaf9e5"
    },
    {
        "name": "八尾神社",
        "prefectureName": "宮崎県",
        "cityName": "小林市",
        "streetName": "野尻町三ケ野山２０２６番地",
        "latitude": 31.95956809,
        "longitude": 131.09911782,
        "id": "7d2be113-9f45-46fb-beaf-bfb570d1ed20"
    },
    {
        "name": "八幡大神社",
        "prefectureName": "宮崎県",
        "cityName": "西臼杵郡高千穂町",
        "streetName": "大字下野５６９番地",
        "latitude": 32.7116564,
        "longitude": 131.3080278,
        "id": "33543da3-9a26-48ef-905e-16ea6e45e892"
    },
    {
        "name": "八幡神社",
        "prefectureName": "宮崎県",
        "cityName": "児湯郡都農町",
        "streetName": "大字川北４１５４番地",
        "latitude": 32.2562951,
        "longitude": 131.5595699,
        "id": "f83e13bf-cb90-46e6-b3c6-0ade3b4607ea"
    },
    {
        "name": "八幡神社",
        "prefectureName": "宮崎県",
        "cityName": "児湯郡新富町",
        "streetName": "大字三納代２４４３番地ノ１",
        "latitude": 32.0688705,
        "longitude": 131.4880162,
        "id": "0c704b9c-0271-4e07-9ae2-4484ba2e87ba"
    },
    {
        "name": "八幡神社",
        "prefectureName": "宮崎県",
        "cityName": "児湯郡木城町",
        "streetName": "大字高城１１０番地２",
        "latitude": 32.16165279,
        "longitude": 131.48764854,
        "id": "ca02521a-dfb8-4f74-b2b5-68a3ac4247db"
    },
    {
        "name": "八幡神社",
        "prefectureName": "宮崎県",
        "cityName": "日向市",
        "streetName": "大字富高５８９５番地",
        "latitude": 32.4325621,
        "longitude": 131.61163199,
        "id": "9cdc6671-a0d3-4688-84eb-7e00fae3791e"
    },
    {
        "name": "八幡神社",
        "prefectureName": "宮崎県",
        "cityName": "児湯郡西米良村",
        "streetName": "大字村所１２番地",
        "latitude": 32.2263347,
        "longitude": 131.1544788,
        "id": "cb4bc28e-2dfd-4cd5-b3ea-52ce4e0dd24e"
    },
    {
        "name": "八幡神社",
        "prefectureName": "宮崎県",
        "cityName": "日南市",
        "streetName": "南郷町脇本３４９８番地１９",
        "latitude": 31.54090593,
        "longitude": 131.38229234,
        "id": "3dfd7d43-5e16-494e-87f0-7b1b7e9f6374"
    },
    {
        "name": "八幡神社",
        "prefectureName": "宮崎県",
        "cityName": "宮崎市",
        "streetName": "大字島之内７５９９番地",
        "latitude": 31.98898035,
        "longitude": 131.45118553,
        "id": "5316e99a-7a9f-4709-8933-0b3fb8506a16"
    },
    {
        "name": "八幡神社",
        "prefectureName": "宮崎県",
        "cityName": "日向市",
        "streetName": "東郷町山陰甲１６３番地",
        "latitude": 32.38067955,
        "longitude": 131.55254481,
        "id": "eafdf8df-ebcb-438a-afd8-331b0ec145bb"
    },
    {
        "name": "八幡神社",
        "prefectureName": "宮崎県",
        "cityName": "宮崎市",
        "streetName": "大字大瀬町５７１４番地",
        "latitude": 31.97942074,
        "longitude": 131.38998184,
        "id": "1d766f76-9a37-422e-accf-a1d12fa8e598"
    },
    {
        "name": "八幡神社",
        "prefectureName": "宮崎県",
        "cityName": "えびの市",
        "streetName": "大字原田１３０３番地",
        "latitude": 32.045344,
        "longitude": 130.8107963,
        "id": "3810ad34-a45d-4775-a65f-b7bf7dfd266c"
    },
    {
        "name": "八幡神社",
        "prefectureName": "宮崎県",
        "cityName": "宮崎市",
        "streetName": "吉村町甲２１３３番地",
        "latitude": 31.9077892,
        "longitude": 131.4203302,
        "id": "62152c33-128b-42a2-b945-a898a0f71f93"
    },
    {
        "name": "八幡神社",
        "prefectureName": "宮崎県",
        "cityName": "児湯郡川南町",
        "streetName": "大字川南６４３５番地",
        "latitude": 32.1920697,
        "longitude": 131.525871,
        "id": "2e4cdc5c-d556-4257-be6b-9583f20ac60c"
    },
    {
        "name": "八戸神社",
        "prefectureName": "宮崎県",
        "cityName": "延岡市",
        "streetName": "北川町川内名８６０１番の１地",
        "latitude": 32.73176917,
        "longitude": 131.65499611,
        "id": "947d3eb5-ca7b-4d86-8eb2-a12c2775de37"
    },
    {
        "name": "八王子神社",
        "prefectureName": "宮崎県",
        "cityName": "延岡市",
        "streetName": "北浦町古江４０３番地の乙",
        "latitude": 32.70631904,
        "longitude": 131.82116427,
        "id": "e4625e1d-19ad-468c-bb36-c7b7ee3c931c"
    },
    {
        "name": "八重ノ平神社",
        "prefectureName": "宮崎県",
        "cityName": "東臼杵郡諸塚村",
        "streetName": "大字七ツ山４８０１番地２",
        "latitude": 32.5121697,
        "longitude": 131.330321,
        "id": "41a519f3-e5be-45fd-853f-e1c6d6cea17d"
    },
    {
        "name": "八重原神社",
        "prefectureName": "宮崎県",
        "cityName": "日向市",
        "streetName": "東郷町八重原迫野内６２２・６２３番地",
        "latitude": 32.38067955,
        "longitude": 131.55254481,
        "id": "4ce5d5ce-034a-40e5-b0b4-a481652136a2"
    },
    {
        "name": "八重稲荷神社",
        "prefectureName": "宮崎県",
        "cityName": "西都市",
        "streetName": "大字八重４０１番地乙の２",
        "latitude": 32.22600421,
        "longitude": 131.25088225,
        "id": "e47b3e8b-4500-497c-b726-131b704efc91"
    },
    {
        "name": "八阪神社",
        "prefectureName": "宮崎県",
        "cityName": "東臼杵郡門川町",
        "streetName": "大字門川尾末４９６５番地１",
        "latitude": 32.46878371,
        "longitude": 131.63144836,
        "id": "6d2da540-4709-40b2-b3ac-e0f019c850e7"
    },
    {
        "name": "兼喜神社",
        "prefectureName": "宮崎県",
        "cityName": "都城市",
        "streetName": "都島町２１９番地",
        "latitude": 31.7195901,
        "longitude": 131.061624,
        "id": "df0f56e4-43ca-4333-b891-86a4039bc6be"
    },
    {
        "name": "内山神社",
        "prefectureName": "宮崎県",
        "cityName": "宮崎市",
        "streetName": "高岡町内山２８１５番地ロ号",
        "latitude": 31.95941966,
        "longitude": 131.29960517,
        "id": "0b98979e-1765-48bf-a9ec-3ee262a941e8"
    },
    {
        "name": "出北神社",
        "prefectureName": "宮崎県",
        "cityName": "延岡市",
        "streetName": "出北３丁目１３１番地２",
        "latitude": 32.5823196,
        "longitude": 131.6648505,
        "id": "716b1f26-10a6-40ca-b67c-a4d55bb68d17"
    },
    {
        "name": "剣柄稲荷神社",
        "prefectureName": "宮崎県",
        "cityName": "東諸県郡国富町",
        "streetName": "大字本庄４８４５番地",
        "latitude": 31.9905292,
        "longitude": 131.3234829,
        "id": "25524c2d-4d37-4ad0-86e1-da91b4189667"
    },
    {
        "name": "加久藤城竈門神社",
        "prefectureName": "宮崎県",
        "cityName": "えびの市",
        "streetName": "大字小田１１００番地",
        "latitude": 32.045344,
        "longitude": 130.8107963,
        "id": "2d456734-9d72-46c1-9005-654b04b09fc4"
    },
    {
        "name": "加久藤神社",
        "prefectureName": "宮崎県",
        "cityName": "えびの市",
        "streetName": "大字栗下９４３番地",
        "latitude": 32.03813088,
        "longitude": 130.81286042,
        "id": "350acbfa-51dd-4641-880e-a6ec32d13941"
    },
    {
        "name": "加勢神社",
        "prefectureName": "宮崎県",
        "cityName": "西都市",
        "streetName": "大字加勢２１１６番地",
        "latitude": 32.08274431,
        "longitude": 131.34275439,
        "id": "e0e8b01c-5041-4c9f-8dd4-2e9b73919385"
    },
    {
        "name": "加江田神社",
        "prefectureName": "宮崎県",
        "cityName": "宮崎市",
        "streetName": "学園木花台桜１丁目２９番地４",
        "latitude": 31.82644374,
        "longitude": 131.41947282,
        "id": "9888141e-0b49-4dfb-9bfb-18f937c9ffbd"
    },
    {
        "name": "加納神社",
        "prefectureName": "宮崎県",
        "cityName": "宮崎市",
        "streetName": "清武町加納乙２５３番地",
        "latitude": 31.88053055,
        "longitude": 131.40640994,
        "id": "c3c187fb-48f0-4a62-ad29-3721addb35fb"
    },
    {
        "name": "加草神社",
        "prefectureName": "宮崎県",
        "cityName": "東臼杵郡門川町",
        "streetName": "大字加草２９３９番地",
        "latitude": 32.49055419,
        "longitude": 131.64819935,
        "id": "19edceb7-a2eb-4cda-ae6f-bd950b5ab0a2"
    },
    {
        "name": "加護神社",
        "prefectureName": "宮崎県",
        "cityName": "宮崎市",
        "streetName": "大字郡司分字国富２２２５番地",
        "latitude": 31.9077892,
        "longitude": 131.4203302,
        "id": "dafa1867-0e1b-4934-b4a1-09b30421b92f"
    },
    {
        "name": "北山神社",
        "prefectureName": "宮崎県",
        "cityName": "児湯郡川南町",
        "streetName": "大字平田５３７１番地",
        "latitude": 32.1666836,
        "longitude": 131.53703541,
        "id": "f0e05c6b-fd73-4d40-be3f-dfe179866aba"
    },
    {
        "name": "北神社",
        "prefectureName": "宮崎県",
        "cityName": "串間市",
        "streetName": "大字北方６３２４番地",
        "latitude": 31.46465781,
        "longitude": 131.24374378,
        "id": "212d918d-4069-41cb-859d-4145a1a7125e"
    },
    {
        "name": "十柱神社",
        "prefectureName": "宮崎県",
        "cityName": "都城市",
        "streetName": "高崎町笛水３３８番地",
        "latitude": 31.93877672,
        "longitude": 131.12956354,
        "id": "3cc4b8ff-dd69-4aaa-ab8a-2b67f186305e"
    },
    {
        "name": "十根川神社",
        "prefectureName": "宮崎県",
        "cityName": "東臼杵郡椎葉村",
        "streetName": "大字下福良８９８番地１",
        "latitude": 32.4673725,
        "longitude": 131.1581508,
        "id": "369274f7-efd7-4d31-a1d0-4050f1bf5333"
    },
    {
        "name": "千足神社",
        "prefectureName": "宮崎県",
        "cityName": "都城市",
        "streetName": "美川町１７６１番地",
        "latitude": 31.80855656,
        "longitude": 130.95799822,
        "id": "ee414a4e-41ad-4c33-b6d5-5319b3b5a2ee"
    },
    {
        "name": "南川神社",
        "prefectureName": "宮崎県",
        "cityName": "東臼杵郡諸塚村",
        "streetName": "大字家代５７１６番地ロ－乙",
        "latitude": 32.5121697,
        "longitude": 131.330321,
        "id": "7b215212-529b-4b3f-b9a5-fa9e2ac93afe"
    },
    {
        "name": "南方神社",
        "prefectureName": "宮崎県",
        "cityName": "西都市",
        "streetName": "大字南方３２４６番地",
        "latitude": 32.13057619,
        "longitude": 131.39311056,
        "id": "0b2ab4db-ee5e-4ae3-a035-1cd7c1b30c0b"
    },
    {
        "name": "南方神社",
        "prefectureName": "宮崎県",
        "cityName": "都城市",
        "streetName": "山之口町花木９５４番地",
        "latitude": 31.7777158,
        "longitude": 131.16068459,
        "id": "a71eb9d7-0d78-48f8-baa1-b11214077bc3"
    },
    {
        "name": "南方神社",
        "prefectureName": "宮崎県",
        "cityName": "都城市",
        "streetName": "高木町４３９０番地",
        "latitude": 31.7195901,
        "longitude": 131.061624,
        "id": "f84078d4-89df-491b-9d34-deeb086b8b5b"
    },
    {
        "name": "南方神社",
        "prefectureName": "宮崎県",
        "cityName": "えびの市",
        "streetName": "大字西長江浦７００番地",
        "latitude": 32.01845227,
        "longitude": 130.81154511,
        "id": "8ac95ec7-7fc7-4684-9566-847844cf191e"
    },
    {
        "name": "南神社",
        "prefectureName": "宮崎県",
        "cityName": "串間市",
        "streetName": "大字奈留７５８８番地",
        "latitude": 31.50257613,
        "longitude": 131.25445332,
        "id": "c10a5ed9-f149-4414-b492-e657fedfbe06"
    },
    {
        "name": "印鑰神社",
        "prefectureName": "宮崎県",
        "cityName": "西都市",
        "streetName": "大字三宅２８４４番地",
        "latitude": 32.09619077,
        "longitude": 131.39722548,
        "id": "fe810d3d-6891-43d0-9a8e-358209171a43"
    },
    {
        "name": "厳島神社",
        "prefectureName": "宮崎県",
        "cityName": "えびの市",
        "streetName": "大字西長江浦３９３番地",
        "latitude": 32.045344,
        "longitude": 130.8107963,
        "id": "f2b7b447-c6e3-4082-9e7e-d98db763026b"
    },
    {
        "name": "厳嶋神社",
        "prefectureName": "宮崎県",
        "cityName": "児湯郡高鍋町",
        "streetName": "大字上江３９７７番地",
        "latitude": 32.14790995,
        "longitude": 131.48744612,
        "id": "aa265095-e084-41e2-adcc-a57b2c2237af"
    },
    {
        "name": "古城神社",
        "prefectureName": "宮崎県",
        "cityName": "宮崎市",
        "streetName": "古城町時雨３８６１番地",
        "latitude": 31.9077892,
        "longitude": 131.4203302,
        "id": "0c4b4a0c-5165-4393-b8a0-4a57944d8406"
    },
    {
        "name": "古戸野神社",
        "prefectureName": "宮崎県",
        "cityName": "西臼杵郡五ヶ瀬町",
        "streetName": "大字桑野内４６６８番地",
        "latitude": 32.71049241,
        "longitude": 131.20580911,
        "id": "c130ee93-62b1-4ed3-a077-4ee7239037cf"
    },
    {
        "name": "古江神社",
        "prefectureName": "宮崎県",
        "cityName": "延岡市",
        "streetName": "北浦町古江字宮ノ本１８９１番地",
        "latitude": 32.70631904,
        "longitude": 131.82116427,
        "id": "31a51b62-bf1d-4a44-ad4e-bc7e1b6e8529"
    },
    {
        "name": "古舘神社",
        "prefectureName": "宮崎県",
        "cityName": "宮崎市",
        "streetName": "佐土原町上田島３６９６番地１",
        "latitude": 32.05336202,
        "longitude": 131.43521998,
        "id": "ae8581e3-5ba5-46a5-8da5-aca24bc732d1"
    },
    {
        "name": "可愛塚神社",
        "prefectureName": "宮崎県",
        "cityName": "西都市",
        "streetName": "大字三宅５６４７番地",
        "latitude": 32.1085535,
        "longitude": 131.4012025,
        "id": "12c3ca26-5d7b-47e5-9fd3-16661ee202d1"
    },
    {
        "name": "可愛神社",
        "prefectureName": "宮崎県",
        "cityName": "延岡市",
        "streetName": "北川町長井６４９５番乙地",
        "latitude": 32.686108,
        "longitude": 131.69329339,
        "id": "0142cb89-3b1f-4b93-8e90-329b543a46da"
    },
    {
        "name": "右松神社",
        "prefectureName": "宮崎県",
        "cityName": "西都市",
        "streetName": "大字右松２００２番地",
        "latitude": 32.10083208,
        "longitude": 131.40363043,
        "id": "18f36c01-b2e4-4260-8f82-2ba75146cad9"
    },
    {
        "name": "名田神社",
        "prefectureName": "宮崎県",
        "cityName": "宮崎市",
        "streetName": "下北方町平ノ下５２１７番地１",
        "latitude": 31.9077892,
        "longitude": 131.4203302,
        "id": "701f24f6-4efb-4cf6-9321-add48b0f91c8"
    },
    {
        "name": "向山神社",
        "prefectureName": "宮崎県",
        "cityName": "東臼杵郡椎葉村",
        "streetName": "大字不土野８３７番地",
        "latitude": 32.4673725,
        "longitude": 131.1581508,
        "id": "d10f6ac1-03ef-49a1-a213-36798a99b136"
    },
    {
        "name": "向山神社",
        "prefectureName": "宮崎県",
        "cityName": "西臼杵郡高千穂町",
        "streetName": "大字向山１８０５番地ノ３",
        "latitude": 32.68796914,
        "longitude": 131.30472313,
        "id": "0cfb8bc2-81a5-418d-a292-5ea0863d8c14"
    },
    {
        "name": "吾平津神社",
        "prefectureName": "宮崎県",
        "cityName": "日南市",
        "streetName": "材木町９番１０号",
        "latitude": 31.58464446,
        "longitude": 131.40158778,
        "id": "e781c59a-cb05-4b92-94c8-a84da9ab18fb"
    },
    {
        "name": "吾田神社",
        "prefectureName": "宮崎県",
        "cityName": "日南市",
        "streetName": "大字戸高８７９番地",
        "latitude": 31.6013985,
        "longitude": 131.3783384,
        "id": "a2abfe27-baca-4ea8-b25b-4a9fe6b0d1f5"
    },
    {
        "name": "嚴島神社",
        "prefectureName": "宮崎県",
        "cityName": "日向市",
        "streetName": "大字幸脇１１９７番地",
        "latitude": 32.4226467,
        "longitude": 131.6239814,
        "id": "21611912-53f9-41e9-9da2-764dcb13807e"
    },
    {
        "name": "嚴島神社",
        "prefectureName": "宮崎県",
        "cityName": "児湯郡新富町",
        "streetName": "大字三納代１０６０番地９",
        "latitude": 32.0866376,
        "longitude": 131.47862225,
        "id": "1b0d8f18-f493-43cd-8a56-b33ee0a1a4c2"
    },
    {
        "name": "国玉神社",
        "prefectureName": "宮崎県",
        "cityName": "児湯郡木城町",
        "streetName": "大字高城１１５５番地１",
        "latitude": 32.16336905,
        "longitude": 131.47582172,
        "id": "6a4f0720-0d25-413f-be63-246ba328c6b2"
    },
    {
        "name": "土持神社",
        "prefectureName": "宮崎県",
        "cityName": "延岡市",
        "streetName": "妙町６４５番地乙",
        "latitude": 32.5823196,
        "longitude": 131.6648505,
        "id": "20431cba-02f7-4bc2-aaf8-96db0528b4a6"
    },
    {
        "name": "地下神社",
        "prefectureName": "宮崎県",
        "cityName": "延岡市",
        "streetName": "北浦町古江字平迫出口５３９番地の乙",
        "latitude": 32.70631904,
        "longitude": 131.82116427,
        "id": "7444075d-d51b-4803-9261-62eb74c62b99"
    },
    {
        "name": "地主神社",
        "prefectureName": "宮崎県",
        "cityName": "東諸県郡国富町",
        "streetName": "大字塚原１７５番地",
        "latitude": 31.97891175,
        "longitude": 131.36288661,
        "id": "1d7569dc-af2d-4d96-95ee-643fe0b8cbba"
    },
    {
        "name": "坪谷神社",
        "prefectureName": "宮崎県",
        "cityName": "日向市",
        "streetName": "東郷町坪谷９５５番地",
        "latitude": 32.36031258,
        "longitude": 131.45462853,
        "id": "2a54350a-8a2e-4785-a7c1-4bdb15137ac7"
    },
    {
        "name": "堤神社",
        "prefectureName": "宮崎県",
        "cityName": "宮崎市",
        "streetName": "佐土原町上田島４０３９番地",
        "latitude": 32.016718,
        "longitude": 131.47671815,
        "id": "18ca0097-a14f-4460-9b3e-8bce0d82fee9"
    },
    {
        "name": "塚原神社",
        "prefectureName": "宮崎県",
        "cityName": "児湯郡木城町",
        "streetName": "大字高城４５１３番地",
        "latitude": 32.16924856,
        "longitude": 131.45318763,
        "id": "fe44f0c8-6045-441f-9d13-6b40e6a33bfd"
    },
    {
        "name": "塚原神社",
        "prefectureName": "宮崎県",
        "cityName": "東臼杵郡諸塚村",
        "streetName": "大字家代２８５０番地",
        "latitude": 32.51690536,
        "longitude": 131.33045417,
        "id": "2a6ac96b-f6ec-40fd-ab5f-c930424aadf9"
    },
    {
        "name": "塚田神社",
        "prefectureName": "宮崎県",
        "cityName": "日南市",
        "streetName": "大字塚田字東乙２７３７番地",
        "latitude": 31.6013985,
        "longitude": 131.3783384,
        "id": "aadf916f-dd5d-4acb-81ad-f552438e52bd"
    },
    {
        "name": "増谷神社",
        "prefectureName": "宮崎県",
        "cityName": "東臼杵郡美郷町",
        "streetName": "西郷山三ケ３１３９番地３",
        "latitude": 32.4402748,
        "longitude": 131.4231705,
        "id": "0f96bd57-35a2-4447-b8c0-785a09344327"
    },
    {
        "name": "多賀神社",
        "prefectureName": "宮崎県",
        "cityName": "児湯郡木城町",
        "streetName": "大字椎木１８２７番地",
        "latitude": 32.1641772,
        "longitude": 131.4736164,
        "id": "d6117f5d-d2a6-4c5a-b9b3-26b9f524a841"
    },
    {
        "name": "多賀神社",
        "prefectureName": "宮崎県",
        "cityName": "児湯郡高鍋町",
        "streetName": "大字北高鍋１１７６番地",
        "latitude": 32.12958991,
        "longitude": 131.51570552,
        "id": "e8be39db-a58c-4371-b6a2-d88da4376bb7"
    },
    {
        "name": "多賀神社",
        "prefectureName": "宮崎県",
        "cityName": "日向市",
        "streetName": "美々津町３６９２番地イ",
        "latitude": 32.332305,
        "longitude": 131.60435593,
        "id": "872a577a-f765-4635-9da5-93feceb61cd4"
    },
    {
        "name": "大人神社",
        "prefectureName": "宮崎県",
        "cityName": "西臼杵郡日之影町",
        "streetName": "大字岩井川２１０９番地１",
        "latitude": 32.66079281,
        "longitude": 131.36847783,
        "id": "a15c2f33-67ef-42eb-a191-00c506e5f5fd"
    },
    {
        "name": "大原神社",
        "prefectureName": "宮崎県",
        "cityName": "東諸県郡国富町",
        "streetName": "大字宮王丸４９８番地",
        "latitude": 31.98729941,
        "longitude": 131.34280982,
        "id": "89240464-1f0a-4a00-b587-fe4721b377da"
    },
    {
        "name": "大和神社",
        "prefectureName": "宮崎県",
        "cityName": "宮崎市",
        "streetName": "佐土原町東上那珂６４１５番地",
        "latitude": 32.01491934,
        "longitude": 131.44221259,
        "id": "e1fbef7f-b150-4c3a-8c62-ad2d14e43148"
    },
    {
        "name": "大宮神社",
        "prefectureName": "宮崎県",
        "cityName": "日南市",
        "streetName": "大字東弁分乙３５番地",
        "latitude": 31.6013985,
        "longitude": 131.3783384,
        "id": "df584fe6-5219-46af-9b12-fd319b0af14a"
    },
    {
        "name": "大將軍神社",
        "prefectureName": "宮崎県",
        "cityName": "延岡市",
        "streetName": "無鹿町２丁目３３６８番地乙",
        "latitude": 32.61076831,
        "longitude": 131.6913282,
        "id": "0476d713-3084-4b9f-ad15-b9628e83a795"
    },
    {
        "name": "大將軍神社",
        "prefectureName": "宮崎県",
        "cityName": "延岡市",
        "streetName": "二ツ島町９７４９番地",
        "latitude": 32.5823196,
        "longitude": 131.6648505,
        "id": "f2bada19-552f-43b7-951f-199e324c309d"
    },
    {
        "name": "大山祇神社",
        "prefectureName": "宮崎県",
        "cityName": "児湯郡木城町",
        "streetName": "大字石河内９３５番地３",
        "latitude": 32.1641772,
        "longitude": 131.4736164,
        "id": "c4cfa2a4-eb30-4c1f-8ed3-e3199e433e95"
    },
    {
        "name": "大山積神社",
        "prefectureName": "宮崎県",
        "cityName": "延岡市",
        "streetName": "北川町長井４８７２番ト号地",
        "latitude": 32.6723207,
        "longitude": 131.69218575,
        "id": "ee31a5f4-8da4-4b90-90dc-f624d9d6811f"
    },
    {
        "name": "大島神社",
        "prefectureName": "宮崎県",
        "cityName": "宮崎市",
        "streetName": "大島町本村２００番地",
        "latitude": 31.93830294,
        "longitude": 131.43558064,
        "id": "6e1800f2-3b6a-483a-a0fd-c4d6e6930bbf"
    },
    {
        "name": "大川平神社",
        "prefectureName": "宮崎県",
        "cityName": "西臼杵郡日之影町",
        "streetName": "大字分城１０５７番地",
        "latitude": 32.61719961,
        "longitude": 131.43820191,
        "id": "0b89319a-0a64-4c3f-a582-75f5a8a64c0e"
    },
    {
        "name": "大年神社",
        "prefectureName": "宮崎県",
        "cityName": "えびの市",
        "streetName": "大字内竪１５０２番地，１５０７番地，１５０８番地１",
        "latitude": 32.045344,
        "longitude": 130.8107963,
        "id": "578ac2f8-51dd-4077-a230-e58da10344cf"
    },
    {
        "name": "大年神社",
        "prefectureName": "宮崎県",
        "cityName": "児湯郡高鍋町",
        "streetName": "大字持田３７６２番地１",
        "latitude": 32.13885312,
        "longitude": 131.53757302,
        "id": "b28b57de-d110-4223-93bf-7c2888493372"
    },
    {
        "name": "大年神社",
        "prefectureName": "宮崎県",
        "cityName": "小林市",
        "streetName": "須木中原１７３３番地",
        "latitude": 32.075942,
        "longitude": 131.07087777,
        "id": "128943d7-9000-40eb-80db-5ac7ca6f0920"
    },
    {
        "name": "大御神社",
        "prefectureName": "宮崎県",
        "cityName": "日向市",
        "streetName": "大字日知屋１番地",
        "latitude": 32.41097869,
        "longitude": 131.64940232,
        "id": "f8b6d488-c5bc-42a7-bb5a-c6921770c773"
    },
    {
        "name": "大武神社",
        "prefectureName": "宮崎県",
        "cityName": "延岡市",
        "streetName": "大武町１９６番地",
        "latitude": 32.59859698,
        "longitude": 131.68914012,
        "id": "1d83e511-ae80-4b45-8050-d204304728fd"
    },
    {
        "name": "大歳神社",
        "prefectureName": "宮崎県",
        "cityName": "西都市",
        "streetName": "大字黒生野３２７番地",
        "latitude": 32.1085535,
        "longitude": 131.4012025,
        "id": "5f8fa110-272e-4547-8a31-7b5b74d87a6d"
    },
    {
        "name": "大歳神社",
        "prefectureName": "宮崎県",
        "cityName": "延岡市",
        "streetName": "二ツ島町８７６４番地",
        "latitude": 32.61018529,
        "longitude": 131.70375224,
        "id": "33543bc6-2ca1-422b-8c29-0f4072e52a17"
    },
    {
        "name": "大河内神社",
        "prefectureName": "宮崎県",
        "cityName": "東臼杵郡椎葉村",
        "streetName": "大字大河内９８６番地",
        "latitude": 32.4673725,
        "longitude": 131.1581508,
        "id": "fcfb5545-f632-4e68-9d0c-05713a7de0d0"
    },
    {
        "name": "大渕神社",
        "prefectureName": "宮崎県",
        "cityName": "児湯郡新富町",
        "streetName": "大字上富田２２３８番地",
        "latitude": 32.05168036,
        "longitude": 131.4763156,
        "id": "b1d64096-0d45-446d-9485-fa1bca15286b"
    },
    {
        "name": "大矢取神社",
        "prefectureName": "宮崎県",
        "cityName": "串間市",
        "streetName": "大字大矢取１６４番地３",
        "latitude": 31.58803516,
        "longitude": 131.21153741,
        "id": "01258e80-eb62-4ce3-bafa-ff4a061f204b"
    },
    {
        "name": "大窪神社",
        "prefectureName": "宮崎県",
        "cityName": "日南市",
        "streetName": "大字大窪字宮之後２７８１番地",
        "latitude": 31.6013985,
        "longitude": 131.3783384,
        "id": "bd2253bc-1a1c-426c-bc54-dfa6f818b517"
    },
    {
        "name": "大菅神社",
        "prefectureName": "宮崎県",
        "cityName": "西臼杵郡日之影町",
        "streetName": "大字七折６３１０番地",
        "latitude": 32.68344803,
        "longitude": 131.40678451,
        "id": "ca338ae6-a4d7-4618-bcbd-4fe900b72e82"
    },
    {
        "name": "大藤神社",
        "prefectureName": "宮崎県",
        "cityName": "日南市",
        "streetName": "北郷町大藤甲２２１８番地",
        "latitude": 31.65992549,
        "longitude": 131.37633921,
        "id": "487b09a8-26cb-4f38-a222-5ebb09b40687"
    },
    {
        "name": "大貫神社",
        "prefectureName": "宮崎県",
        "cityName": "延岡市",
        "streetName": "大貫町６丁目１８７０番地１８７１番地",
        "latitude": 32.5823196,
        "longitude": 131.6648505,
        "id": "f5ab100f-8163-41aa-8cfb-33843aa9584c"
    },
    {
        "name": "大野神社",
        "prefectureName": "宮崎県",
        "cityName": "延岡市",
        "streetName": "大野町１３５４番地のロ",
        "latitude": 32.62241234,
        "longitude": 131.62313866,
        "id": "9bbe1347-676d-4ef7-89de-ceb10f56a3ec"
    },
    {
        "name": "大塚神社",
        "prefectureName": "宮崎県",
        "cityName": "宮崎市",
        "streetName": "大塚町原ノ前１５９８番地",
        "latitude": 31.91529303,
        "longitude": 131.3928151,
        "id": "6e8c4560-b567-47ca-a405-1324ab91160b"
    },
    {
        "name": "天下神社",
        "prefectureName": "宮崎県",
        "cityName": "延岡市",
        "streetName": "天下町７０９番地",
        "latitude": 32.57243536,
        "longitude": 131.63090657,
        "id": "bc0ad996-67c6-40e3-948e-03e5f1473606"
    },
    {
        "name": "天満神社",
        "prefectureName": "宮崎県",
        "cityName": "延岡市",
        "streetName": "北川町川内名２２６２番イ号地",
        "latitude": 32.686108,
        "longitude": 131.69329339,
        "id": "b7962d11-31a9-4405-985f-162a423d7aa2"
    },
    {
        "name": "天満神社",
        "prefectureName": "宮崎県",
        "cityName": "延岡市",
        "streetName": "北川町川内名１８５０番乙の２地",
        "latitude": 32.75013663,
        "longitude": 131.72018948,
        "id": "eb7903a0-0a60-4e5a-b919-559f1aae396f"
    },
    {
        "name": "天満神社",
        "prefectureName": "宮崎県",
        "cityName": "延岡市",
        "streetName": "北方町上崎辰１１３０番地乙",
        "latitude": 32.60495456,
        "longitude": 131.48611299,
        "id": "890113a2-5b6f-4863-802d-501f9cd7ac27"
    },
    {
        "name": "天満神社",
        "prefectureName": "宮崎県",
        "cityName": "延岡市",
        "streetName": "北川町川内名８４４２番の３地",
        "latitude": 32.7203204,
        "longitude": 131.65881262,
        "id": "c271fffb-ceee-4f33-a40b-80d8bd4e6e98"
    },
    {
        "name": "天満神社",
        "prefectureName": "宮崎県",
        "cityName": "延岡市",
        "streetName": "北方町南久保山子４４０１番地",
        "latitude": 32.60495456,
        "longitude": 131.48611299,
        "id": "e8814bee-6ffd-4672-b989-3c27fa9bb1e8"
    },
    {
        "name": "天満神社",
        "prefectureName": "宮崎県",
        "cityName": "延岡市",
        "streetName": "北川町川内名１０５４６番乙地",
        "latitude": 32.686108,
        "longitude": 131.69329339,
        "id": "abc627ce-6fc0-4ccb-8455-a128c6e8321a"
    },
    {
        "name": "天満神社",
        "prefectureName": "宮崎県",
        "cityName": "延岡市",
        "streetName": "鹿小路１０４１番地",
        "latitude": 32.5823196,
        "longitude": 131.6648505,
        "id": "cb5195f0-09bb-4999-8be1-ba77362d9779"
    },
    {
        "name": "天満神社",
        "prefectureName": "宮崎県",
        "cityName": "延岡市",
        "streetName": "北川町川内名１０１３４番の７地",
        "latitude": 32.686108,
        "longitude": 131.69329339,
        "id": "fc78dea9-db30-4ae6-831d-26f73754a357"
    },
    {
        "name": "天満神社",
        "prefectureName": "宮崎県",
        "cityName": "延岡市",
        "streetName": "水尻町２５０番地１４",
        "latitude": 32.61006039,
        "longitude": 131.7083741,
        "id": "7f5eefbc-05bd-4e33-98d8-1e769b431861"
    },
    {
        "name": "天満神社",
        "prefectureName": "宮崎県",
        "cityName": "宮崎市",
        "streetName": "大字堤内２３５番地",
        "latitude": 31.9077892,
        "longitude": 131.4203302,
        "id": "8002993c-9e0f-4cbd-9ed1-43072b444913"
    },
    {
        "name": "天満神社",
        "prefectureName": "宮崎県",
        "cityName": "延岡市",
        "streetName": "差木野町５７８２の２番地",
        "latitude": 32.63375826,
        "longitude": 131.69081567,
        "id": "575c41a9-3204-42c2-b201-25ba720e9722"
    },
    {
        "name": "天満神社",
        "prefectureName": "宮崎県",
        "cityName": "延岡市",
        "streetName": "北川町川内名９４７２番ロ号地",
        "latitude": 32.686108,
        "longitude": 131.69329339,
        "id": "b66d5b17-f990-40ac-b440-b6c46e9ab791"
    },
    {
        "name": "天満神社",
        "prefectureName": "宮崎県",
        "cityName": "延岡市",
        "streetName": "北川町川内名７５５６番イ地",
        "latitude": 32.686108,
        "longitude": 131.69329339,
        "id": "0981e164-6690-45ee-a710-0969674f40be"
    },
    {
        "name": "天満神社",
        "prefectureName": "宮崎県",
        "cityName": "延岡市",
        "streetName": "北川町川内名５３７１番の４地",
        "latitude": 32.686108,
        "longitude": 131.69329339,
        "id": "9980e5ac-001b-4e45-b518-c5cf244316dc"
    },
    {
        "name": "天神社",
        "prefectureName": "宮崎県",
        "cityName": "延岡市",
        "streetName": "北川町長井６７５１番の１地",
        "latitude": 32.686108,
        "longitude": 131.69329339,
        "id": "66c8a844-f6c2-4cb1-8155-ed1e067421fb"
    },
    {
        "name": "天神社",
        "prefectureName": "宮崎県",
        "cityName": "西都市",
        "streetName": "大字寒川１２８番地４",
        "latitude": 32.1085535,
        "longitude": 131.4012025,
        "id": "fd4c568c-b4c4-4150-8ae1-3de78668e52f"
    },
    {
        "name": "天神社",
        "prefectureName": "宮崎県",
        "cityName": "日向市",
        "streetName": "東郷町下三ケ１４８３番地",
        "latitude": 32.38067955,
        "longitude": 131.55254481,
        "id": "bbc1425e-363f-4aa4-b017-3c4c0a19ab90"
    },
    {
        "name": "天神社",
        "prefectureName": "宮崎県",
        "cityName": "延岡市",
        "streetName": "小野町５９１７番地",
        "latitude": 32.54575535,
        "longitude": 131.64937307,
        "id": "43ddbfe2-1261-4a69-bc04-45c5f86002f4"
    },
    {
        "name": "太田原神社",
        "prefectureName": "宮崎県",
        "cityName": "東諸県郡国富町",
        "streetName": "大字本庄字太蔵元９０１番地ロ",
        "latitude": 31.9905292,
        "longitude": 131.3234829,
        "id": "e8dac1db-1305-4c85-8ea8-54c05eadc41d"
    },
    {
        "name": "奈古神社",
        "prefectureName": "宮崎県",
        "cityName": "宮崎市",
        "streetName": "南方町御供田１１９２番地",
        "latitude": 31.96286716,
        "longitude": 131.41893915,
        "id": "5793524c-c46c-46eb-9013-ddcb4aeafad4"
    },
    {
        "name": "妙見神社",
        "prefectureName": "宮崎県",
        "cityName": "えびの市",
        "streetName": "大字原田１５８２番地",
        "latitude": 32.02548898,
        "longitude": 130.87010828,
        "id": "959bead0-2cb3-4483-b6b7-afe9fd7813f4"
    },
    {
        "name": "妻万神社",
        "prefectureName": "宮崎県",
        "cityName": "日南市",
        "streetName": "大字平野１６１４番地乙",
        "latitude": 31.6034319,
        "longitude": 131.39230966,
        "id": "1c541016-d16e-4148-818d-772dc1287471"
    },
    {
        "name": "姥ケ嶽神社",
        "prefectureName": "宮崎県",
        "cityName": "宮崎市",
        "streetName": "大字鏡洲字九平３９７６番地１先",
        "latitude": 31.9077892,
        "longitude": 131.4203302,
        "id": "d273f5e4-79a1-4caf-80e4-08514a6a6dee"
    },
    {
        "name": "宇津野神社",
        "prefectureName": "宮崎県",
        "cityName": "東諸県郡国富町",
        "streetName": "大字田尻４４２番地",
        "latitude": 31.98052125,
        "longitude": 131.30975623,
        "id": "8edcc982-6872-43f8-a53c-7596261f5dec"
    },
    {
        "name": "宇納間神社",
        "prefectureName": "宮崎県",
        "cityName": "東臼杵郡美郷町",
        "streetName": "北郷宇納間１１番地",
        "latitude": 32.4402748,
        "longitude": 131.4231705,
        "id": "efe704e2-2654-4cf0-b52a-a79c12267287"
    },
    {
        "name": "宇賀神社",
        "prefectureName": "宮崎県",
        "cityName": "都城市",
        "streetName": "高崎町前田２８１４番地イ",
        "latitude": 31.87481724,
        "longitude": 131.06684349,
        "id": "c7d75b33-ada2-4ee9-b32e-f99c14eb3735"
    },
    {
        "name": "安之神社",
        "prefectureName": "宮崎県",
        "cityName": "日向市",
        "streetName": "大字日知屋７３１０番地",
        "latitude": 32.4226467,
        "longitude": 131.6239814,
        "id": "a90fecfb-1049-46b2-876a-1e110c345f6c"
    },
    {
        "name": "安賀多神社",
        "prefectureName": "宮崎県",
        "cityName": "延岡市",
        "streetName": "古川町３２７番地",
        "latitude": 32.58773806,
        "longitude": 131.65060409,
        "id": "3ce62365-0067-40f7-94bd-c9569ac0d150"
    },
    {
        "name": "宮原神社",
        "prefectureName": "宮崎県",
        "cityName": "延岡市",
        "streetName": "北川町長井４４８７番地",
        "latitude": 32.686108,
        "longitude": 131.69329339,
        "id": "b4248dee-28f1-4709-b509-ddd8eaea8917"
    },
    {
        "name": "宮崎県護國神社",
        "prefectureName": "宮崎県",
        "cityName": "宮崎市",
        "streetName": "神宮２丁目４番３号",
        "latitude": 31.93731932,
        "longitude": 131.42172607,
        "id": "8eaf8b2b-375e-45bd-8e67-b037673a2f12"
    },
    {
        "name": "宮水神社",
        "prefectureName": "宮崎県",
        "cityName": "西臼杵郡日之影町",
        "streetName": "大字七折９２４６番地",
        "latitude": 32.6641095,
        "longitude": 131.3822153,
        "id": "99c46637-fd9a-4c9c-863a-9d2a26ff85d0"
    },
    {
        "name": "宮浦神社",
        "prefectureName": "宮崎県",
        "cityName": "日南市",
        "streetName": "大字宮浦６８８番地",
        "latitude": 31.66868456,
        "longitude": 131.44793094,
        "id": "0e200be8-8c98-4622-8d1b-d3addf008ce1"
    },
    {
        "name": "宮田神社",
        "prefectureName": "宮崎県",
        "cityName": "児湯郡高鍋町",
        "streetName": "大字南高鍋６７８０番地",
        "latitude": 32.11982404,
        "longitude": 131.50563716,
        "id": "33c00b15-6d04-4b17-b5b2-097a7f9ae679"
    },
    {
        "name": "宮野浦神社",
        "prefectureName": "宮崎県",
        "cityName": "延岡市",
        "streetName": "北浦町宮野浦字穂本３７０番地",
        "latitude": 32.70631904,
        "longitude": 131.82116427,
        "id": "742c8395-8905-453d-9526-614a8aea32db"
    },
    {
        "name": "家代神社",
        "prefectureName": "宮崎県",
        "cityName": "東臼杵郡諸塚村",
        "streetName": "大字家代４１０９・４１１０番地の２",
        "latitude": 32.52123877,
        "longitude": 131.35199085,
        "id": "ef0f212f-723f-4d86-a46e-3d824e930e15"
    },
    {
        "name": "家田神社",
        "prefectureName": "宮崎県",
        "cityName": "延岡市",
        "streetName": "北川町長井３１１番の４地",
        "latitude": 32.686108,
        "longitude": 131.69329339,
        "id": "e465f492-86cd-4ed8-be71-ebc811712d82"
    },
    {
        "name": "宿神社",
        "prefectureName": "宮崎県",
        "cityName": "西都市",
        "streetName": "大字尾八重１４８番地３",
        "latitude": 32.26490953,
        "longitude": 131.29497853,
        "id": "7948538d-b310-4a57-ab90-1422e33989b8"
    },
    {
        "name": "富吉神社",
        "prefectureName": "宮崎県",
        "cityName": "宮崎市",
        "streetName": "大字富吉４８９８番地の１",
        "latitude": 31.94230059,
        "longitude": 131.34831154,
        "id": "d2d1a6e7-f6ee-46d3-92d2-c58819891dc5"
    },
    {
        "name": "富土神社",
        "prefectureName": "宮崎県",
        "cityName": "日南市",
        "streetName": "大字富土２１３１番地",
        "latitude": 31.6013985,
        "longitude": 131.3783384,
        "id": "22c6c22b-837a-458f-9d2e-323fdccdcb63"
    },
    {
        "name": "富田八幡神社",
        "prefectureName": "宮崎県",
        "cityName": "児湯郡新富町",
        "streetName": "富田東１丁目４３番地",
        "latitude": 32.06776251,
        "longitude": 131.49207435,
        "id": "27dbfbfc-44cd-4667-a61a-158a9558f1fb"
    },
    {
        "name": "小八重神社",
        "prefectureName": "宮崎県",
        "cityName": "東臼杵郡美郷町",
        "streetName": "西郷山三ケ６５０番地",
        "latitude": 32.4402748,
        "longitude": 131.4231705,
        "id": "dc6ef27b-8916-4791-8baf-e19408a71a07"
    },
    {
        "name": "小原井神社",
        "prefectureName": "宮崎県",
        "cityName": "東臼杵郡諸塚村",
        "streetName": "大字七ツ山３７６５番地",
        "latitude": 32.58153538,
        "longitude": 131.24372699,
        "id": "fd43f6e2-1e49-4c79-a3bd-f75badca82c3"
    },
    {
        "name": "小原神社",
        "prefectureName": "宮崎県",
        "cityName": "東臼杵郡諸塚村",
        "streetName": "大字家代２６４０番地の１",
        "latitude": 32.51062819,
        "longitude": 131.33095718,
        "id": "9493f314-77e4-47ac-8ed9-66619f6d4249"
    },
    {
        "name": "小國神社",
        "prefectureName": "宮崎県",
        "cityName": "都城市",
        "streetName": "中町２５９３番地の７",
        "latitude": 31.72693665,
        "longitude": 131.06588454,
        "id": "7774e51e-805b-43e7-bf35-1b0aa08f05b2"
    },
    {
        "name": "小山神社",
        "prefectureName": "宮崎県",
        "cityName": "延岡市",
        "streetName": "尾崎町４３６５番地",
        "latitude": 32.60299878,
        "longitude": 131.66349144,
        "id": "d38769a8-7e9f-4ea6-af89-0ac9c33b3bb1"
    },
    {
        "name": "小峯神社",
        "prefectureName": "宮崎県",
        "cityName": "延岡市",
        "streetName": "小峯町６９８３番地",
        "latitude": 32.5823196,
        "longitude": 131.6648505,
        "id": "2461a2ec-c9ef-40cc-80ae-d7ead8383e89"
    },
    {
        "name": "小崎神社",
        "prefectureName": "宮崎県",
        "cityName": "西臼杵郡日之影町",
        "streetName": "大字岩井川３９５８番地１",
        "latitude": 32.63787345,
        "longitude": 131.39231229,
        "id": "0ed07e44-8f2f-4b15-b955-b338bf057be4"
    },
    {
        "name": "小川平神社",
        "prefectureName": "宮崎県",
        "cityName": "西臼杵郡日之影町",
        "streetName": "大字分城４３番地",
        "latitude": 32.6538578,
        "longitude": 131.3877651,
        "id": "6e034b09-f47c-4891-9f11-12767c441349"
    },
    {
        "name": "小戸神社",
        "prefectureName": "宮崎県",
        "cityName": "宮崎市",
        "streetName": "鶴島３丁目９３番地",
        "latitude": 31.91305483,
        "longitude": 131.40866976,
        "id": "075c44ee-6ebf-4502-9795-80cd24274b39"
    },
    {
        "name": "小松神社",
        "prefectureName": "宮崎県",
        "cityName": "東臼杵郡門川町",
        "streetName": "大字川内７１３１番地１",
        "latitude": 32.47178011,
        "longitude": 131.61234998,
        "id": "ad201c94-ba60-488c-a9f7-f2ad4ed139d8"
    },
    {
        "name": "小松神社",
        "prefectureName": "宮崎県",
        "cityName": "宮崎市",
        "streetName": "大字小松１９３０番地",
        "latitude": 31.93445212,
        "longitude": 131.38833677,
        "id": "e7d94729-175a-49f7-b14c-35bc1d2e77f8"
    },
    {
        "name": "小鷹神社",
        "prefectureName": "宮崎県",
        "cityName": "都城市",
        "streetName": "上長飯町５２１３番地ロ号",
        "latitude": 31.7195901,
        "longitude": 131.061624,
        "id": "e5a9e046-2001-42f7-bc1e-6fb6017f5bb0"
    },
    {
        "name": "小﨑神社",
        "prefectureName": "宮崎県",
        "cityName": "東臼杵郡椎葉村",
        "streetName": "大字大河内１５１５番地ロ号",
        "latitude": 32.4237815,
        "longitude": 131.10274447,
        "id": "f3515dd0-3984-4420-a3f7-e152b281a8d3"
    },
    {
        "name": "尾佐渡神社",
        "prefectureName": "宮崎県",
        "cityName": "東臼杵郡美郷町",
        "streetName": "西郷山三ケ２５６１番地乙のイ",
        "latitude": 32.4402748,
        "longitude": 131.4231705,
        "id": "ce1c1234-72e9-4ca9-a20a-b6dec3440983"
    },
    {
        "name": "尾八重神社",
        "prefectureName": "宮崎県",
        "cityName": "西都市",
        "streetName": "大字尾八重８５９番地ロ号",
        "latitude": 32.27496177,
        "longitude": 131.30897457,
        "id": "a8b1dbaa-a6fe-4b82-acbb-0262d2b4e01e"
    },
    {
        "name": "尾前神社",
        "prefectureName": "宮崎県",
        "cityName": "東臼杵郡椎葉村",
        "streetName": "大字不土野１７１番地１",
        "latitude": 32.4673725,
        "longitude": 131.1581508,
        "id": "474796a7-78e6-4908-998d-2e86880c5ed1"
    },
    {
        "name": "尾末神社",
        "prefectureName": "宮崎県",
        "cityName": "東臼杵郡門川町",
        "streetName": "大字門川尾末１４１１番イ号地",
        "latitude": 32.4697952,
        "longitude": 131.6485886,
        "id": "3927271a-8353-49e2-9975-92d52b55e459"
    },
    {
        "name": "尾鈴神社",
        "prefectureName": "宮崎県",
        "cityName": "児湯郡都農町",
        "streetName": "大字川北９５２７番地イ号",
        "latitude": 32.2562951,
        "longitude": 131.5595699,
        "id": "ae9ee358-8fd0-4360-a71e-4e0b4978a9d0"
    },
    {
        "name": "山之神神社",
        "prefectureName": "宮崎県",
        "cityName": "小林市",
        "streetName": "東方５８９２番地２",
        "latitude": 31.9967309,
        "longitude": 130.9725872,
        "id": "444a0d47-bd07-40ce-9b81-35dd3da68b81"
    },
    {
        "name": "山之神神社",
        "prefectureName": "宮崎県",
        "cityName": "日南市",
        "streetName": "南郷町中村字櫨山乙８０１１番２",
        "latitude": 31.54090593,
        "longitude": 131.38229234,
        "id": "a33d552c-61e6-4fe6-84f3-0bc5c530d963"
    },
    {
        "name": "山坊神社",
        "prefectureName": "宮崎県",
        "cityName": "児湯郡新富町",
        "streetName": "大字新田９３８３番地",
        "latitude": 32.07985387,
        "longitude": 131.43282945,
        "id": "2f9e96c0-c91b-4aa8-8baa-c09706b12acc"
    },
    {
        "name": "山宮神社",
        "prefectureName": "宮崎県",
        "cityName": "日南市",
        "streetName": "大字松永１２３９番地",
        "latitude": 31.6013985,
        "longitude": 131.3783384,
        "id": "050c4f62-6e5d-4c39-8f53-b8c3c99903fe"
    },
    {
        "name": "山宮神社",
        "prefectureName": "宮崎県",
        "cityName": "日南市",
        "streetName": "大字吉野方１０８６０番地",
        "latitude": 31.6013985,
        "longitude": 131.3783384,
        "id": "8f01cc65-dd0c-48e3-881c-a643e64966ef"
    },
    {
        "name": "山崎神社",
        "prefectureName": "宮崎県",
        "cityName": "えびの市",
        "streetName": "大字亀沢１９番地",
        "latitude": 32.045344,
        "longitude": 130.8107963,
        "id": "ca33b336-c696-4bda-ac74-44fd9a86201b"
    },
    {
        "name": "山王大物主神社",
        "prefectureName": "宮崎県",
        "cityName": "西都市",
        "streetName": "大字山田３６９８番地乙",
        "latitude": 32.03673961,
        "longitude": 131.34826427,
        "id": "6ecde2c1-522a-452a-be99-6bc46df663b8"
    },
    {
        "name": "山田神社",
        "prefectureName": "宮崎県",
        "cityName": "都城市",
        "streetName": "山田町山田７５０６番地",
        "latitude": 31.81645575,
        "longitude": 131.04110319,
        "id": "cee33632-b5e9-4812-b7ac-fa34634ec382"
    },
    {
        "name": "山田神社",
        "prefectureName": "宮崎県",
        "cityName": "西都市",
        "streetName": "大字山田１３４３番地",
        "latitude": 32.1085535,
        "longitude": 131.4012025,
        "id": "6f987d43-f7d9-40b9-9030-d82ece2f861d"
    },
    {
        "name": "山祗神社",
        "prefectureName": "宮崎県",
        "cityName": "えびの市",
        "streetName": "大字東川北１０３５番地",
        "latitude": 32.07042213,
        "longitude": 130.80531776,
        "id": "d46b5208-0945-4416-acbc-de99f50798c6"
    },
    {
        "name": "山神社",
        "prefectureName": "宮崎県",
        "cityName": "児湯郡都農町",
        "streetName": "大字川北８３００番地",
        "latitude": 32.2562951,
        "longitude": 131.5595699,
        "id": "a653add2-b794-4178-9ac7-04764a7e8c24"
    },
    {
        "name": "山神社",
        "prefectureName": "宮崎県",
        "cityName": "児湯郡川南町",
        "streetName": "大字川南６０７７番地",
        "latitude": 32.1920697,
        "longitude": 131.525871,
        "id": "09bec556-8b34-4105-b974-dc8d552b7e83"
    },
    {
        "name": "山陰神社",
        "prefectureName": "宮崎県",
        "cityName": "日向市",
        "streetName": "東郷町山陰丙９６６番地",
        "latitude": 32.38067955,
        "longitude": 131.55254481,
        "id": "a8791283-8bce-4665-be33-e4e08ea4a7c7"
    },
    {
        "name": "岡元神社",
        "prefectureName": "宮崎県",
        "cityName": "延岡市",
        "streetName": "岡元町２２９番地",
        "latitude": 32.56588057,
        "longitude": 131.56957535,
        "id": "dce66d74-2438-4e79-af7f-ad6f35f165f4"
    },
    {
        "name": "岡松神社",
        "prefectureName": "宮崎県",
        "cityName": "えびの市",
        "streetName": "大字岡松１４３４番地",
        "latitude": 32.046706,
        "longitude": 130.75719485,
        "id": "78b60e2a-4d02-482f-81b6-09b2c02ddfff"
    },
    {
        "name": "岩ケ瀬水神神社",
        "prefectureName": "宮崎県",
        "cityName": "宮崎市",
        "streetName": "吾妻町１０９番地",
        "latitude": 31.90445176,
        "longitude": 131.43424575,
        "id": "0e4945a7-481f-4b06-a705-8e69b54c4fbc"
    },
    {
        "name": "岩井原神社",
        "prefectureName": "宮崎県",
        "cityName": "日南市",
        "streetName": "大字酒谷甲１７８９番地イ号",
        "latitude": 31.6013985,
        "longitude": 131.3783384,
        "id": "6fc0250d-13a9-41a2-8974-34a618e34fe9"
    },
    {
        "name": "岩井川神社",
        "prefectureName": "宮崎県",
        "cityName": "西臼杵郡日之影町",
        "streetName": "大字岩井川２４２２番地１",
        "latitude": 32.65823463,
        "longitude": 131.36817236,
        "id": "8b37a67a-6f42-4f27-a622-dc6a132281f9"
    },
    {
        "name": "岩屋戸神社",
        "prefectureName": "宮崎県",
        "cityName": "東臼杵郡椎葉村",
        "streetName": "大字松尾１３１１番地",
        "latitude": 32.50126395,
        "longitude": 131.23722195,
        "id": "8934052c-9115-4eaf-85c0-3ca6378a454f"
    },
    {
        "name": "岩戸神社",
        "prefectureName": "宮崎県",
        "cityName": "延岡市",
        "streetName": "北川町長井３９５８番の２地",
        "latitude": 32.66918062,
        "longitude": 131.72284504,
        "id": "b368477e-1887-4f67-8938-926ead46c68b"
    },
    {
        "name": "岩戸神社",
        "prefectureName": "宮崎県",
        "cityName": "小林市",
        "streetName": "堤４４４７番地",
        "latitude": 31.96910651,
        "longitude": 131.01124368,
        "id": "173ec171-3e67-402f-a40b-153b69925125"
    },
    {
        "name": "岩爪神社",
        "prefectureName": "宮崎県",
        "cityName": "西都市",
        "streetName": "大字岩爪１０８４番地イ",
        "latitude": 32.03710147,
        "longitude": 131.39075112,
        "id": "10b6d011-95b9-46cf-ae8a-83770c0b12de"
    },
    {
        "name": "岩谷神社",
        "prefectureName": "宮崎県",
        "cityName": "えびの市",
        "streetName": "大字向江３７７番地",
        "latitude": 32.04631496,
        "longitude": 130.7728187,
        "id": "f40be685-a06a-409f-ae47-fab428dfef8d"
    },
    {
        "name": "岩﨑稲荷神社",
        "prefectureName": "宮崎県",
        "cityName": "日南市",
        "streetName": "大字星倉５４２６番地",
        "latitude": 31.6013985,
        "longitude": 131.3783384,
        "id": "a6dd1034-b12d-4063-870b-93e016a1a163"
    },
    {
        "name": "島津稲荷神社",
        "prefectureName": "宮崎県",
        "cityName": "都城市",
        "streetName": "郡元４丁目２３番地１７",
        "latitude": 31.74736898,
        "longitude": 131.09257936,
        "id": "eab8a5ae-6ce4-46c6-83a6-4db63695cce0"
    },
    {
        "name": "島野浦神社",
        "prefectureName": "宮崎県",
        "cityName": "延岡市",
        "streetName": "島浦町５４９番地",
        "latitude": 32.66618618,
        "longitude": 131.81628691,
        "id": "7285d978-e2ea-4530-97fa-fcc12bb465bc"
    },
    {
        "name": "嵐田神社",
        "prefectureName": "宮崎県",
        "cityName": "東諸県郡国富町",
        "streetName": "大字嵐田８１４番地",
        "latitude": 31.9905292,
        "longitude": 131.3234829,
        "id": "bbd573e8-1edf-48a4-8017-614548f7d54a"
    },
    {
        "name": "嶽枝尾神社",
        "prefectureName": "宮崎県",
        "cityName": "東臼杵郡椎葉村",
        "streetName": "大字大河内１９４９番地",
        "latitude": 32.4673725,
        "longitude": 131.1581508,
        "id": "9e8081e4-13b8-4df0-8154-cd123a354b6e"
    },
    {
        "name": "川ノ口神社",
        "prefectureName": "宮崎県",
        "cityName": "東臼杵郡諸塚村",
        "streetName": "大字家代３２８番地",
        "latitude": 32.5121697,
        "longitude": 131.330321,
        "id": "21c6f49b-12cd-47af-80fe-9e2df3fe6ba0"
    },
    {
        "name": "川上神社",
        "prefectureName": "宮崎県",
        "cityName": "東諸県郡国富町",
        "streetName": "大字八代南俣２０８７番地",
        "latitude": 31.9905292,
        "longitude": 131.3234829,
        "id": "0dbb3293-85dd-489e-a87d-b961ded3d2dd"
    },
    {
        "name": "川上神社",
        "prefectureName": "宮崎県",
        "cityName": "児湯郡高鍋町",
        "streetName": "大字南高鍋７６０３・７６０４番地",
        "latitude": 32.1280732,
        "longitude": 131.503015,
        "id": "6416112e-4d29-4786-b517-390b389e11a8"
    },
    {
        "name": "川上神社",
        "prefectureName": "宮崎県",
        "cityName": "児湯郡新富町",
        "streetName": "大字下富田３２６１番地",
        "latitude": 32.05388059,
        "longitude": 131.48623124,
        "id": "f7b3d765-6757-4684-b166-774944b67a76"
    },
    {
        "name": "川中神社",
        "prefectureName": "宮崎県",
        "cityName": "東諸県郡綾町",
        "streetName": "大字南俣字中尾５７０１番地",
        "latitude": 31.9991324,
        "longitude": 131.2531866,
        "id": "d8096e3e-05d8-42bd-a71a-83eeae5d1ae1"
    },
    {
        "name": "川内名神社",
        "prefectureName": "宮崎県",
        "cityName": "延岡市",
        "streetName": "北川町川内名７２４５番地",
        "latitude": 32.686108,
        "longitude": 131.69329339,
        "id": "90dba36d-3952-4cba-a0b9-de630126240f"
    },
    {
        "name": "川内神社",
        "prefectureName": "宮崎県",
        "cityName": "東臼杵郡門川町",
        "streetName": "大字川内４９５１番地",
        "latitude": 32.48599688,
        "longitude": 131.58364984,
        "id": "3b52de11-e4b8-45f7-8120-bd69f0a72949"
    },
    {
        "name": "川南神社",
        "prefectureName": "宮崎県",
        "cityName": "児湯郡川南町",
        "streetName": "大字川南５２７８番地",
        "latitude": 32.23499595,
        "longitude": 131.50580163,
        "id": "48a23600-ca6a-40d0-9f37-df889ef7fdcc"
    },
    {
        "name": "川原神社",
        "prefectureName": "宮崎県",
        "cityName": "児湯郡木城町",
        "streetName": "大字川原７４７番地",
        "latitude": 32.1641772,
        "longitude": 131.4736164,
        "id": "53dd0085-551d-4cde-85b0-e4b3d4757ace"
    },
    {
        "name": "川島神社",
        "prefectureName": "宮崎県",
        "cityName": "延岡市",
        "streetName": "川島町１４５３番地１",
        "latitude": 32.62059832,
        "longitude": 131.69905476,
        "id": "347676e4-aacc-4534-9964-77a5a2b2081b"
    },
    {
        "name": "川床神社",
        "prefectureName": "宮崎県",
        "cityName": "児湯郡新富町",
        "streetName": "大字新田１６６４３番地",
        "latitude": 32.10820393,
        "longitude": 131.43554424,
        "id": "85f30506-3f97-40ed-91c6-5bf103f755aa"
    },
    {
        "name": "川水流神社",
        "prefectureName": "宮崎県",
        "cityName": "延岡市",
        "streetName": "北方町川水流卯１２１２番地１２１３番地",
        "latitude": 32.60495456,
        "longitude": 131.48611299,
        "id": "fe9e3f69-2c97-4ff4-abfd-74c209ea11a0"
    },
    {
        "name": "川田神社",
        "prefectureName": "宮崎県",
        "cityName": "児湯郡高鍋町",
        "streetName": "大字上江２１９４番地",
        "latitude": 32.14259117,
        "longitude": 131.49877877,
        "id": "5f301c98-7869-4e15-bf42-5a6da52520ec"
    },
    {
        "name": "巨田神社",
        "prefectureName": "宮崎県",
        "cityName": "宮崎市",
        "streetName": "佐土原町上田島１０７３２番地",
        "latitude": 32.05782759,
        "longitude": 131.40379376,
        "id": "308ee18d-b895-488b-b768-c5443fe6f8eb"
    },
    {
        "name": "市振神社",
        "prefectureName": "宮崎県",
        "cityName": "延岡市",
        "streetName": "北浦町市振字本村５７７番地の巳",
        "latitude": 32.70631904,
        "longitude": 131.82116427,
        "id": "ba80adb2-ee36-4c56-bca0-f33f0a93c857"
    },
    {
        "name": "市木神社",
        "prefectureName": "宮崎県",
        "cityName": "串間市",
        "streetName": "大字市木７２３５番地",
        "latitude": 31.46531507,
        "longitude": 131.34125323,
        "id": "a1b9565f-0a33-4e05-b59f-448246ccb944"
    },
    {
        "name": "市那波神社",
        "prefectureName": "宮崎県",
        "cityName": "児湯郡川南町",
        "streetName": "大字川南３７８８番地",
        "latitude": 32.21522476,
        "longitude": 131.49974212,
        "id": "43133779-f7e6-41de-a86c-2ba1f076e6d4"
    },
    {
        "name": "市野神社",
        "prefectureName": "宮崎県",
        "cityName": "東諸県郡国富町",
        "streetName": "大字森永４２８７番地ロ",
        "latitude": 31.9905292,
        "longitude": 131.3234829,
        "id": "b132257d-cd9d-4621-892b-85875364d64d"
    },
    {
        "name": "幣田神社",
        "prefectureName": "宮崎県",
        "cityName": "えびの市",
        "streetName": "大字柳水流４３２番地",
        "latitude": 32.03616283,
        "longitude": 130.75856165,
        "id": "738a0c22-00e5-4adc-993b-c28b6d60cd69"
    },
    {
        "name": "平底神社",
        "prefectureName": "宮崎県",
        "cityName": "西臼杵郡日之影町",
        "streetName": "大字七折１１９８６番地",
        "latitude": 32.67627243,
        "longitude": 131.36574178,
        "id": "5e2637d8-34cd-44ed-accc-ebef5c3dd3a8"
    },
    {
        "name": "平清水神社",
        "prefectureName": "宮崎県",
        "cityName": "西臼杵郡日之影町",
        "streetName": "大字七折８０２９番地",
        "latitude": 32.6538578,
        "longitude": 131.3877651,
        "id": "b4fa146b-32f0-47a5-9a2e-5aa46afa2835"
    },
    {
        "name": "平田神社",
        "prefectureName": "宮崎県",
        "cityName": "児湯郡川南町",
        "streetName": "大字平田１９２４番地",
        "latitude": 32.19113436,
        "longitude": 131.53966398,
        "id": "a8d9f664-25be-4522-a1de-d28ebdf1c1c0"
    },
    {
        "name": "平郡神社",
        "prefectureName": "宮崎県",
        "cityName": "西都市",
        "streetName": "大字平郡８１５番地",
        "latitude": 32.0892023,
        "longitude": 131.36821646,
        "id": "bd4b56d1-177e-4562-a2ec-b58c8f514749"
    },
    {
        "name": "幸福神社",
        "prefectureName": "宮崎県",
        "cityName": "日向市",
        "streetName": "本町１０番２０号",
        "latitude": 32.42158007,
        "longitude": 131.62448418,
        "id": "9adff921-326b-4e40-af61-70e879eda982"
    },
    {
        "name": "広瀬神社",
        "prefectureName": "宮崎県",
        "cityName": "宮崎市",
        "streetName": "佐土原町下田島２０２９２番地１",
        "latitude": 32.01475974,
        "longitude": 131.47426015,
        "id": "f321a989-7bc6-49a4-8ee3-049c47c3c036"
    },
    {
        "name": "広瀬護国神社",
        "prefectureName": "宮崎県",
        "cityName": "宮崎市",
        "streetName": "佐土原町下那珂３９６０番地５",
        "latitude": 32.0102101,
        "longitude": 131.47319665,
        "id": "d4bbb281-8d00-4394-9089-73fefc03effa"
    },
    {
        "name": "庵川神社",
        "prefectureName": "宮崎県",
        "cityName": "東臼杵郡門川町",
        "streetName": "大字庵川２５６５番地",
        "latitude": 32.4697952,
        "longitude": 131.6485886,
        "id": "634011a0-c630-4fc9-9700-80ffc4040df4"
    },
    {
        "name": "御崎神社",
        "prefectureName": "宮崎県",
        "cityName": "串間市",
        "streetName": "大字大納５８番地丙",
        "latitude": 31.36532885,
        "longitude": 131.33694773,
        "id": "91546c06-6f3c-44c6-ab25-9196c6a54ad5"
    },
    {
        "name": "御年神社",
        "prefectureName": "宮崎県",
        "cityName": "東諸県郡国富町",
        "streetName": "大字向高１７５番地",
        "latitude": 31.9871203,
        "longitude": 131.29078437,
        "id": "15806261-0467-4359-b133-d212bc08ff80"
    },
    {
        "name": "御年神社",
        "prefectureName": "宮崎県",
        "cityName": "都城市",
        "streetName": "豊満町１８６６番地",
        "latitude": 31.70290955,
        "longitude": 131.10272732,
        "id": "c832461d-5d71-4958-8e45-3c76edce1baf"
    },
    {
        "name": "御年神社",
        "prefectureName": "宮崎県",
        "cityName": "えびの市",
        "streetName": "大字西郷１２１７番地",
        "latitude": 32.045344,
        "longitude": 130.8107963,
        "id": "03a31a4f-fe51-4e71-9cf1-0d2fb304a1cc"
    },
    {
        "name": "御年神社",
        "prefectureName": "宮崎県",
        "cityName": "児湯郡川南町",
        "streetName": "大字川南１６９８３番地",
        "latitude": 32.1920697,
        "longitude": 131.525871,
        "id": "180d5d07-cff0-4d73-a323-aa5bb3b562e5"
    },
    {
        "name": "御年神社",
        "prefectureName": "宮崎県",
        "cityName": "児湯郡川南町",
        "streetName": "大字川南１５０３８番地",
        "latitude": 32.1920697,
        "longitude": 131.525871,
        "id": "b041fa5d-d6d4-4264-9b26-e23955408dc1"
    },
    {
        "name": "御年神社",
        "prefectureName": "宮崎県",
        "cityName": "児湯郡川南町",
        "streetName": "大字川南１０２１７番地",
        "latitude": 32.1920697,
        "longitude": 131.525871,
        "id": "d8f60dfd-11b8-4d04-9065-00b5169d42d2"
    },
    {
        "name": "御年神社",
        "prefectureName": "宮崎県",
        "cityName": "北諸県郡三股町",
        "streetName": "大字宮村３５１１番地１",
        "latitude": 31.71113968,
        "longitude": 131.12069017,
        "id": "6efed940-66e8-4f51-81c5-f1e2b46d9a68"
    },
    {
        "name": "御年神社",
        "prefectureName": "宮崎県",
        "cityName": "児湯郡川南町",
        "streetName": "大字川南１６１４６番地",
        "latitude": 32.1920697,
        "longitude": 131.525871,
        "id": "905b7b39-2520-456f-b033-65a9b88c40ee"
    },
    {
        "name": "御﨑神社",
        "prefectureName": "宮崎県",
        "cityName": "北諸県郡三股町",
        "streetName": "大字長田３５８０番地",
        "latitude": 31.7323052,
        "longitude": 131.16298189,
        "id": "0720d0ea-3125-4b5b-bc9a-c62343137cc5"
    },
    {
        "name": "惠比須神社",
        "prefectureName": "宮崎県",
        "cityName": "日南市",
        "streetName": "油津３丁目４番２７号",
        "latitude": 31.58317509,
        "longitude": 131.40622931,
        "id": "935e6fbf-b542-4d43-b4c0-878a68d957bc"
    },
    {
        "name": "愛宕神社",
        "prefectureName": "宮崎県",
        "cityName": "児湯郡高鍋町",
        "streetName": "大字上江１４０５番地",
        "latitude": 32.1280732,
        "longitude": 131.503015,
        "id": "92fa92f6-2d9c-4bcb-b084-aeade0be615d"
    },
    {
        "name": "愛宕神社",
        "prefectureName": "宮崎県",
        "cityName": "日向市",
        "streetName": "大字平岩９６９４・９６９５番地",
        "latitude": 32.4226467,
        "longitude": 131.6239814,
        "id": "8296ddb2-bfe2-4342-9040-ecb9602e10a0"
    },
    {
        "name": "愛宕神社",
        "prefectureName": "宮崎県",
        "cityName": "延岡市",
        "streetName": "愛宕山６１１２番地ロ",
        "latitude": 32.56087055,
        "longitude": 131.65213041,
        "id": "c48bea46-688e-4cc4-8f1c-c79e43e8eaa3"
    },
    {
        "name": "愛宕神社",
        "prefectureName": "宮崎県",
        "cityName": "小林市",
        "streetName": "真方４２番地",
        "latitude": 31.9964644,
        "longitude": 130.98067826,
        "id": "c4ee24d2-7605-4b3d-a778-d7df9f6a430b"
    },
    {
        "name": "愛宕神社",
        "prefectureName": "宮崎県",
        "cityName": "児湯郡高鍋町",
        "streetName": "大字持田１９６６番地",
        "latitude": 32.1280732,
        "longitude": 131.503015,
        "id": "f2d5c351-29f6-4579-8451-029a7bf2fd49"
    },
    {
        "name": "愛宕神社",
        "prefectureName": "宮崎県",
        "cityName": "児湯郡木城町",
        "streetName": "大字椎木３９８８番地",
        "latitude": 32.15586133,
        "longitude": 131.46463676,
        "id": "361df930-ba5c-42ca-b6d2-a010188e77cb"
    },
    {
        "name": "愛宕神社",
        "prefectureName": "宮崎県",
        "cityName": "日南市",
        "streetName": "大字楠原３７００番地",
        "latitude": 31.6013985,
        "longitude": 131.3783384,
        "id": "d684780c-18fc-4715-b069-53d83de7d3de"
    },
    {
        "name": "愛宕神社",
        "prefectureName": "宮崎県",
        "cityName": "児湯郡川南町",
        "streetName": "大字川南２４００番地ロ",
        "latitude": 32.1920697,
        "longitude": 131.525871,
        "id": "bc31b352-4091-45fc-85a9-4e9c82b0500b"
    },
    {
        "name": "愛宕神社",
        "prefectureName": "宮崎県",
        "cityName": "東臼杵郡美郷町",
        "streetName": "西郷山三ケ１５２２番地",
        "latitude": 32.4402748,
        "longitude": 131.4231705,
        "id": "e7981b38-e404-4900-a37f-88cacf853312"
    },
    {
        "name": "愛宕神社",
        "prefectureName": "宮崎県",
        "cityName": "宮崎市",
        "streetName": "佐土原町上田島７８９番地",
        "latitude": 32.0446795,
        "longitude": 131.43195392,
        "id": "613159e5-426b-4c22-b525-14eeb56bd246"
    },
    {
        "name": "愛宕神社",
        "prefectureName": "宮崎県",
        "cityName": "日向市",
        "streetName": "美々津町大字高松３４８９番地",
        "latitude": 32.4226467,
        "longitude": 131.6239814,
        "id": "a533489d-afb2-4770-bae7-12a3f8a8feb8"
    },
    {
        "name": "愛宕神社",
        "prefectureName": "宮崎県",
        "cityName": "日向市",
        "streetName": "大字日知屋５５００番地の乙",
        "latitude": 32.43105766,
        "longitude": 131.65736188,
        "id": "98f108d2-9fe9-4165-a644-a95ea38b4bb2"
    },
    {
        "name": "新田神社",
        "prefectureName": "宮崎県",
        "cityName": "児湯郡新富町",
        "streetName": "大字新田１０００６番地",
        "latitude": 32.0688705,
        "longitude": 131.4880162,
        "id": "65ec1950-853b-4a81-8be3-cff1e420ea14"
    },
    {
        "name": "方財神社",
        "prefectureName": "宮崎県",
        "cityName": "延岡市",
        "streetName": "方財町１６７番地",
        "latitude": 32.58647332,
        "longitude": 131.704434,
        "id": "c8f12299-93d4-4820-8ea7-5c57eeab1e6c"
    },
    {
        "name": "日之御崎神社",
        "prefectureName": "宮崎県",
        "cityName": "日南市",
        "streetName": "南郷町潟上字地浦６３番地",
        "latitude": 31.54090593,
        "longitude": 131.38229234,
        "id": "402dfd5a-b54d-4b64-bb51-fb974686612a"
    },
    {
        "name": "日吉神社",
        "prefectureName": "宮崎県",
        "cityName": "東諸県郡国富町",
        "streetName": "大字本庄２０８７番地２",
        "latitude": 31.98541331,
        "longitude": 131.33627424,
        "id": "8eec0f75-f5a3-413b-aad6-cd1d8b922c00"
    },
    {
        "name": "日吉神社",
        "prefectureName": "宮崎県",
        "cityName": "西都市",
        "streetName": "大字現王島８２番地",
        "latitude": 32.0549478,
        "longitude": 131.42613712,
        "id": "c66fe6ee-9759-4160-807f-728093e24e70"
    },
    {
        "name": "日子神社",
        "prefectureName": "宮崎県",
        "cityName": "児湯郡木城町",
        "streetName": "大字高城２７２９番地",
        "latitude": 32.1641772,
        "longitude": 131.4736164,
        "id": "e8bc6757-c1ce-4dba-9141-84c5a28b6107"
    },
    {
        "name": "日枝神社",
        "prefectureName": "宮崎県",
        "cityName": "えびの市",
        "streetName": "大字昌明寺７６１番地",
        "latitude": 32.045344,
        "longitude": 130.8107963,
        "id": "9fd23d33-6eab-414e-b8c2-f4084810d963"
    },
    {
        "name": "日置神社",
        "prefectureName": "宮崎県",
        "cityName": "児湯郡新富町",
        "streetName": "大字日置３４４２番地",
        "latitude": 32.08990762,
        "longitude": 131.50330833,
        "id": "fae3b46f-7433-460d-8a30-9b15c3f215e6"
    },
    {
        "name": "早日渡神社",
        "prefectureName": "宮崎県",
        "cityName": "延岡市",
        "streetName": "北方町早日渡巳２５９番地",
        "latitude": 32.60495456,
        "longitude": 131.48611299,
        "id": "fa8d97cc-736c-4f6b-9cbc-d18e9a58bc83"
    },
    {
        "name": "早水神社",
        "prefectureName": "宮崎県",
        "cityName": "都城市",
        "streetName": "早水町３８６６番地",
        "latitude": 31.7195901,
        "longitude": 131.061624,
        "id": "e890dad8-4c8d-4f65-8f65-616889c91f23"
    },
    {
        "name": "早馬神社",
        "prefectureName": "宮崎県",
        "cityName": "宮崎市",
        "streetName": "高岡町飯田２２０４番地",
        "latitude": 31.97029649,
        "longitude": 131.29288257,
        "id": "c15e1d81-120a-4187-aeba-b38eeda66bf1"
    },
    {
        "name": "早馬神社",
        "prefectureName": "宮崎県",
        "cityName": "都城市",
        "streetName": "梅北町８０６９番地",
        "latitude": 31.67121649,
        "longitude": 131.03836521,
        "id": "4dc3b3bd-d848-4d8f-9389-b3e95d57022a"
    },
    {
        "name": "旭丘神社",
        "prefectureName": "宮崎県",
        "cityName": "都城市",
        "streetName": "姫城町１３街区６号",
        "latitude": 31.7195901,
        "longitude": 131.061624,
        "id": "4e416e82-ef7f-4a88-80b0-77516e4e3609"
    },
    {
        "name": "明見神社",
        "prefectureName": "宮崎県",
        "cityName": "東諸県郡綾町",
        "streetName": "大字入野４１３８番地",
        "latitude": 32.00387697,
        "longitude": 131.2691514,
        "id": "9e783386-3cd8-4165-abd6-40373e884f5c"
    },
    {
        "name": "春日神社",
        "prefectureName": "宮崎県",
        "cityName": "児湯郡新富町",
        "streetName": "大字新田１３８６７番地",
        "latitude": 32.09759645,
        "longitude": 131.42021552,
        "id": "ecb13858-8a9b-4beb-afbb-95af69b3e891"
    },
    {
        "name": "春日神社",
        "prefectureName": "宮崎県",
        "cityName": "串間市",
        "streetName": "大字南方３４９番地",
        "latitude": 31.4645387,
        "longitude": 131.2283026,
        "id": "c70acb49-6c55-4d0d-b47b-5925da3469ae"
    },
    {
        "name": "春日神社",
        "prefectureName": "宮崎県",
        "cityName": "延岡市",
        "streetName": "恒富町４丁目２０７番地",
        "latitude": 32.56726763,
        "longitude": 131.66207375,
        "id": "d2dcbcd4-7c0b-422f-aa7b-6e647a4faa16"
    },
    {
        "name": "春日神社",
        "prefectureName": "宮崎県",
        "cityName": "児湯郡川南町",
        "streetName": "大字川南２７１０１番地１",
        "latitude": 32.1920697,
        "longitude": 131.525871,
        "id": "df74c48c-ad4a-47b9-9854-7fa26bf6caf9"
    },
    {
        "name": "曹子神社",
        "prefectureName": "宮崎県",
        "cityName": "日南市",
        "streetName": "大字西弁分４８４８番地",
        "latitude": 31.6013985,
        "longitude": 131.3783384,
        "id": "c1ff4f40-acca-4c8f-a7bb-03944f39a809"
    },
    {
        "name": "曽木神社",
        "prefectureName": "宮崎県",
        "cityName": "延岡市",
        "streetName": "北方町曽木子１１８４番地１１８５番地",
        "latitude": 32.60495456,
        "longitude": 131.48611299,
        "id": "f0e7f9b7-9638-466c-938e-15cec6cbe50d"
    },
    {
        "name": "本城神社",
        "prefectureName": "宮崎県",
        "cityName": "串間市",
        "streetName": "大字本城７６４４番地",
        "latitude": 31.43183603,
        "longitude": 131.2638265,
        "id": "4e9b845b-1940-483b-ad0c-7e920ad63a37"
    },
    {
        "name": "東上那珂神社",
        "prefectureName": "宮崎県",
        "cityName": "宮崎市",
        "streetName": "佐土原町東上那珂１３９４５番地",
        "latitude": 32.02586217,
        "longitude": 131.43129625,
        "id": "255235c1-9e7c-4971-90ab-8754f648192e"
    },
    {
        "name": "東海神社",
        "prefectureName": "宮崎県",
        "cityName": "延岡市",
        "streetName": "東海町１０２番地",
        "latitude": 32.59694754,
        "longitude": 131.70947198,
        "id": "e4e71ec5-3810-4616-a17c-5f1e219711ad"
    },
    {
        "name": "東霧島神社",
        "prefectureName": "宮崎県",
        "cityName": "都城市",
        "streetName": "高崎町東霧島１５６０番地イ",
        "latitude": 31.84471471,
        "longitude": 131.06153101,
        "id": "f6b0f244-021e-4191-bd6d-044340cfe9bb"
    },
    {
        "name": "松ノ平神社",
        "prefectureName": "宮崎県",
        "cityName": "東臼杵郡諸塚村",
        "streetName": "大字七ツ山２９３・２９４番地",
        "latitude": 32.50449789,
        "longitude": 131.30851261,
        "id": "9bb3bbc6-2c75-4bd1-aa9c-c75d3e7d6cd5"
    },
    {
        "name": "松尾神社",
        "prefectureName": "宮崎県",
        "cityName": "日南市",
        "streetName": "南郷町谷之口字永迫１１１９番地",
        "latitude": 31.54090593,
        "longitude": 131.38229234,
        "id": "45837565-5576-402e-b0f7-ae0d245765d3"
    },
    {
        "name": "松熊神社",
        "prefectureName": "宮崎県",
        "cityName": "宮崎市",
        "streetName": "小戸町３６番地",
        "latitude": 31.90351321,
        "longitude": 131.45172463,
        "id": "cdc038c4-a67d-4dc9-9bf5-ba4b270ae259"
    },
    {
        "name": "林田神社",
        "prefectureName": "宮崎県",
        "cityName": "都城市",
        "streetName": "金田町１９８５番地",
        "latitude": 31.76918866,
        "longitude": 131.07847447,
        "id": "82c20f05-928e-4f41-a478-c9246bb3f077"
    },
    {
        "name": "柏原神社",
        "prefectureName": "宮崎県",
        "cityName": "宮崎市",
        "streetName": "大字柏原８２１番地",
        "latitude": 31.93797367,
        "longitude": 131.37428212,
        "id": "0c279220-d21d-48e6-9617-075fb39bfc59"
    },
    {
        "name": "柚木野神社",
        "prefectureName": "宮崎県",
        "cityName": "西臼杵郡高千穂町",
        "streetName": "大字上野９３２番地",
        "latitude": 32.74170281,
        "longitude": 131.29275953,
        "id": "de0b5b32-0793-45d2-8fef-519b3e15ea7f"
    },
    {
        "name": "栂尾神社",
        "prefectureName": "宮崎県",
        "cityName": "東臼杵郡椎葉村",
        "streetName": "大字大河内２３５番地",
        "latitude": 32.40509856,
        "longitude": 131.24250867,
        "id": "3ebadb9f-1b63-4841-a2d9-45fe1bdfa650"
    },
    {
        "name": "栗尾神社",
        "prefectureName": "宮崎県",
        "cityName": "日向市",
        "streetName": "大字塩見４５７３番地",
        "latitude": 32.41438308,
        "longitude": 131.60375848,
        "id": "7b520cdd-3500-489f-a87e-e8b96121cb96"
    },
    {
        "name": "桂神社",
        "prefectureName": "宮崎県",
        "cityName": "東臼杵郡諸塚村",
        "streetName": "大字七ツ山２０３９・２０４０番地",
        "latitude": 32.5635556,
        "longitude": 131.29145377,
        "id": "5e365f3f-d813-47bc-b735-51bb856133b3"
    },
    {
        "name": "桑野内神社",
        "prefectureName": "宮崎県",
        "cityName": "西臼杵郡五ヶ瀬町",
        "streetName": "大字桑野内３６番地",
        "latitude": 32.6830229,
        "longitude": 131.1963782,
        "id": "42e58b79-c113-4a1f-9979-a2123033db72"
    },
    {
        "name": "森竹神社",
        "prefectureName": "宮崎県",
        "cityName": "東諸県郡国富町",
        "streetName": "大字森永１７２７番地",
        "latitude": 31.99848885,
        "longitude": 131.28570606,
        "id": "7dc93736-b1be-455c-99f1-1da22849c673"
    },
    {
        "name": "椎屋谷神社",
        "prefectureName": "宮崎県",
        "cityName": "西臼杵郡高千穂町",
        "streetName": "大字向山５００番地",
        "latitude": 32.69378799,
        "longitude": 131.29923725,
        "id": "0a8308c5-65b4-4055-81dc-3a0f9a229a41"
    },
    {
        "name": "椎畑神社",
        "prefectureName": "宮崎県",
        "cityName": "延岡市",
        "streetName": "北方町菅原未１１６７番地",
        "latitude": 32.60495456,
        "longitude": 131.48611299,
        "id": "e445dc8f-ef39-4712-9512-42d82633ed4a"
    },
    {
        "name": "椎葉厳島神社",
        "prefectureName": "宮崎県",
        "cityName": "東臼杵郡椎葉村",
        "streetName": "大字下福良１８２２番地",
        "latitude": 32.46385887,
        "longitude": 131.15506484,
        "id": "b0a9f144-432a-4239-8c4a-dfa153452c40"
    },
    {
        "name": "椎谷神社",
        "prefectureName": "宮崎県",
        "cityName": "西臼杵郡日之影町",
        "streetName": "大字七折１４２６１番地乙",
        "latitude": 32.6538578,
        "longitude": 131.3877651,
        "id": "7431e44a-36f1-444d-a2ae-916f95136ac3"
    },
    {
        "name": "榎原神社",
        "prefectureName": "宮崎県",
        "cityName": "日南市",
        "streetName": "南郷町榎原字中尾二甲１１３４番地４",
        "latitude": 31.54090593,
        "longitude": 131.38229234,
        "id": "9d6cb17d-ca81-4b63-8ba1-e4d688bcdbd6"
    },
    {
        "name": "槵觸神社",
        "prefectureName": "宮崎県",
        "cityName": "西臼杵郡高千穂町",
        "streetName": "大字三田井７１３番地",
        "latitude": 32.7116564,
        "longitude": 131.3080278,
        "id": "d3d1043d-f797-404b-aa8b-7e31e7748d58"
    },
    {
        "name": "櫛津神社",
        "prefectureName": "宮崎県",
        "cityName": "延岡市",
        "streetName": "櫛津町３５１５番地イ",
        "latitude": 32.50456013,
        "longitude": 131.67920805,
        "id": "e3d2017b-b838-4c0f-a602-5eb6726becac"
    },
    {
        "name": "母智丘神社",
        "prefectureName": "宮崎県",
        "cityName": "都城市",
        "streetName": "横市町６６９１番地",
        "latitude": 31.7195901,
        "longitude": 131.061624,
        "id": "26446e7b-427a-4428-af66-22de8a0c14be"
    },
    {
        "name": "比木神社",
        "prefectureName": "宮崎県",
        "cityName": "児湯郡木城町",
        "streetName": "大字椎木１３０６番地イ号",
        "latitude": 32.16536566,
        "longitude": 131.45026022,
        "id": "69cf98bc-d2e1-4893-b8cb-4b92c5045f6a"
    },
    {
        "name": "毛吉田神社",
        "prefectureName": "宮崎県",
        "cityName": "日南市",
        "streetName": "大字毛吉田５３０番地",
        "latitude": 31.6013985,
        "longitude": 131.3783384,
        "id": "81730206-14d0-44e5-92da-ad7a066359a4"
    },
    {
        "name": "毛比呂計神社",
        "prefectureName": "宮崎県",
        "cityName": "児湯郡高鍋町",
        "streetName": "大字北高鍋２０１５番地のイ号",
        "latitude": 32.12134913,
        "longitude": 131.51646948,
        "id": "a5821b75-adf2-45be-a336-56f9cad1c451"
    },
    {
        "name": "水分神社",
        "prefectureName": "宮崎県",
        "cityName": "児湯郡木城町",
        "streetName": "大字高城３５５８番地",
        "latitude": 32.1641772,
        "longitude": 131.4736164,
        "id": "9229ddff-57e1-4b23-9318-27fbe21ba0ed"
    },
    {
        "name": "水沼神社",
        "prefectureName": "宮崎県",
        "cityName": "児湯郡新富町",
        "streetName": "大字日置６７９番地",
        "latitude": 32.08088674,
        "longitude": 131.51220511,
        "id": "5475dcc3-adaa-4149-b669-47f289128753"
    },
    {
        "name": "水流神社",
        "prefectureName": "宮崎県",
        "cityName": "都城市",
        "streetName": "下水流町１６３７番地",
        "latitude": 31.7195901,
        "longitude": 131.061624,
        "id": "7d5b92ec-9431-4dcf-8a4e-55448af583fd"
    },
    {
        "name": "水清谷神社",
        "prefectureName": "宮崎県",
        "cityName": "東臼杵郡美郷町",
        "streetName": "南郷水清谷１０番地１",
        "latitude": 32.4402748,
        "longitude": 131.4231705,
        "id": "2bcfacd9-3bfa-4533-a452-a55d38dff2fb"
    },
    {
        "name": "水神社",
        "prefectureName": "宮崎県",
        "cityName": "西諸県郡高原町",
        "streetName": "大字広原１４４番地",
        "latitude": 31.9281268,
        "longitude": 131.0080258,
        "id": "9a361aa4-b483-4f5e-b62a-cb4e855b3899"
    },
    {
        "name": "永池神社",
        "prefectureName": "宮崎県",
        "cityName": "延岡市",
        "streetName": "永池町１丁目１番地７",
        "latitude": 32.57288424,
        "longitude": 131.66847028,
        "id": "82f0f232-a04e-432f-8391-a5492b20e784"
    },
    {
        "name": "永田神社",
        "prefectureName": "宮崎県",
        "cityName": "延岡市",
        "streetName": "松山町１１７１番地",
        "latitude": 32.58440422,
        "longitude": 131.63626654,
        "id": "9bc75ea1-7818-43a3-88a3-5eaa1dd4503f"
    },
    {
        "name": "江平神社",
        "prefectureName": "宮崎県",
        "cityName": "都城市",
        "streetName": "高崎町江平５６２番地",
        "latitude": 31.89467689,
        "longitude": 131.08632994,
        "id": "bfcaed5d-8879-4902-8449-1322bc2101d1"
    },
    {
        "name": "江田神社",
        "prefectureName": "宮崎県",
        "cityName": "宮崎市",
        "streetName": "阿波岐原町産母１２７番地イ号，ロ号",
        "latitude": 31.9077892,
        "longitude": 131.4203302,
        "id": "4164e5c9-8261-4d43-8588-8bda5f67cbb9"
    },
    {
        "name": "河上神社",
        "prefectureName": "宮崎県",
        "cityName": "宮崎市",
        "streetName": "大字大瀬町４４２２番地",
        "latitude": 32.01510936,
        "longitude": 131.39821282,
        "id": "084b998f-d70d-4118-b76a-a08cee3d24cb"
    },
    {
        "name": "波瀬神社",
        "prefectureName": "宮崎県",
        "cityName": "西臼杵郡日之影町",
        "streetName": "大字七折９７４２番地",
        "latitude": 32.67734736,
        "longitude": 131.37234932,
        "id": "d75624be-fff5-4eca-b8be-9f64ccc6f5bd"
    },
    {
        "name": "津屋野神社",
        "prefectureName": "宮崎県",
        "cityName": "日南市",
        "streetName": "南郷町津屋野字庚申免１６０１番地",
        "latitude": 31.55437684,
        "longitude": 131.36194351,
        "id": "0b32115e-a531-4ab5-aae9-b571cb002491"
    },
    {
        "name": "浦安四柱神社",
        "prefectureName": "宮崎県",
        "cityName": "宮崎市",
        "streetName": "佐土原町上田島１９４２番地１",
        "latitude": 32.05064566,
        "longitude": 131.43637554,
        "id": "f8320f49-7a8d-443d-a782-3d2ec4a40624"
    },
    {
        "name": "浦尻神社",
        "prefectureName": "宮崎県",
        "cityName": "延岡市",
        "streetName": "浦城町９６番地",
        "latitude": 32.6467336,
        "longitude": 131.74594711,
        "id": "a180d2ad-4c7a-4c75-945e-6e89819ebd71"
    },
    {
        "name": "浮田神社",
        "prefectureName": "宮崎県",
        "cityName": "宮崎市",
        "streetName": "大字浮田２８１６番地",
        "latitude": 31.92840788,
        "longitude": 131.37239644,
        "id": "265262c2-5dad-4f6f-b0eb-57174bc2cd7a"
    },
    {
        "name": "海宮神社",
        "prefectureName": "宮崎県",
        "cityName": "日南市",
        "streetName": "大字宮浦字小谷５７８９番地",
        "latitude": 31.6013985,
        "longitude": 131.3783384,
        "id": "3f4b5ae2-b9f3-4dcf-8bed-e6945e270295"
    },
    {
        "name": "海神社",
        "prefectureName": "宮崎県",
        "cityName": "日向市",
        "streetName": "大字日知屋１５７８２番地乙",
        "latitude": 32.45043339,
        "longitude": 131.65183628,
        "id": "2801287e-86ff-4f0d-bcba-8a0cfb51124d"
    },
    {
        "name": "海童神社",
        "prefectureName": "宮崎県",
        "cityName": "延岡市",
        "streetName": "長浜町１９７０番地ロ号",
        "latitude": 32.57259356,
        "longitude": 131.692155,
        "id": "00b9db5c-6476-455b-ae8d-6d3788fb96ab"
    },
    {
        "name": "淀川橘稲荷神社",
        "prefectureName": "宮崎県",
        "cityName": "宮崎市",
        "streetName": "淀川町二丁目２２番地",
        "latitude": 31.9077892,
        "longitude": 131.4203302,
        "id": "bed20ee0-5a92-4991-af06-e2f79f7d4dab"
    },
    {
        "name": "淤賀美神社",
        "prefectureName": "宮崎県",
        "cityName": "児湯郡新富町",
        "streetName": "大字三納代２５１６番地",
        "latitude": 32.07178133,
        "longitude": 131.48906602,
        "id": "354dca5e-f09f-4ff0-a708-5fc82ed3bbd9"
    },
    {
        "name": "深年神社",
        "prefectureName": "宮崎県",
        "cityName": "東諸県郡国富町",
        "streetName": "大字深年７６９番地",
        "latitude": 31.9905292,
        "longitude": 131.3234829,
        "id": "eb12e7e5-1532-4ae7-baa2-e8afad65fef3"
    },
    {
        "name": "深角神社",
        "prefectureName": "宮崎県",
        "cityName": "西臼杵郡日之影町",
        "streetName": "大字七折１２７１８番地",
        "latitude": 32.68845699,
        "longitude": 131.34898974,
        "id": "4fa1bf99-633c-427e-a79e-c8e933feee87"
    },
    {
        "name": "清水神社",
        "prefectureName": "宮崎県",
        "cityName": "西都市",
        "streetName": "大字清水３６番地",
        "latitude": 32.09360208,
        "longitude": 131.39091211,
        "id": "e4446ed0-2549-4faf-b547-31103add1aeb"
    },
    {
        "name": "渡川神社",
        "prefectureName": "宮崎県",
        "cityName": "東臼杵郡美郷町",
        "streetName": "南郷上渡川１４０９番地のイ",
        "latitude": 32.4402748,
        "longitude": 131.4231705,
        "id": "cf7725a2-0ab2-4da6-b41c-140bf47295bf"
    },
    {
        "name": "港柱神社",
        "prefectureName": "宮崎県",
        "cityName": "日向市",
        "streetName": "大字幸脇５番地",
        "latitude": 32.4226467,
        "longitude": 131.6239814,
        "id": "ada0b424-a43d-4cbc-8899-eac0c14f06aa"
    },
    {
        "name": "湯之宮神社",
        "prefectureName": "宮崎県",
        "cityName": "児湯郡新富町",
        "streetName": "大字新田１８６３３番地２",
        "latitude": 32.09691093,
        "longitude": 131.45436257,
        "id": "13b04d19-efe1-4788-8ae7-8e8a07b0b482"
    },
    {
        "name": "源王神社",
        "prefectureName": "宮崎県",
        "cityName": "東諸県郡国富町",
        "streetName": "大字伊左生８３番地",
        "latitude": 32.01601333,
        "longitude": 131.34052991,
        "id": "1c846c95-6e98-4021-a269-1c95a65e6077"
    },
    {
        "name": "潟上神社",
        "prefectureName": "宮崎県",
        "cityName": "日南市",
        "streetName": "南郷町潟上２４２６番地",
        "latitude": 31.50843545,
        "longitude": 131.34939274,
        "id": "651ac006-ec16-4816-8e7c-7c31adcd6ac8"
    },
    {
        "name": "潤島神社",
        "prefectureName": "宮崎県",
        "cityName": "東臼杵郡門川町",
        "streetName": "大字門川尾末８０１番地２",
        "latitude": 32.45988222,
        "longitude": 131.64488087,
        "id": "fd9f6f79-f52b-40f2-8814-8d671ac606e5"
    },
    {
        "name": "潮嶽神社",
        "prefectureName": "宮崎県",
        "cityName": "日南市",
        "streetName": "北郷町北河内８８６６番地",
        "latitude": 31.67724775,
        "longitude": 131.37359742,
        "id": "62e63baa-19b0-44fb-9cc0-9e6c09a47806"
    },